{
  "type": "FeatureCollection",
  "features": [
    {
      "type": "Feature",
      "geometry": {
        "type": "Point",
        "coordinates": [
          7.92917,
          51.6739
        ]
      },
      "properties": {
        "label": "Hamm-Uentrop power station",
        "type": "Gas-fired power station",
        "entity": "http://www.wikidata.org/entity/Q1457084",
        "country_qid": "Q183"
      }
    },
    {
      "type": "Feature",
      "geometry": {
        "type": "Point",
        "coordinates": [
          9.48401,
          51.2791
        ]
      },
      "properties": {
        "label": "Kassel power station",
        "type": "Gas-fired power station",
        "entity": "http://www.wikidata.org/entity/Q1601474",
        "country_qid": "Q183"
      }
    },
    {
      "type": "Feature",
      "geometry": {
        "type": "Point",
        "coordinates": [
          6.748055555,
          51.39
        ]
      },
      "properties": {
        "label": "Duisburg-Wanheim power station",
        "type": "Gas-fired power station",
        "entity": "http://www.wikidata.org/entity/Q30973194",
        "country_qid": "Q183"
      }
    },
    {
      "type": "Feature",
      "geometry": {
        "type": "Point",
        "coordinates": [
          8.40886,
          53.1897
        ]
      },
      "properties": {
        "label": "Huntorf power station",
        "type": "Gas-fired power station",
        "entity": "http://www.wikidata.org/entity/Q1315344",
        "country_qid": "Q183"
      }
    },
    {
      "type": "Feature",
      "geometry": {
        "type": "Point",
        "coordinates": [
          11.03944444,
          51.01861111
        ]
      },
      "properties": {
        "label": "Kraftwerk Erfurt-Ost",
        "type": "Gas-fired power station",
        "entity": "http://www.wikidata.org/entity/Q1547171",
        "country_qid": "Q183"
      }
    },
    {
      "type": "Feature",
      "geometry": {
        "type": "Point",
        "coordinates": [
          8.653361,
          50.098333
        ]
      },
      "properties": {
        "label": "Heizkraftwerk West (Frankfurt)",
        "type": "Gas-fired power station",
        "entity": "http://www.wikidata.org/entity/Q27050575",
        "country_qid": "Q183"
      }
    },
    {
      "type": "Feature",
      "geometry": {
        "type": "Point",
        "coordinates": [
          13.5103,
          52.6347
        ]
      },
      "properties": {
        "label": "Buch combined heat and power station",
        "type": "Gas-fired power station",
        "entity": "http://www.wikidata.org/entity/Q1374342",
        "country_qid": "Q183"
      }
    },
    {
      "type": "Feature",
      "geometry": {
        "type": "Point",
        "coordinates": [
          12.4181,
          52.3942
        ]
      },
      "properties": {
        "label": "Kirchmöser power station",
        "type": "Gas-fired power station",
        "entity": "http://www.wikidata.org/entity/Q1786136",
        "country_qid": "Q183"
      }
    },
    {
      "type": "Feature",
      "geometry": {
        "type": "Point",
        "coordinates": [
          8.87317,
          53.0598
        ]
      },
      "properties": {
        "label": "Bremen-Hastedt power plant",
        "type": "Gas-fired power station",
        "entity": "http://www.wikidata.org/entity/Q1786072",
        "country_qid": "Q183"
      }
    },
    {
      "type": "Feature",
      "geometry": {
        "type": "Point",
        "coordinates": [
          8.64944444,
          49.88555556
        ]
      },
      "properties": {
        "label": "Darmstadt gas power station",
        "type": "Gas-fired power station",
        "entity": "http://www.wikidata.org/entity/Q19283665",
        "country_qid": "Q183"
      }
    },
    {
      "type": "Feature",
      "geometry": {
        "type": "Point",
        "coordinates": [
          6.72387,
          51.3761
        ]
      },
      "properties": {
        "label": "Power Station Duisburg-Huckingen",
        "type": "Gas-fired power station",
        "entity": "http://www.wikidata.org/entity/Q1707198",
        "country_qid": "Q183"
      }
    },
    {
      "type": "Feature",
      "geometry": {
        "type": "Point",
        "coordinates": [
          8.68524,
          53.1289
        ]
      },
      "properties": {
        "label": "Q117475",
        "type": "Gas-fired power station",
        "entity": "http://www.wikidata.org/entity/Q117475",
        "country_qid": "Q183"
      }
    },
    {
      "type": "Feature",
      "geometry": {
        "type": "Point",
        "coordinates": [
          13.113053,
          52.365206
        ]
      },
      "properties": {
        "label": "Heizkraftwerk Potsdam-Süd",
        "type": "Gas-fired power station",
        "entity": "http://www.wikidata.org/entity/Q27842223",
        "country_qid": "Q183"
      }
    },
    {
      "type": "Feature",
      "geometry": {
        "type": "Point",
        "coordinates": [
          8.93324,
          52.1898
        ]
      },
      "properties": {
        "label": "Veltheim joint-venture power station",
        "type": "Gas-fired power station",
        "entity": "http://www.wikidata.org/entity/Q1493565",
        "country_qid": "Q183"
      }
    },
    {
      "type": "Feature",
      "geometry": {
        "type": "Point",
        "coordinates": [
          7.20027778,
          51.26888889
        ]
      },
      "properties": {
        "label": "Heizkraftwerk Wuppertal-Barmen",
        "type": "Gas-fired power station",
        "entity": "http://www.wikidata.org/entity/Q1601501",
        "country_qid": "Q183"
      }
    },
    {
      "type": "Feature",
      "geometry": {
        "type": "Point",
        "coordinates": [
          7.27681,
          52.7548
        ]
      },
      "properties": {
        "label": "Meppen-Hüntel power station",
        "type": "Gas-fired power station",
        "entity": "http://www.wikidata.org/entity/Q1786159",
        "country_qid": "Q183"
      }
    },
    {
      "type": "Feature",
      "geometry": {
        "type": "Point",
        "coordinates": [
          12.868277777,
          48.797555555
        ]
      },
      "properties": {
        "label": "Q30973445",
        "type": "Gas-fired power station",
        "entity": "http://www.wikidata.org/entity/Q30973445",
        "country_qid": "Q183"
      }
    },
    {
      "type": "Feature",
      "geometry": {
        "type": "Point",
        "coordinates": [
          6.73095,
          51.45992
        ]
      },
      "properties": {
        "label": "Hermann Wenzel power station",
        "type": "Gas-fired power station",
        "entity": "http://www.wikidata.org/entity/Q977649",
        "country_qid": "Q183"
      }
    },
    {
      "type": "Feature",
      "geometry": {
        "type": "Point",
        "coordinates": [
          11.06055556,
          49.43861111
        ]
      },
      "properties": {
        "label": "Heizkraftwerk Sandreuth",
        "type": "Gas-fired power station",
        "entity": "http://www.wikidata.org/entity/Q15814995",
        "country_qid": "Q183"
      }
    },
    {
      "type": "Feature",
      "geometry": {
        "type": "Point",
        "coordinates": [
          9.20089,
          53.8925
        ]
      },
      "properties": {
        "label": "Q1495685",
        "type": "Gas-fired power station",
        "entity": "http://www.wikidata.org/entity/Q1495685",
        "country_qid": "Q183"
      }
    },
    {
      "type": "Feature",
      "geometry": {
        "type": "Point",
        "coordinates": [
          9.71419,
          52.3729
        ]
      },
      "properties": {
        "label": "Heizkraftwerk Linden",
        "type": "Gas-fired power station",
        "entity": "http://www.wikidata.org/entity/Q1307882",
        "country_qid": "Q183"
      }
    },
    {
      "type": "Feature",
      "geometry": {
        "type": "Point",
        "coordinates": [
          6.841111,
          50.859444
        ]
      },
      "properties": {
        "label": "Knapsack combined cycle power stations",
        "type": "Gas-fired power station",
        "entity": "http://www.wikidata.org/entity/Q66351221",
        "country_qid": "Q183"
      }
    },
    {
      "type": "Feature",
      "geometry": {
        "type": "Point",
        "coordinates": [
          9.923,
          49.799972222
        ]
      },
      "properties": {
        "label": "Heizkraftwerk Würzburg",
        "type": "Gas-fired power station",
        "entity": "http://www.wikidata.org/entity/Q1601502",
        "country_qid": "Q183"
      }
    },
    {
      "type": "Feature",
      "geometry": {
        "type": "Point",
        "coordinates": [
          7.64128,
          51.9501
        ]
      },
      "properties": {
        "label": "GuD-Kraftwerk Münster Hafen",
        "type": "Gas-fired power station",
        "entity": "http://www.wikidata.org/entity/Q1552533",
        "country_qid": "Q183"
      }
    },
    {
      "type": "Feature",
      "geometry": {
        "type": "Point",
        "coordinates": [
          10.063611111,
          53.526944444
        ]
      },
      "properties": {
        "label": "Hamburg Tiefstack combined heat and power station",
        "type": "Gas-fired power station",
        "entity": "http://www.wikidata.org/entity/Q19392478",
        "country_qid": "Q183"
      }
    },
    {
      "type": "Feature",
      "geometry": {
        "type": "Point",
        "coordinates": [
          13.3103,
          52.5214
        ]
      },
      "properties": {
        "label": "Charlottenburg power station",
        "type": "Gas-fired power station",
        "entity": "http://www.wikidata.org/entity/Q1672903",
        "country_qid": "Q183"
      }
    },
    {
      "type": "Feature",
      "geometry": {
        "type": "Point",
        "coordinates": [
          7.71694,
          51.6733
        ]
      },
      "properties": {
        "label": "Gerstein power station",
        "type": "Gas-fired power station",
        "entity": "http://www.wikidata.org/entity/Q1515067",
        "country_qid": "Q183"
      }
    },
    {
      "type": "Feature",
      "geometry": {
        "type": "Point",
        "coordinates": [
          6.847777777,
          50.861944444
        ]
      },
      "properties": {
        "label": "Knapsack II combined cycle power station",
        "type": "Gas-fired power station",
        "entity": "http://www.wikidata.org/entity/Q57951054",
        "country_qid": "Q183"
      }
    },
    {
      "type": "Feature",
      "geometry": {
        "type": "Point",
        "coordinates": [
          13.5586,
          52.5896
        ]
      },
      "properties": {
        "label": "Ahrensfelde power station",
        "type": "Gas-fired power station",
        "entity": "http://www.wikidata.org/entity/Q1495686",
        "country_qid": "Q183"
      }
    },
    {
      "type": "Feature",
      "geometry": {
        "type": "Point",
        "coordinates": [
          8.43156,
          49.5137
        ]
      },
      "properties": {
        "label": "Q1786055",
        "type": "Gas-fired power station",
        "entity": "http://www.wikidata.org/entity/Q1786055",
        "country_qid": "Q183"
      }
    },
    {
      "type": "Feature",
      "geometry": {
        "type": "Point",
        "coordinates": [
          6.828638888,
          51.079277777
        ]
      },
      "properties": {
        "label": "Q15294503",
        "type": "Gas-fired power station",
        "entity": "http://www.wikidata.org/entity/Q15294503",
        "country_qid": "Q183"
      }
    },
    {
      "type": "Feature",
      "geometry": {
        "type": "Point",
        "coordinates": [
          11.0088,
          49.4208
        ]
      },
      "properties": {
        "label": "Franken I power station",
        "type": "Gas-fired power station",
        "entity": "http://www.wikidata.org/entity/Q685443",
        "country_qid": "Q183"
      }
    },
    {
      "type": "Feature",
      "geometry": {
        "type": "Point",
        "coordinates": [
          8.99916667,
          48.69722222
        ]
      },
      "properties": {
        "label": "Heizkraftwerk des Mercedes-Benz-Werks Sindelfingen",
        "type": "Gas-fired power station",
        "entity": "http://www.wikidata.org/entity/Q15804403",
        "country_qid": "Q183"
      }
    },
    {
      "type": "Feature",
      "geometry": {
        "type": "Point",
        "coordinates": [
          6.727523,
          51.492182
        ]
      },
      "properties": {
        "label": "Heizkraftwerk Hamborn",
        "type": "Gas-fired power station",
        "entity": "http://www.wikidata.org/entity/Q20704185",
        "country_qid": "Q183"
      }
    },
    {
      "type": "Feature",
      "geometry": {
        "type": "Point",
        "coordinates": [
          13.3014,
          52.2302
        ]
      },
      "properties": {
        "label": "Thyrow power station",
        "type": "Gas-fired power station",
        "entity": "http://www.wikidata.org/entity/Q1379608",
        "country_qid": "Q183"
      }
    },
    {
      "type": "Feature",
      "geometry": {
        "type": "Point",
        "coordinates": [
          13.31,
          52.4256
        ]
      },
      "properties": {
        "label": "Lichterfelde power station",
        "type": "Gas-fired power station",
        "entity": "http://www.wikidata.org/entity/Q1786061",
        "country_qid": "Q183"
      }
    },
    {
      "type": "Feature",
      "geometry": {
        "type": "Point",
        "coordinates": [
          7.015,
          49.2236
        ]
      },
      "properties": {
        "label": "Römerbrück power station",
        "type": "Gas-fired power station",
        "entity": "http://www.wikidata.org/entity/Q1786197",
        "country_qid": "Q183"
      }
    },
    {
      "type": "Feature",
      "geometry": {
        "type": "Point",
        "coordinates": [
          6.841111111,
          50.859166666
        ]
      },
      "properties": {
        "label": "Knapsack I combined cycle power station",
        "type": "Gas-fired power station",
        "entity": "http://www.wikidata.org/entity/Q19377541",
        "country_qid": "Q183"
      }
    },
    {
      "type": "Feature",
      "geometry": {
        "type": "Point",
        "coordinates": [
          7.2102,
          53.3404
        ]
      },
      "properties": {
        "label": "Emden power station",
        "type": "Gas-fired power station",
        "entity": "http://www.wikidata.org/entity/Q20671817",
        "country_qid": "Q183"
      }
    },
    {
      "type": "Feature",
      "geometry": {
        "type": "Point",
        "coordinates": [
          8.64744,
          52.1962
        ]
      },
      "properties": {
        "label": "Kirchlengern power station",
        "type": "Gas-fired power station",
        "entity": "http://www.wikidata.org/entity/Q1473343",
        "country_qid": "Q183"
      }
    },
    {
      "type": "Feature",
      "geometry": {
        "type": "Point",
        "coordinates": [
          7.414388888,
          51.403
        ]
      },
      "properties": {
        "label": "Cuno-Kraftwerk",
        "type": "Gas-fired power station",
        "entity": "http://www.wikidata.org/entity/Q1144058",
        "country_qid": "Q183"
      }
    },
    {
      "type": "Feature",
      "geometry": {
        "type": "Point",
        "coordinates": [
          7.30574,
          52.481
        ]
      },
      "properties": {
        "label": "Emsland gas power station",
        "type": "Gas-fired power station",
        "entity": "http://www.wikidata.org/entity/Q1349188",
        "country_qid": "Q183"
      }
    },
    {
      "type": "Feature",
      "geometry": {
        "type": "Point",
        "coordinates": [
          6.96405,
          51.0179
        ]
      },
      "properties": {
        "label": "Heizkraftwerk Köln-Merkenich",
        "type": "Gas-fired power station",
        "entity": "http://www.wikidata.org/entity/Q1601476",
        "country_qid": "Q183"
      }
    },
    {
      "type": "Feature",
      "geometry": {
        "type": "Point",
        "coordinates": [
          11.9931,
          51.459
        ]
      },
      "properties": {
        "label": "Kraftwerk Halle-Dieselstraße",
        "type": "Gas-fired power station",
        "entity": "http://www.wikidata.org/entity/Q1786107",
        "country_qid": "Q183"
      }
    },
    {
      "type": "Feature",
      "geometry": {
        "type": "Point",
        "coordinates": [
          11.58,
          48.7675
        ]
      },
      "properties": {
        "label": "Irsching Power Station",
        "type": "Gas-fired power station",
        "entity": "http://www.wikidata.org/entity/Q878529",
        "country_qid": "Q183"
      }
    },
    {
      "type": "Feature",
      "geometry": {
        "type": "Point",
        "coordinates": [
          6.73111,
          51.2214
        ]
      },
      "properties": {
        "label": "Lausward power station",
        "type": "Gas-fired power station",
        "entity": "http://www.wikidata.org/entity/Q1786148",
        "country_qid": "Q183"
      }
    },
    {
      "type": "Feature",
      "geometry": {
        "type": "Point",
        "coordinates": [
          8.68198,
          53.1294
        ]
      },
      "properties": {
        "label": "Q1501013",
        "type": "Gas-fired power station",
        "entity": "http://www.wikidata.org/entity/Q1501013",
        "country_qid": "Q183"
      }
    },
    {
      "type": "Feature",
      "geometry": {
        "type": "Point",
        "coordinates": [
          9.11303,
          52.5467
        ]
      },
      "properties": {
        "label": "Landesbergen power station \"Robert Frank\"",
        "type": "Gas-fired power station",
        "entity": "http://www.wikidata.org/entity/Q1786143",
        "country_qid": "Q183"
      }
    },
    {
      "type": "Feature",
      "geometry": {
        "type": "Point",
        "coordinates": [
          8.415036,
          49.705371
        ]
      },
      "properties": {
        "label": "Biblis gas turbine power station",
        "type": "Gas-fired power station",
        "entity": "http://www.wikidata.org/entity/Q113572048",
        "country_qid": "Q183"
      }
    },
    {
      "type": "Feature",
      "geometry": {
        "type": "Point",
        "coordinates": [
          9.95166667,
          53.49
        ]
      },
      "properties": {
        "label": "Q1146168",
        "type": "Gas-fired power station",
        "entity": "http://www.wikidata.org/entity/Q1146168",
        "country_qid": "Q183"
      }
    },
    {
      "type": "Feature",
      "geometry": {
        "type": "Point",
        "coordinates": [
          11.8398,
          47.7522
        ]
      },
      "properties": {
        "label": "Hausham power station",
        "type": "Gas-fired power station",
        "entity": "http://www.wikidata.org/entity/Q1786112",
        "country_qid": "Q183"
      }
    },
    {
      "type": "Feature",
      "geometry": {
        "type": "Point",
        "coordinates": [
          8.237527777,
          50.026888888
        ]
      },
      "properties": {
        "label": "Q30973700",
        "type": "Gas-fired power station",
        "entity": "http://www.wikidata.org/entity/Q30973700",
        "country_qid": "Q183"
      }
    },
    {
      "type": "Feature",
      "geometry": {
        "type": "Point",
        "coordinates": [
          10.178611111,
          54.340833333
        ]
      },
      "properties": {
        "label": "Küstenkraftwerk Kiel",
        "type": "Gas-fired power station",
        "entity": "http://www.wikidata.org/entity/Q54881660",
        "country_qid": "Q183"
      }
    },
    {
      "type": "Feature",
      "geometry": {
        "type": "Point",
        "coordinates": [
          13.495,
          52.49
        ]
      },
      "properties": {
        "label": "Klingenberg power station",
        "type": "Gas-fired power station",
        "entity": "http://www.wikidata.org/entity/Q1786140",
        "country_qid": "Q183"
      }
    },
    {
      "type": "Feature",
      "geometry": {
        "type": "Point",
        "coordinates": [
          9.2369,
          52.3609
        ]
      },
      "properties": {
        "label": "Grubengaskraftwerk Lüdersfeld",
        "type": "Gas-fired power station",
        "entity": "http://www.wikidata.org/entity/Q106448450",
        "country_qid": "Q183"
      }
    },
    {
      "type": "Feature",
      "geometry": {
        "type": "Point",
        "coordinates": [
          11.5559,
          48.1143
        ]
      },
      "properties": {
        "label": "Heizkraftwerk München Süd",
        "type": "Gas-fired power station",
        "entity": "http://www.wikidata.org/entity/Q139366",
        "country_qid": "Q183"
      }
    }
  ]
}