{
  "type": "FeatureCollection",
  "features": [
    {
      "type": "Feature",
      "geometry": {
        "type": "Point",
        "coordinates": [
          26.9564165,
          38.7465325
        ]
      },
      "properties": {
        "label": "İzmir natural gas fired CCPP",
        "type": "Gas-fired power station",
        "entity": "http://www.wikidata.org/entity/Q11977769",
        "country_qid": "Q43"
      }
    },
    {
      "type": "Feature",
      "geometry": {
        "type": "Point",
        "coordinates": [
          32.40219,
          39.7769381
        ]
      },
      "properties": {
        "label": "Baymina Ankara gas power station",
        "type": "Gas-fired power station",
        "entity": "http://www.wikidata.org/entity/Q17750010",
        "country_qid": "Q43"
      }
    },
    {
      "type": "Feature",
      "geometry": {
        "type": "Point",
        "coordinates": [
          27.5597083,
          41.2911734
        ]
      },
      "properties": {
        "label": "Delta gas power station",
        "type": "Gas-fired power station",
        "entity": "http://www.wikidata.org/entity/Q12007279",
        "country_qid": "Q43"
      }
    },
    {
      "type": "Feature",
      "geometry": {
        "type": "Point",
        "coordinates": [
          36.0517001,
          36.9260007
        ]
      },
      "properties": {
        "label": "Erzin gas power plant",
        "type": "Gas-fired power station",
        "entity": "http://www.wikidata.org/entity/Q106671564",
        "country_qid": "Q43"
      }
    },
    {
      "type": "Feature",
      "geometry": {
        "type": "Point",
        "coordinates": [
          29.074,
          40.296
        ]
      },
      "properties": {
        "label": "Bursa gas power plant",
        "type": "Gas-fired power station",
        "entity": "http://www.wikidata.org/entity/Q106670546",
        "country_qid": "Q43"
      }
    },
    {
      "type": "Feature",
      "geometry": {
        "type": "Point",
        "coordinates": [
          32.5011259,
          40.105317
        ]
      },
      "properties": {
        "label": "Kazan gas cogeneration power plant",
        "type": "Gas-fired power station",
        "entity": "http://www.wikidata.org/entity/Q106695968",
        "country_qid": "Q43"
      }
    },
    {
      "type": "Feature",
      "geometry": {
        "type": "Point",
        "coordinates": [
          27.7645647,
          40.2959838
        ]
      },
      "properties": {
        "label": "Bandırma II gas power plant",
        "type": "Gas-fired power station",
        "entity": "http://www.wikidata.org/entity/Q106692522",
        "country_qid": "Q43"
      }
    },
    {
      "type": "Feature",
      "geometry": {
        "type": "Point",
        "coordinates": [
          27.973473,
          41.007564
        ]
      },
      "properties": {
        "label": "Tekirdağ gas power plant A",
        "type": "Gas-fired power station",
        "entity": "http://www.wikidata.org/entity/Q30621654",
        "country_qid": "Q43"
      }
    },
    {
      "type": "Feature",
      "geometry": {
        "type": "Point",
        "coordinates": [
          30.601111111,
          37.124444444
        ]
      },
      "properties": {
        "label": "Aksa Antalya power plant",
        "type": "Gas-fired power station",
        "entity": "http://www.wikidata.org/entity/Q11958366",
        "country_qid": "Q43"
      }
    },
    {
      "type": "Feature",
      "geometry": {
        "type": "Point",
        "coordinates": [
          27.344305555,
          38.616527777
        ]
      },
      "properties": {
        "label": "Manisa industrial park power station",
        "type": "Gas-fired power station",
        "entity": "http://www.wikidata.org/entity/Q108800378",
        "country_qid": "Q43"
      }
    },
    {
      "type": "Feature",
      "geometry": {
        "type": "Point",
        "coordinates": [
          29.5723736,
          40.8163183
        ]
      },
      "properties": {
        "label": "Yeni Elektrik Combined Cycle Power Plant",
        "type": "Gas-fired power station",
        "entity": "http://www.wikidata.org/entity/Q106689096",
        "country_qid": "Q43"
      }
    },
    {
      "type": "Feature",
      "geometry": {
        "type": "Point",
        "coordinates": [
          36.4413232,
          41.2357609
        ]
      },
      "properties": {
        "label": "Yeşilyurt industrial park gas power plant",
        "type": "Gas-fired power station",
        "entity": "http://www.wikidata.org/entity/Q106727591",
        "country_qid": "Q43"
      }
    },
    {
      "type": "Feature",
      "geometry": {
        "type": "Point",
        "coordinates": [
          28.9520699,
          40.2394686
        ]
      },
      "properties": {
        "label": "Bis Enerji gas power plant",
        "type": "Gas-fired power station",
        "entity": "http://www.wikidata.org/entity/Q11961154",
        "country_qid": "Q43"
      }
    },
    {
      "type": "Feature",
      "geometry": {
        "type": "Point",
        "coordinates": [
          30.3918765,
          40.8655316
        ]
      },
      "properties": {
        "label": "Enka Gebze gas power plant",
        "type": "Gas-fired power station",
        "entity": "http://www.wikidata.org/entity/Q11971656",
        "country_qid": "Q43"
      }
    },
    {
      "type": "Feature",
      "geometry": {
        "type": "Point",
        "coordinates": [
          26.9463,
          38.7413
        ]
      },
      "properties": {
        "label": "Habaş/Aliağa gas power plant",
        "type": "Gas-fired power station",
        "entity": "http://www.wikidata.org/entity/Q106727971",
        "country_qid": "Q43"
      }
    },
    {
      "type": "Feature",
      "geometry": {
        "type": "Point",
        "coordinates": [
          28.6989874,
          40.979732
        ]
      },
      "properties": {
        "label": "Ambarlı B gas power plant",
        "type": "Gas-fired power station",
        "entity": "http://www.wikidata.org/entity/Q106692363",
        "country_qid": "Q43"
      }
    },
    {
      "type": "Feature",
      "geometry": {
        "type": "Point",
        "coordinates": [
          28.690555555,
          40.982222222
        ]
      },
      "properties": {
        "label": "Ambarlı power station",
        "type": "Gas-fired power station",
        "entity": "http://www.wikidata.org/entity/Q6023095",
        "country_qid": "Q43"
      }
    },
    {
      "type": "Feature",
      "geometry": {
        "type": "Point",
        "coordinates": [
          38.6595529,
          37.1001539
        ]
      },
      "properties": {
        "label": "Şanlıurfa industrial park power plant",
        "type": "Gas-fired power station",
        "entity": "http://www.wikidata.org/entity/Q106696184",
        "country_qid": "Q43"
      }
    },
    {
      "type": "Feature",
      "geometry": {
        "type": "Point",
        "coordinates": [
          33.4500861,
          39.7571294
        ]
      },
      "properties": {
        "label": "İç Anadolu CCGT Plant",
        "type": "Gas-fired power station",
        "entity": "http://www.wikidata.org/entity/Q106691337",
        "country_qid": "Q43"
      }
    },
    {
      "type": "Feature",
      "geometry": {
        "type": "Point",
        "coordinates": [
          27.3371465,
          41.4816852
        ]
      },
      "properties": {
        "label": "Hamitabat CCGT Power Plant",
        "type": "Gas-fired power station",
        "entity": "http://www.wikidata.org/entity/Q17781997",
        "country_qid": "Q43"
      }
    },
    {
      "type": "Feature",
      "geometry": {
        "type": "Point",
        "coordinates": [
          27.7685666,
          40.3081508
        ]
      },
      "properties": {
        "label": "Bandırma gas power plant",
        "type": "Gas-fired power station",
        "entity": "http://www.wikidata.org/entity/Q106670839",
        "country_qid": "Q43"
      }
    },
    {
      "type": "Feature",
      "geometry": {
        "type": "Point",
        "coordinates": [
          28.6679596,
          41.0650309
        ]
      },
      "properties": {
        "label": "Esenyurt power plant",
        "type": "Gas-fired power station",
        "entity": "http://www.wikidata.org/entity/Q106769930",
        "country_qid": "Q43"
      }
    },
    {
      "type": "Feature",
      "geometry": {
        "type": "Point",
        "coordinates": [
          27.9792649,
          40.9976258
        ]
      },
      "properties": {
        "label": "Tekirdağ gas power plant B",
        "type": "Gas-fired power station",
        "entity": "http://www.wikidata.org/entity/Q19381100",
        "country_qid": "Q43"
      }
    },
    {
      "type": "Feature",
      "geometry": {
        "type": "Point",
        "coordinates": [
          27.191944444,
          41.778055555
        ]
      },
      "properties": {
        "label": "Kirklareli gas power plant",
        "type": "Gas-fired power station",
        "entity": "http://www.wikidata.org/entity/Q19377221",
        "country_qid": "Q43"
      }
    },
    {
      "type": "Feature",
      "geometry": {
        "type": "Point",
        "coordinates": [
          33.4082329,
          39.8847713
        ]
      },
      "properties": {
        "label": "Acwa Power Kırıkkale gas power plant",
        "type": "Gas-fired power station",
        "entity": "http://www.wikidata.org/entity/Q106671514",
        "country_qid": "Q43"
      }
    }
  ]
}