{
  "type": "FeatureCollection",
  "features": [
    {
      "type": "Feature",
      "geometry": {
        "type": "Point",
        "coordinates": [
          18.272511111,
          49.806147222
        ]
      },
      "properties": {
        "label": "Q21102572",
        "type": "Mine",
        "entity": "http://www.wikidata.org/entity/Q21102572",
        "country_qid": "Q213"
      }
    },
    {
      "type": "Feature",
      "geometry": {
        "type": "Point",
        "coordinates": [
          18.309256666,
          49.822181388
        ]
      },
      "properties": {
        "label": "Q19602098",
        "type": "Mine",
        "entity": "http://www.wikidata.org/entity/Q19602098",
        "country_qid": "Q213"
      }
    },
    {
      "type": "Feature",
      "geometry": {
        "type": "Point",
        "coordinates": [
          18.326384,
          49.83861
        ]
      },
      "properties": {
        "label": "Q19602099",
        "type": "Mine",
        "entity": "http://www.wikidata.org/entity/Q19602099",
        "country_qid": "Q213"
      }
    },
    {
      "type": "Feature",
      "geometry": {
        "type": "Point",
        "coordinates": [
          18.303066666,
          49.863766666
        ]
      },
      "properties": {
        "label": "Q20755509",
        "type": "Mine",
        "entity": "http://www.wikidata.org/entity/Q20755509",
        "country_qid": "Q213"
      }
    },
    {
      "type": "Feature",
      "geometry": {
        "type": "Point",
        "coordinates": [
          18.313308333,
          49.843625
        ]
      },
      "properties": {
        "label": "Q19601835",
        "type": "Mine",
        "entity": "http://www.wikidata.org/entity/Q19601835",
        "country_qid": "Q213"
      }
    },
    {
      "type": "Feature",
      "geometry": {
        "type": "Point",
        "coordinates": [
          18.286725,
          49.863297222
        ]
      },
      "properties": {
        "label": "Důl Stachanov",
        "type": "Mine",
        "entity": "http://www.wikidata.org/entity/Q19601828",
        "country_qid": "Q213"
      }
    },
    {
      "type": "Feature",
      "geometry": {
        "type": "Point",
        "coordinates": [
          18.23954,
          49.863351
        ]
      },
      "properties": {
        "label": "Oskar mine",
        "type": "Mine",
        "entity": "http://www.wikidata.org/entity/Q19601837",
        "country_qid": "Q213"
      }
    },
    {
      "type": "Feature",
      "geometry": {
        "type": "Point",
        "coordinates": [
          18.3406583,
          49.8436072
        ]
      },
      "properties": {
        "label": "Důl Petr a Pavel",
        "type": "Mine",
        "entity": "http://www.wikidata.org/entity/Q20057299",
        "country_qid": "Q213"
      }
    },
    {
      "type": "Feature",
      "geometry": {
        "type": "Point",
        "coordinates": [
          18.2782625,
          49.8211731
        ]
      },
      "properties": {
        "label": "Důl Hlubina",
        "type": "Mine",
        "entity": "http://www.wikidata.org/entity/Q21097723",
        "country_qid": "Q213"
      }
    },
    {
      "type": "Feature",
      "geometry": {
        "type": "Point",
        "coordinates": [
          18.213097222,
          49.819569444
        ]
      },
      "properties": {
        "label": "Q20159319",
        "type": "Mine",
        "entity": "http://www.wikidata.org/entity/Q20159319",
        "country_qid": "Q213"
      }
    },
    {
      "type": "Feature",
      "geometry": {
        "type": "Point",
        "coordinates": [
          12.831089,
          50.387106
        ]
      },
      "properties": {
        "label": "Mauritius",
        "type": "Mine",
        "entity": "http://www.wikidata.org/entity/Q20182087",
        "country_qid": "Q213"
      }
    },
    {
      "type": "Feature",
      "geometry": {
        "type": "Point",
        "coordinates": [
          18.333312,
          49.828787
        ]
      },
      "properties": {
        "label": "Q19833343",
        "type": "Mine",
        "entity": "http://www.wikidata.org/entity/Q19833343",
        "country_qid": "Q213"
      }
    },
    {
      "type": "Feature",
      "geometry": {
        "type": "Point",
        "coordinates": [
          18.2717817,
          49.8459266
        ]
      },
      "properties": {
        "label": "Q18915320",
        "type": "Mine",
        "entity": "http://www.wikidata.org/entity/Q18915320",
        "country_qid": "Q213"
      }
    },
    {
      "type": "Feature",
      "geometry": {
        "type": "Point",
        "coordinates": [
          18.311213888,
          49.837563888
        ]
      },
      "properties": {
        "label": "Důl Ema a Lucie",
        "type": "Mine",
        "entity": "http://www.wikidata.org/entity/Q20057293",
        "country_qid": "Q213"
      }
    },
    {
      "type": "Feature",
      "geometry": {
        "type": "Point",
        "coordinates": [
          18.308,
          49.838
        ]
      },
      "properties": {
        "label": "Prokop mine",
        "type": "Mine",
        "entity": "http://www.wikidata.org/entity/Q20057300",
        "country_qid": "Q213"
      }
    },
    {
      "type": "Feature",
      "geometry": {
        "type": "Point",
        "coordinates": [
          18.322333333,
          49.832433333
        ]
      },
      "properties": {
        "label": "Q20057294",
        "type": "Mine",
        "entity": "http://www.wikidata.org/entity/Q20057294",
        "country_qid": "Q213"
      }
    },
    {
      "type": "Feature",
      "geometry": {
        "type": "Point",
        "coordinates": [
          18.3204,
          49.832533333
        ]
      },
      "properties": {
        "label": "Q20057304",
        "type": "Mine",
        "entity": "http://www.wikidata.org/entity/Q20057304",
        "country_qid": "Q213"
      }
    },
    {
      "type": "Feature",
      "geometry": {
        "type": "Point",
        "coordinates": [
          18.29605,
          49.826266666
        ]
      },
      "properties": {
        "label": "Q19602100",
        "type": "Mine",
        "entity": "http://www.wikidata.org/entity/Q19602100",
        "country_qid": "Q213"
      }
    },
    {
      "type": "Feature",
      "geometry": {
        "type": "Point",
        "coordinates": [
          18.2336521,
          49.8158557
        ]
      },
      "properties": {
        "label": "Q20057291",
        "type": "Mine",
        "entity": "http://www.wikidata.org/entity/Q20057291",
        "country_qid": "Q213"
      }
    },
    {
      "type": "Feature",
      "geometry": {
        "type": "Point",
        "coordinates": [
          18.3186836,
          49.8364175
        ]
      },
      "properties": {
        "label": "Důl Michálka",
        "type": "Mine",
        "entity": "http://www.wikidata.org/entity/Q20057297",
        "country_qid": "Q213"
      }
    },
    {
      "type": "Feature",
      "geometry": {
        "type": "Point",
        "coordinates": [
          18.3071127,
          49.8738224
        ]
      },
      "properties": {
        "label": "Q19602865",
        "type": "Mine",
        "entity": "http://www.wikidata.org/entity/Q19602865",
        "country_qid": "Q213"
      }
    },
    {
      "type": "Feature",
      "geometry": {
        "type": "Point",
        "coordinates": [
          18.31565,
          49.83415
        ]
      },
      "properties": {
        "label": "Q19601840",
        "type": "Mine",
        "entity": "http://www.wikidata.org/entity/Q19601840",
        "country_qid": "Q213"
      }
    },
    {
      "type": "Feature",
      "geometry": {
        "type": "Point",
        "coordinates": [
          18.296986666,
          49.839134666
        ]
      },
      "properties": {
        "label": "Q19601832",
        "type": "Mine",
        "entity": "http://www.wikidata.org/entity/Q19601832",
        "country_qid": "Q213"
      }
    },
    {
      "type": "Feature",
      "geometry": {
        "type": "Point",
        "coordinates": [
          15.2659594,
          49.9472058
        ]
      },
      "properties": {
        "label": "Saint George Mine",
        "type": "Mine",
        "entity": "http://www.wikidata.org/entity/Q17455044",
        "country_qid": "Q213"
      }
    },
    {
      "type": "Feature",
      "geometry": {
        "type": "Point",
        "coordinates": [
          18.4066372,
          49.8505675
        ]
      },
      "properties": {
        "label": "Důl Václav v Orlové",
        "type": "Mine",
        "entity": "http://www.wikidata.org/entity/Q19601839",
        "country_qid": "Q213"
      }
    },
    {
      "type": "Feature",
      "geometry": {
        "type": "Point",
        "coordinates": [
          18.301808333,
          49.840527777
        ]
      },
      "properties": {
        "label": "Q19601831",
        "type": "Mine",
        "entity": "http://www.wikidata.org/entity/Q19601831",
        "country_qid": "Q213"
      }
    },
    {
      "type": "Feature",
      "geometry": {
        "type": "Point",
        "coordinates": [
          18.2383,
          49.861833333
        ]
      },
      "properties": {
        "label": "Q19601838",
        "type": "Mine",
        "entity": "http://www.wikidata.org/entity/Q19601838",
        "country_qid": "Q213"
      }
    },
    {
      "type": "Feature",
      "geometry": {
        "type": "Point",
        "coordinates": [
          12.7119444,
          50.1019444
        ]
      },
      "properties": {
        "label": "Důl Jeroným",
        "type": "Mine",
        "entity": "http://www.wikidata.org/entity/Q19601829",
        "country_qid": "Q213"
      }
    },
    {
      "type": "Feature",
      "geometry": {
        "type": "Point",
        "coordinates": [
          18.2745586,
          49.8565569
        ]
      },
      "properties": {
        "label": "Q19801836",
        "type": "Mine",
        "entity": "http://www.wikidata.org/entity/Q19801836",
        "country_qid": "Q213"
      }
    },
    {
      "type": "Feature",
      "geometry": {
        "type": "Point",
        "coordinates": [
          18.23954,
          49.863351
        ]
      },
      "properties": {
        "label": "Q19601836",
        "type": "Mine",
        "entity": "http://www.wikidata.org/entity/Q19601836",
        "country_qid": "Q213"
      }
    },
    {
      "type": "Feature",
      "geometry": {
        "type": "Point",
        "coordinates": [
          18.30345,
          49.837633333
        ]
      },
      "properties": {
        "label": "Q20057290",
        "type": "Mine",
        "entity": "http://www.wikidata.org/entity/Q20057290",
        "country_qid": "Q213"
      }
    },
    {
      "type": "Feature",
      "geometry": {
        "type": "Point",
        "coordinates": [
          12.88282,
          50.3745083
        ]
      },
      "properties": {
        "label": "Elias mine",
        "type": "Mine",
        "entity": "http://www.wikidata.org/entity/Q21704511",
        "country_qid": "Q213"
      }
    },
    {
      "type": "Feature",
      "geometry": {
        "type": "Point",
        "coordinates": [
          14.4612025,
          50.9846597
        ]
      },
      "properties": {
        "label": "Důl Schweidrich",
        "type": "Mine",
        "entity": "http://www.wikidata.org/entity/Q20057303",
        "country_qid": "Q213"
      }
    },
    {
      "type": "Feature",
      "geometry": {
        "type": "Point",
        "coordinates": [
          18.31795,
          49.8328
        ]
      },
      "properties": {
        "label": "Q20057305",
        "type": "Mine",
        "entity": "http://www.wikidata.org/entity/Q20057305",
        "country_qid": "Q213"
      }
    },
    {
      "type": "Feature",
      "geometry": {
        "type": "Point",
        "coordinates": [
          18.3512,
          49.8722
        ]
      },
      "properties": {
        "label": "Q20901748",
        "type": "Mine",
        "entity": "http://www.wikidata.org/entity/Q20901748",
        "country_qid": "Q213"
      }
    },
    {
      "type": "Feature",
      "geometry": {
        "type": "Point",
        "coordinates": [
          12.8718197,
          50.3675986
        ]
      },
      "properties": {
        "label": "Eva Mine",
        "type": "Mine",
        "entity": "http://www.wikidata.org/entity/Q21515452",
        "country_qid": "Q213"
      }
    },
    {
      "type": "Feature",
      "geometry": {
        "type": "Point",
        "coordinates": [
          18.2387511,
          49.8566603
        ]
      },
      "properties": {
        "label": "Důl Odra",
        "type": "Mine",
        "entity": "http://www.wikidata.org/entity/Q20427945",
        "country_qid": "Q213"
      }
    },
    {
      "type": "Feature",
      "geometry": {
        "type": "Point",
        "coordinates": [
          18.3225,
          49.827883333
        ]
      },
      "properties": {
        "label": "Saint Anna mine",
        "type": "Mine",
        "entity": "http://www.wikidata.org/entity/Q19810507",
        "country_qid": "Q213"
      }
    },
    {
      "type": "Feature",
      "geometry": {
        "type": "Point",
        "coordinates": [
          16.3425,
          49.1267
        ]
      },
      "properties": {
        "label": "Kukla Mine",
        "type": "Mine",
        "entity": "http://www.wikidata.org/entity/Q18129791",
        "country_qid": "Q213"
      }
    },
    {
      "type": "Feature",
      "geometry": {
        "type": "Point",
        "coordinates": [
          18.19927788,
          49.52188873
        ]
      },
      "properties": {
        "label": "Q17455042",
        "type": "Mine",
        "entity": "http://www.wikidata.org/entity/Q17455042",
        "country_qid": "Q213"
      }
    },
    {
      "type": "Feature",
      "geometry": {
        "type": "Point",
        "coordinates": [
          18.2684,
          49.8732
        ]
      },
      "properties": {
        "label": "Q19603003",
        "type": "Mine",
        "entity": "http://www.wikidata.org/entity/Q19603003",
        "country_qid": "Q213"
      }
    },
    {
      "type": "Feature",
      "geometry": {
        "type": "Point",
        "coordinates": [
          12.914722222,
          50.368611111
        ]
      },
      "properties": {
        "label": "Q20057296",
        "type": "Mine",
        "entity": "http://www.wikidata.org/entity/Q20057296",
        "country_qid": "Q213"
      }
    },
    {
      "type": "Feature",
      "geometry": {
        "type": "Point",
        "coordinates": [
          18.303956666,
          49.858605333
        ]
      },
      "properties": {
        "label": "Q20976965",
        "type": "Mine",
        "entity": "http://www.wikidata.org/entity/Q20976965",
        "country_qid": "Q213"
      }
    },
    {
      "type": "Feature",
      "geometry": {
        "type": "Point",
        "coordinates": [
          18.282988,
          49.842133
        ]
      },
      "properties": {
        "label": "Důl Jindřich",
        "type": "Mine",
        "entity": "http://www.wikidata.org/entity/Q19601830",
        "country_qid": "Q213"
      }
    },
    {
      "type": "Feature",
      "geometry": {
        "type": "Point",
        "coordinates": [
          13.514207061,
          49.754786709
        ]
      },
      "properties": {
        "label": "Ejpovice Reservoir",
        "type": "Mine",
        "entity": "http://www.wikidata.org/entity/Q19305593",
        "country_qid": "Q213"
      }
    },
    {
      "type": "Feature",
      "geometry": {
        "type": "Point",
        "coordinates": [
          17.7755356,
          49.6161156
        ]
      },
      "properties": {
        "label": "Q110270629",
        "type": "Mine",
        "entity": "http://www.wikidata.org/entity/Q110270629",
        "country_qid": "Q213"
      }
    },
    {
      "type": "Feature",
      "geometry": {
        "type": "Point",
        "coordinates": [
          16.756198972,
          49.805771972
        ]
      },
      "properties": {
        "label": "Kubitschek quarry",
        "type": "Mine",
        "entity": "http://www.wikidata.org/entity/Q133972022",
        "country_qid": "Q213"
      }
    },
    {
      "type": "Feature",
      "geometry": {
        "type": "Point",
        "coordinates": [
          12.7786564,
          50.3986817
        ]
      },
      "properties": {
        "label": "Vlčí jámy",
        "type": "Mine",
        "entity": "http://www.wikidata.org/entity/Q11920807",
        "country_qid": "Q213"
      }
    },
    {
      "type": "Feature",
      "geometry": {
        "type": "Point",
        "coordinates": [
          12.770042,
          50.323355
        ]
      },
      "properties": {
        "label": "Q1257041",
        "type": "Mine",
        "entity": "http://www.wikidata.org/entity/Q1257041",
        "country_qid": "Q213"
      }
    },
    {
      "type": "Feature",
      "geometry": {
        "type": "Point",
        "coordinates": [
          14.3902464,
          49.9555853
        ]
      },
      "properties": {
        "label": "Zbraslav quarry",
        "type": "Mine",
        "entity": "http://www.wikidata.org/entity/Q90841819",
        "country_qid": "Q213"
      }
    },
    {
      "type": "Feature",
      "geometry": {
        "type": "Point",
        "coordinates": [
          15.806175,
          49.2541142
        ]
      },
      "properties": {
        "label": "Q90145678",
        "type": "Mine",
        "entity": "http://www.wikidata.org/entity/Q90145678",
        "country_qid": "Q213"
      }
    },
    {
      "type": "Feature",
      "geometry": {
        "type": "Point",
        "coordinates": [
          13.90523,
          50.13051
        ]
      },
      "properties": {
        "label": "Hořkovec Nové Strašecí quarry",
        "type": "Mine",
        "entity": "http://www.wikidata.org/entity/Q30641579",
        "country_qid": "Q213"
      }
    },
    {
      "type": "Feature",
      "geometry": {
        "type": "Point",
        "coordinates": [
          18.2803,
          49.8317
        ]
      },
      "properties": {
        "label": "Q11863235",
        "type": "Mine",
        "entity": "http://www.wikidata.org/entity/Q11863235",
        "country_qid": "Q213"
      }
    },
    {
      "type": "Feature",
      "geometry": {
        "type": "Point",
        "coordinates": [
          15.7032481,
          50.6352569
        ]
      },
      "properties": {
        "label": "Limestone quarry in Černý Důl",
        "type": "Mine",
        "entity": "http://www.wikidata.org/entity/Q60447141",
        "country_qid": "Q213"
      }
    },
    {
      "type": "Feature",
      "geometry": {
        "type": "Point",
        "coordinates": [
          15.640215,
          49.962898
        ]
      },
      "properties": {
        "label": "Návesní lom",
        "type": "Mine",
        "entity": "http://www.wikidata.org/entity/Q57269014",
        "country_qid": "Q213"
      }
    },
    {
      "type": "Feature",
      "geometry": {
        "type": "Point",
        "coordinates": [
          18.475,
          49.8232
        ]
      },
      "properties": {
        "label": "Důl Barbora",
        "type": "Mine",
        "entity": "http://www.wikidata.org/entity/Q11863182",
        "country_qid": "Q213"
      }
    },
    {
      "type": "Feature",
      "geometry": {
        "type": "Point",
        "coordinates": [
          14.3485403,
          49.6445339
        ]
      },
      "properties": {
        "label": "Štíleček Quarry",
        "type": "Mine",
        "entity": "http://www.wikidata.org/entity/Q112252787",
        "country_qid": "Q213"
      }
    },
    {
      "type": "Feature",
      "geometry": {
        "type": "Point",
        "coordinates": [
          18.3025,
          49.8342
        ]
      },
      "properties": {
        "label": "Důl Trojice",
        "type": "Mine",
        "entity": "http://www.wikidata.org/entity/Q11863229",
        "country_qid": "Q213"
      }
    },
    {
      "type": "Feature",
      "geometry": {
        "type": "Point",
        "coordinates": [
          16.3722019,
          49.2848847
        ]
      },
      "properties": {
        "label": "Q63092024",
        "type": "Mine",
        "entity": "http://www.wikidata.org/entity/Q63092024",
        "country_qid": "Q213"
      }
    },
    {
      "type": "Feature",
      "geometry": {
        "type": "Point",
        "coordinates": [
          18.5253,
          49.8299
        ]
      },
      "properties": {
        "label": "Důl Darkov",
        "type": "Mine",
        "entity": "http://www.wikidata.org/entity/Q11863188",
        "country_qid": "Q213"
      }
    },
    {
      "type": "Feature",
      "geometry": {
        "type": "Point",
        "coordinates": [
          18.4419,
          49.8108
        ]
      },
      "properties": {
        "label": "Dukla Coal Mine",
        "type": "Mine",
        "entity": "http://www.wikidata.org/entity/Q11863192",
        "country_qid": "Q213"
      }
    },
    {
      "type": "Feature",
      "geometry": {
        "type": "Point",
        "coordinates": [
          18.4943,
          49.8442
        ]
      },
      "properties": {
        "label": "Jan Karel mine",
        "type": "Mine",
        "entity": "http://www.wikidata.org/entity/Q11863204",
        "country_qid": "Q213"
      }
    },
    {
      "type": "Feature",
      "geometry": {
        "type": "Point",
        "coordinates": [
          14.2271219,
          49.9661539
        ]
      },
      "properties": {
        "label": "Q12033872",
        "type": "Mine",
        "entity": "http://www.wikidata.org/entity/Q12033872",
        "country_qid": "Q213"
      }
    },
    {
      "type": "Feature",
      "geometry": {
        "type": "Point",
        "coordinates": [
          13.9870169,
          49.6831439
        ]
      },
      "properties": {
        "label": "Ševčinský důl",
        "type": "Mine",
        "entity": "http://www.wikidata.org/entity/Q10398377",
        "country_qid": "Q213"
      }
    },
    {
      "type": "Feature",
      "geometry": {
        "type": "Point",
        "coordinates": [
          18.4729,
          49.8425
        ]
      },
      "properties": {
        "label": "Colliery Hlubina",
        "type": "Mine",
        "entity": "http://www.wikidata.org/entity/Q12856819",
        "country_qid": "Q213"
      }
    },
    {
      "type": "Feature",
      "geometry": {
        "type": "Point",
        "coordinates": [
          18.4667,
          49.8394
        ]
      },
      "properties": {
        "label": "Důl Jindřich",
        "type": "Mine",
        "entity": "http://www.wikidata.org/entity/Q11863209",
        "country_qid": "Q213"
      }
    },
    {
      "type": "Feature",
      "geometry": {
        "type": "Point",
        "coordinates": [
          14.0882453,
          49.9025003
        ]
      },
      "properties": {
        "label": "Q117320511",
        "type": "Mine",
        "entity": "http://www.wikidata.org/entity/Q117320511",
        "country_qid": "Q213"
      }
    },
    {
      "type": "Feature",
      "geometry": {
        "type": "Point",
        "coordinates": [
          18.4446,
          49.8296
        ]
      },
      "properties": {
        "label": "Důl Lazy",
        "type": "Mine",
        "entity": "http://www.wikidata.org/entity/Q11863212",
        "country_qid": "Q213"
      }
    },
    {
      "type": "Feature",
      "geometry": {
        "type": "Point",
        "coordinates": [
          12.6836,
          50.2161
        ]
      },
      "properties": {
        "label": "Důl Jiří",
        "type": "Mine",
        "entity": "http://www.wikidata.org/entity/Q12033874",
        "country_qid": "Q213"
      }
    },
    {
      "type": "Feature",
      "geometry": {
        "type": "Point",
        "coordinates": [
          17.7657958,
          49.5527031
        ]
      },
      "properties": {
        "label": "Quarry in Hranice",
        "type": "Mine",
        "entity": "http://www.wikidata.org/entity/Q117707397",
        "country_qid": "Q213"
      }
    },
    {
      "type": "Feature",
      "geometry": {
        "type": "Point",
        "coordinates": [
          16.3520761,
          49.1611561
        ]
      },
      "properties": {
        "label": "Antonín Mine (Zbýšov)",
        "type": "Mine",
        "entity": "http://www.wikidata.org/entity/Q23043949",
        "country_qid": "Q213"
      }
    },
    {
      "type": "Feature",
      "geometry": {
        "type": "Point",
        "coordinates": [
          14.3047128,
          48.8169556
        ]
      },
      "properties": {
        "label": "Graphite mine in Český Krumlov",
        "type": "Mine",
        "entity": "http://www.wikidata.org/entity/Q11081943",
        "country_qid": "Q213"
      }
    },
    {
      "type": "Feature",
      "geometry": {
        "type": "Point",
        "coordinates": [
          14.1986,
          49.9594
        ]
      },
      "properties": {
        "label": "Velká Amerika",
        "type": "Mine",
        "entity": "http://www.wikidata.org/entity/Q7919095",
        "country_qid": "Q213"
      }
    },
    {
      "type": "Feature",
      "geometry": {
        "type": "Point",
        "coordinates": [
          12.8924172,
          50.3717586
        ]
      },
      "properties": {
        "label": "Rovnost mine",
        "type": "Mine",
        "entity": "http://www.wikidata.org/entity/Q11863223",
        "country_qid": "Q213"
      }
    },
    {
      "type": "Feature",
      "geometry": {
        "type": "Point",
        "coordinates": [
          14.3330533,
          50.0291239
        ]
      },
      "properties": {
        "label": "Q121255415",
        "type": "Mine",
        "entity": "http://www.wikidata.org/entity/Q121255415",
        "country_qid": "Q213"
      }
    },
    {
      "type": "Feature",
      "geometry": {
        "type": "Point",
        "coordinates": [
          15.9139933,
          49.0791739
        ]
      },
      "properties": {
        "label": "Q90545424",
        "type": "Mine",
        "entity": "http://www.wikidata.org/entity/Q90545424",
        "country_qid": "Q213"
      }
    },
    {
      "type": "Feature",
      "geometry": {
        "type": "Point",
        "coordinates": [
          17.6363567,
          49.7519822
        ]
      },
      "properties": {
        "label": "Q106962357",
        "type": "Mine",
        "entity": "http://www.wikidata.org/entity/Q106962357",
        "country_qid": "Q213"
      }
    },
    {
      "type": "Feature",
      "geometry": {
        "type": "Point",
        "coordinates": [
          12.8931781,
          50.3828869
        ]
      },
      "properties": {
        "label": "Eduard Mine",
        "type": "Mine",
        "entity": "http://www.wikidata.org/entity/Q13220253",
        "country_qid": "Q213"
      }
    },
    {
      "type": "Feature",
      "geometry": {
        "type": "Point",
        "coordinates": [
          16.3479058,
          49.1531739
        ]
      },
      "properties": {
        "label": "Simson Mine",
        "type": "Mine",
        "entity": "http://www.wikidata.org/entity/Q22231192",
        "country_qid": "Q213"
      }
    },
    {
      "type": "Feature",
      "geometry": {
        "type": "Point",
        "coordinates": [
          15.3683889,
          50.4935
        ]
      },
      "properties": {
        "label": "Doubravice quarry",
        "type": "Mine",
        "entity": "http://www.wikidata.org/entity/Q84504730",
        "country_qid": "Q213"
      }
    },
    {
      "type": "Feature",
      "geometry": {
        "type": "Point",
        "coordinates": [
          18.3574225,
          49.80941
        ]
      },
      "properties": {
        "label": "Q22770811",
        "type": "Mine",
        "entity": "http://www.wikidata.org/entity/Q22770811",
        "country_qid": "Q213"
      }
    },
    {
      "type": "Feature",
      "geometry": {
        "type": "Point",
        "coordinates": [
          14.1485077,
          49.9766141
        ]
      },
      "properties": {
        "label": "Solvayovy lomy",
        "type": "Mine",
        "entity": "http://www.wikidata.org/entity/Q10817720",
        "country_qid": "Q213"
      }
    },
    {
      "type": "Feature",
      "geometry": {
        "type": "Point",
        "coordinates": [
          14.0213003,
          49.3736267
        ]
      },
      "properties": {
        "label": "Q117193746",
        "type": "Mine",
        "entity": "http://www.wikidata.org/entity/Q117193746",
        "country_qid": "Q213"
      }
    },
    {
      "type": "Feature",
      "geometry": {
        "type": "Point",
        "coordinates": [
          18.1635822,
          49.8846364
        ]
      },
      "properties": {
        "label": "Trhůvka Quarry",
        "type": "Mine",
        "entity": "http://www.wikidata.org/entity/Q105959503",
        "country_qid": "Q213"
      }
    },
    {
      "type": "Feature",
      "geometry": {
        "type": "Point",
        "coordinates": [
          14.3011775,
          50.0539828
        ]
      },
      "properties": {
        "label": "Na Pískách",
        "type": "Mine",
        "entity": "http://www.wikidata.org/entity/Q12039537",
        "country_qid": "Q213"
      }
    },
    {
      "type": "Feature",
      "geometry": {
        "type": "Point",
        "coordinates": [
          16.2756694,
          49.0942028
        ]
      },
      "properties": {
        "label": "Q94742673",
        "type": "Mine",
        "entity": "http://www.wikidata.org/entity/Q94742673",
        "country_qid": "Q213"
      }
    },
    {
      "type": "Feature",
      "geometry": {
        "type": "Point",
        "coordinates": [
          15.8924922,
          49.8288967
        ]
      },
      "properties": {
        "label": "Q75841161",
        "type": "Mine",
        "entity": "http://www.wikidata.org/entity/Q75841161",
        "country_qid": "Q213"
      }
    },
    {
      "type": "Feature",
      "geometry": {
        "type": "Point",
        "coordinates": [
          13.4418611,
          49.7163889
        ]
      },
      "properties": {
        "label": "Q92426347",
        "type": "Mine",
        "entity": "http://www.wikidata.org/entity/Q92426347",
        "country_qid": "Q213"
      }
    },
    {
      "type": "Feature",
      "geometry": {
        "type": "Point",
        "coordinates": [
          15.858501,
          49.835886
        ]
      },
      "properties": {
        "label": "Lomy u Švihůvku",
        "type": "Mine",
        "entity": "http://www.wikidata.org/entity/Q60622897",
        "country_qid": "Q213"
      }
    },
    {
      "type": "Feature",
      "geometry": {
        "type": "Point",
        "coordinates": [
          18.471,
          49.805
        ]
      },
      "properties": {
        "label": "Colliery Frantisek in Horní Suchá",
        "type": "Mine",
        "entity": "http://www.wikidata.org/entity/Q11863194",
        "country_qid": "Q213"
      }
    },
    {
      "type": "Feature",
      "geometry": {
        "type": "Point",
        "coordinates": [
          16.672673333,
          49.217931111
        ]
      },
      "properties": {
        "label": "Růženin lom",
        "type": "Mine",
        "entity": "http://www.wikidata.org/entity/Q20860065",
        "country_qid": "Q213"
      }
    },
    {
      "type": "Feature",
      "geometry": {
        "type": "Point",
        "coordinates": [
          15.9484142,
          49.8283281
        ]
      },
      "properties": {
        "label": "Družstvo",
        "type": "Mine",
        "entity": "http://www.wikidata.org/entity/Q114244708",
        "country_qid": "Q213"
      }
    },
    {
      "type": "Feature",
      "geometry": {
        "type": "Point",
        "coordinates": [
          17.6453447,
          49.7094956
        ]
      },
      "properties": {
        "label": "U lomu",
        "type": "Mine",
        "entity": "http://www.wikidata.org/entity/Q107467357",
        "country_qid": "Q213"
      }
    },
    {
      "type": "Feature",
      "geometry": {
        "type": "Point",
        "coordinates": [
          14.1911,
          49.9564
        ]
      },
      "properties": {
        "label": "Mexiko",
        "type": "Mine",
        "entity": "http://www.wikidata.org/entity/Q12036493",
        "country_qid": "Q213"
      }
    },
    {
      "type": "Feature",
      "geometry": {
        "type": "Point",
        "coordinates": [
          16.670944444,
          49.219156666
        ]
      },
      "properties": {
        "label": "Etážový lom",
        "type": "Mine",
        "entity": "http://www.wikidata.org/entity/Q60665125",
        "country_qid": "Q213"
      }
    },
    {
      "type": "Feature",
      "geometry": {
        "type": "Point",
        "coordinates": [
          14.6975786,
          49.4014894
        ]
      },
      "properties": {
        "label": "Lom Svatá Anna",
        "type": "Mine",
        "entity": "http://www.wikidata.org/entity/Q17375866",
        "country_qid": "Q213"
      }
    },
    {
      "type": "Feature",
      "geometry": {
        "type": "Point",
        "coordinates": [
          15.8147489,
          49.9042308
        ]
      },
      "properties": {
        "label": "Pískovcové lomy",
        "type": "Mine",
        "entity": "http://www.wikidata.org/entity/Q60644023",
        "country_qid": "Q213"
      }
    },
    {
      "type": "Feature",
      "geometry": {
        "type": "Point",
        "coordinates": [
          18.1053264,
          49.8866972
        ]
      },
      "properties": {
        "label": "Hlubečkova skála",
        "type": "Mine",
        "entity": "http://www.wikidata.org/entity/Q106072058",
        "country_qid": "Q213"
      }
    },
    {
      "type": "Feature",
      "geometry": {
        "type": "Point",
        "coordinates": [
          18.2868,
          49.8285
        ]
      },
      "properties": {
        "label": "Q11863211",
        "type": "Mine",
        "entity": "http://www.wikidata.org/entity/Q11863211",
        "country_qid": "Q213"
      }
    },
    {
      "type": "Feature",
      "geometry": {
        "type": "Point",
        "coordinates": [
          14.5153097,
          50.2406764
        ]
      },
      "properties": {
        "label": "Lom Kojetice",
        "type": "Mine",
        "entity": "http://www.wikidata.org/entity/Q106773916",
        "country_qid": "Q213"
      }
    },
    {
      "type": "Feature",
      "geometry": {
        "type": "Point",
        "coordinates": [
          12.855,
          50.2647
        ]
      },
      "properties": {
        "label": "Q12033875",
        "type": "Mine",
        "entity": "http://www.wikidata.org/entity/Q12033875",
        "country_qid": "Q213"
      }
    },
    {
      "type": "Feature",
      "geometry": {
        "type": "Point",
        "coordinates": [
          15.8993503,
          49.8325067
        ]
      },
      "properties": {
        "label": "Q96123699",
        "type": "Mine",
        "entity": "http://www.wikidata.org/entity/Q96123699",
        "country_qid": "Q213"
      }
    },
    {
      "type": "Feature",
      "geometry": {
        "type": "Point",
        "coordinates": [
          16.699778055,
          49.226987222
        ]
      },
      "properties": {
        "label": "Q104628986",
        "type": "Mine",
        "entity": "http://www.wikidata.org/entity/Q104628986",
        "country_qid": "Q213"
      }
    },
    {
      "type": "Feature",
      "geometry": {
        "type": "Point",
        "coordinates": [
          13.3356856,
          49.8920872
        ]
      },
      "properties": {
        "label": "Q130396797",
        "type": "Mine",
        "entity": "http://www.wikidata.org/entity/Q130396797",
        "country_qid": "Q213"
      }
    },
    {
      "type": "Feature",
      "geometry": {
        "type": "Point",
        "coordinates": [
          14.3327094,
          50.0310789
        ]
      },
      "properties": {
        "label": "Lom Mušlovka",
        "type": "Mine",
        "entity": "http://www.wikidata.org/entity/Q107695858",
        "country_qid": "Q213"
      }
    },
    {
      "type": "Feature",
      "geometry": {
        "type": "Point",
        "coordinates": [
          12.7787519,
          50.2517197
        ]
      },
      "properties": {
        "label": "Q97312936",
        "type": "Mine",
        "entity": "http://www.wikidata.org/entity/Q97312936",
        "country_qid": "Q213"
      }
    },
    {
      "type": "Feature",
      "geometry": {
        "type": "Point",
        "coordinates": [
          16.277,
          49.427
        ]
      },
      "properties": {
        "label": "Rudý říjen Olší Mine",
        "type": "Mine",
        "entity": "http://www.wikidata.org/entity/Q13433817",
        "country_qid": "Q213"
      }
    },
    {
      "type": "Feature",
      "geometry": {
        "type": "Point",
        "coordinates": [
          13.99138889,
          49.68611111
        ]
      },
      "properties": {
        "label": "Důl Vojtěch",
        "type": "Mine",
        "entity": "http://www.wikidata.org/entity/Q11863227",
        "country_qid": "Q213"
      }
    },
    {
      "type": "Feature",
      "geometry": {
        "type": "Point",
        "coordinates": [
          18.3160356,
          49.8633242
        ]
      },
      "properties": {
        "label": "Q12352693",
        "type": "Mine",
        "entity": "http://www.wikidata.org/entity/Q12352693",
        "country_qid": "Q213"
      }
    },
    {
      "type": "Feature",
      "geometry": {
        "type": "Point",
        "coordinates": [
          18.2361761,
          49.8424992
        ]
      },
      "properties": {
        "label": "Důl Ignát",
        "type": "Mine",
        "entity": "http://www.wikidata.org/entity/Q11863202",
        "country_qid": "Q213"
      }
    },
    {
      "type": "Feature",
      "geometry": {
        "type": "Point",
        "coordinates": [
          18.320544333,
          49.419774833
        ]
      },
      "properties": {
        "label": "Kopec s lomem",
        "type": "Mine",
        "entity": "http://www.wikidata.org/entity/Q113993942",
        "country_qid": "Q213"
      }
    },
    {
      "type": "Feature",
      "geometry": {
        "type": "Point",
        "coordinates": [
          14.3609167,
          50.0440106
        ]
      },
      "properties": {
        "label": "Kovářovic mez",
        "type": "Mine",
        "entity": "http://www.wikidata.org/entity/Q106963132",
        "country_qid": "Q213"
      }
    },
    {
      "type": "Feature",
      "geometry": {
        "type": "Point",
        "coordinates": [
          18.2975,
          49.8111
        ]
      },
      "properties": {
        "label": "Důl Alexander",
        "type": "Mine",
        "entity": "http://www.wikidata.org/entity/Q11182716",
        "country_qid": "Q213"
      }
    },
    {
      "type": "Feature",
      "geometry": {
        "type": "Point",
        "coordinates": [
          14.4884683,
          50.7819508
        ]
      },
      "properties": {
        "label": "Lipkovské Lomy",
        "type": "Mine",
        "entity": "http://www.wikidata.org/entity/Q107709975",
        "country_qid": "Q213"
      }
    },
    {
      "type": "Feature",
      "geometry": {
        "type": "Point",
        "coordinates": [
          15.633591,
          49.96412
        ]
      },
      "properties": {
        "label": "Bezedná",
        "type": "Mine",
        "entity": "http://www.wikidata.org/entity/Q57269089",
        "country_qid": "Q213"
      }
    },
    {
      "type": "Feature",
      "geometry": {
        "type": "Point",
        "coordinates": [
          15.5801525,
          49.7922017
        ]
      },
      "properties": {
        "label": "Q21707222",
        "type": "Mine",
        "entity": "http://www.wikidata.org/entity/Q21707222",
        "country_qid": "Q213"
      }
    },
    {
      "type": "Feature",
      "geometry": {
        "type": "Point",
        "coordinates": [
          13.965212,
          49.666219
        ]
      },
      "properties": {
        "label": "Řimbaba Mine",
        "type": "Mine",
        "entity": "http://www.wikidata.org/entity/Q10513862",
        "country_qid": "Q213"
      }
    },
    {
      "type": "Feature",
      "geometry": {
        "type": "Point",
        "coordinates": [
          14.902429,
          49.8637097
        ]
      },
      "properties": {
        "label": "Q38142614",
        "type": "Mine",
        "entity": "http://www.wikidata.org/entity/Q38142614",
        "country_qid": "Q213"
      }
    },
    {
      "type": "Feature",
      "geometry": {
        "type": "Point",
        "coordinates": [
          16.6500961,
          49.3495914
        ]
      },
      "properties": {
        "label": "Flooded quarry in Blansko",
        "type": "Mine",
        "entity": "http://www.wikidata.org/entity/Q26209697",
        "country_qid": "Q213"
      }
    },
    {
      "type": "Feature",
      "geometry": {
        "type": "Point",
        "coordinates": [
          18.5485,
          49.8176
        ]
      },
      "properties": {
        "label": "Důl ČSM",
        "type": "Mine",
        "entity": "http://www.wikidata.org/entity/Q11863234",
        "country_qid": "Q213"
      }
    },
    {
      "type": "Feature",
      "geometry": {
        "type": "Point",
        "coordinates": [
          14.5831,
          50.0557
        ]
      },
      "properties": {
        "label": "Rohožník",
        "type": "Mine",
        "entity": "http://www.wikidata.org/entity/Q12049623",
        "country_qid": "Q213"
      }
    },
    {
      "type": "Feature",
      "geometry": {
        "type": "Point",
        "coordinates": [
          17.6576056,
          49.9442978
        ]
      },
      "properties": {
        "label": "Q106883240",
        "type": "Mine",
        "entity": "http://www.wikidata.org/entity/Q106883240",
        "country_qid": "Q213"
      }
    },
    {
      "type": "Feature",
      "geometry": {
        "type": "Point",
        "coordinates": [
          18.420277777,
          49.845833333
        ]
      },
      "properties": {
        "label": "Důl Žofie",
        "type": "Mine",
        "entity": "http://www.wikidata.org/entity/Q11863237",
        "country_qid": "Q213"
      }
    },
    {
      "type": "Feature",
      "geometry": {
        "type": "Point",
        "coordinates": [
          17.47059,
          49.19444
        ]
      },
      "properties": {
        "label": "Lom Žlutava",
        "type": "Mine",
        "entity": "http://www.wikidata.org/entity/Q23826881",
        "country_qid": "Q213"
      }
    },
    {
      "type": "Feature",
      "geometry": {
        "type": "Point",
        "coordinates": [
          15.4963328,
          50.4649703
        ]
      },
      "properties": {
        "label": "Rumchalpa quarry",
        "type": "Mine",
        "entity": "http://www.wikidata.org/entity/Q61993755",
        "country_qid": "Q213"
      }
    },
    {
      "type": "Feature",
      "geometry": {
        "type": "Point",
        "coordinates": [
          16.693222777,
          49.222057777
        ]
      },
      "properties": {
        "label": "Q104628985",
        "type": "Mine",
        "entity": "http://www.wikidata.org/entity/Q104628985",
        "country_qid": "Q213"
      }
    },
    {
      "type": "Feature",
      "geometry": {
        "type": "Point",
        "coordinates": [
          14.3363672,
          50.0315028
        ]
      },
      "properties": {
        "label": "Černý lom",
        "type": "Mine",
        "entity": "http://www.wikidata.org/entity/Q107467217",
        "country_qid": "Q213"
      }
    },
    {
      "type": "Feature",
      "geometry": {
        "type": "Point",
        "coordinates": [
          15.9478456,
          49.8295878
        ]
      },
      "properties": {
        "label": "Tůňka",
        "type": "Mine",
        "entity": "http://www.wikidata.org/entity/Q114244711",
        "country_qid": "Q213"
      }
    },
    {
      "type": "Feature",
      "geometry": {
        "type": "Point",
        "coordinates": [
          13.8528933,
          49.1833944
        ]
      },
      "properties": {
        "label": "Nihošovice Quarry",
        "type": "Mine",
        "entity": "http://www.wikidata.org/entity/Q109520765",
        "country_qid": "Q213"
      }
    },
    {
      "type": "Feature",
      "geometry": {
        "type": "Point",
        "coordinates": [
          18.4708,
          49.8318
        ]
      },
      "properties": {
        "label": "Colliery Hohenegger",
        "type": "Mine",
        "entity": "http://www.wikidata.org/entity/Q11863199",
        "country_qid": "Q213"
      }
    },
    {
      "type": "Feature",
      "geometry": {
        "type": "Point",
        "coordinates": [
          14.9141208,
          50.7558547
        ]
      },
      "properties": {
        "label": "Solvayův lom",
        "type": "Mine",
        "entity": "http://www.wikidata.org/entity/Q32674394",
        "country_qid": "Q213"
      }
    },
    {
      "type": "Feature",
      "geometry": {
        "type": "Point",
        "coordinates": [
          16.3472475,
          49.1484972
        ]
      },
      "properties": {
        "label": "Anna mine",
        "type": "Mine",
        "entity": "http://www.wikidata.org/entity/Q22976086",
        "country_qid": "Q213"
      }
    },
    {
      "type": "Feature",
      "geometry": {
        "type": "Point",
        "coordinates": [
          15.8463058,
          50.6968106
        ]
      },
      "properties": {
        "label": "Bischofův lom",
        "type": "Mine",
        "entity": "http://www.wikidata.org/entity/Q8242711",
        "country_qid": "Q213"
      }
    },
    {
      "type": "Feature",
      "geometry": {
        "type": "Point",
        "coordinates": [
          18.4973,
          49.8418
        ]
      },
      "properties": {
        "label": "Důl ČSA",
        "type": "Mine",
        "entity": "http://www.wikidata.org/entity/Q11863233",
        "country_qid": "Q213"
      }
    },
    {
      "type": "Feature",
      "geometry": {
        "type": "Point",
        "coordinates": [
          12.78,
          50.3978
        ]
      },
      "properties": {
        "label": "Q12032861",
        "type": "Mine",
        "entity": "http://www.wikidata.org/entity/Q12032861",
        "country_qid": "Q213"
      }
    },
    {
      "type": "Feature",
      "geometry": {
        "type": "Point",
        "coordinates": [
          18.4798,
          49.8376
        ]
      },
      "properties": {
        "label": "Colliery Františka in Karviná",
        "type": "Mine",
        "entity": "http://www.wikidata.org/entity/Q11775014",
        "country_qid": "Q213"
      }
    },
    {
      "type": "Feature",
      "geometry": {
        "type": "Point",
        "coordinates": [
          18.5031,
          49.8002
        ]
      },
      "properties": {
        "label": "Důl 9. květen",
        "type": "Mine",
        "entity": "http://www.wikidata.org/entity/Q11863177",
        "country_qid": "Q213"
      }
    },
    {
      "type": "Feature",
      "geometry": {
        "type": "Point",
        "coordinates": [
          14.1753,
          49.9542
        ]
      },
      "properties": {
        "label": "Lomy Mořina",
        "type": "Mine",
        "entity": "http://www.wikidata.org/entity/Q10817087",
        "country_qid": "Q213"
      }
    },
    {
      "type": "Feature",
      "geometry": {
        "type": "Point",
        "coordinates": [
          12.7138,
          50.2089
        ]
      },
      "properties": {
        "label": "Lom Družba",
        "type": "Mine",
        "entity": "http://www.wikidata.org/entity/Q12033870",
        "country_qid": "Q213"
      }
    },
    {
      "type": "Feature",
      "geometry": {
        "type": "Point",
        "coordinates": [
          16.0564,
          50.4908
        ]
      },
      "properties": {
        "label": "Lom u Devíti Křížů",
        "type": "Mine",
        "entity": "http://www.wikidata.org/entity/Q11876942",
        "country_qid": "Q213"
      }
    },
    {
      "type": "Feature",
      "geometry": {
        "type": "Point",
        "coordinates": [
          12.9354992,
          50.3645022
        ]
      },
      "properties": {
        "label": "Q22262409",
        "type": "Mine",
        "entity": "http://www.wikidata.org/entity/Q22262409",
        "country_qid": "Q213"
      }
    },
    {
      "type": "Feature",
      "geometry": {
        "type": "Point",
        "coordinates": [
          14.2694311,
          50.0036147
        ]
      },
      "properties": {
        "label": "Q117319546",
        "type": "Mine",
        "entity": "http://www.wikidata.org/entity/Q117319546",
        "country_qid": "Q213"
      }
    },
    {
      "type": "Feature",
      "geometry": {
        "type": "Point",
        "coordinates": [
          12.7592,
          50.2542
        ]
      },
      "properties": {
        "label": "Lom Osmosa",
        "type": "Mine",
        "entity": "http://www.wikidata.org/entity/Q11454139",
        "country_qid": "Q213"
      }
    },
    {
      "type": "Feature",
      "geometry": {
        "type": "Point",
        "coordinates": [
          14.0542314,
          49.9383847
        ]
      },
      "properties": {
        "label": "Kosov Quarry",
        "type": "Mine",
        "entity": "http://www.wikidata.org/entity/Q64984897",
        "country_qid": "Q213"
      }
    },
    {
      "type": "Feature",
      "geometry": {
        "type": "Point",
        "coordinates": [
          16.666491944,
          49.220880555
        ]
      },
      "properties": {
        "label": "Lom Džungle",
        "type": "Mine",
        "entity": "http://www.wikidata.org/entity/Q60665458",
        "country_qid": "Q213"
      }
    },
    {
      "type": "Feature",
      "geometry": {
        "type": "Point",
        "coordinates": [
          14.1647,
          50.0042
        ]
      },
      "properties": {
        "label": "Chrustenická šachta",
        "type": "Mine",
        "entity": "http://www.wikidata.org/entity/Q11083909",
        "country_qid": "Q213"
      }
    },
    {
      "type": "Feature",
      "geometry": {
        "type": "Point",
        "coordinates": [
          14.739222222,
          50.724888888
        ]
      },
      "properties": {
        "label": "Lom Tlustec",
        "type": "Mine",
        "entity": "http://www.wikidata.org/entity/Q62825182",
        "country_qid": "Q213"
      }
    },
    {
      "type": "Feature",
      "geometry": {
        "type": "Point",
        "coordinates": [
          15.9466117,
          49.828605
        ]
      },
      "properties": {
        "label": "Obecní",
        "type": "Mine",
        "entity": "http://www.wikidata.org/entity/Q114244717",
        "country_qid": "Q213"
      }
    },
    {
      "type": "Feature",
      "geometry": {
        "type": "Point",
        "coordinates": [
          14.05875,
          50.15977778
        ]
      },
      "properties": {
        "label": "Q11863216",
        "type": "Mine",
        "entity": "http://www.wikidata.org/entity/Q11863216",
        "country_qid": "Q213"
      }
    },
    {
      "type": "Feature",
      "geometry": {
        "type": "Point",
        "coordinates": [
          15.9802536,
          49.8433119
        ]
      },
      "properties": {
        "label": "Novákovo jezírko",
        "type": "Mine",
        "entity": "http://www.wikidata.org/entity/Q114243650",
        "country_qid": "Q213"
      }
    },
    {
      "type": "Feature",
      "geometry": {
        "type": "Point",
        "coordinates": [
          14.4306514,
          50.2318761
        ]
      },
      "properties": {
        "label": "Lom Čenkov",
        "type": "Mine",
        "entity": "http://www.wikidata.org/entity/Q108155932",
        "country_qid": "Q213"
      }
    },
    {
      "type": "Feature",
      "geometry": {
        "type": "Point",
        "coordinates": [
          15.8951636,
          49.8422472
        ]
      },
      "properties": {
        "label": "Lom Dubová",
        "type": "Mine",
        "entity": "http://www.wikidata.org/entity/Q26721290",
        "country_qid": "Q213"
      }
    },
    {
      "type": "Feature",
      "geometry": {
        "type": "Point",
        "coordinates": [
          18.2647739,
          49.8685956
        ]
      },
      "properties": {
        "label": "Anselm Mine",
        "type": "Mine",
        "entity": "http://www.wikidata.org/entity/Q11863179",
        "country_qid": "Q213"
      }
    },
    {
      "type": "Feature",
      "geometry": {
        "type": "Point",
        "coordinates": [
          14.0111389,
          50.5645556
        ]
      },
      "properties": {
        "label": "Q84496997",
        "type": "Mine",
        "entity": "http://www.wikidata.org/entity/Q84496997",
        "country_qid": "Q213"
      }
    },
    {
      "type": "Feature",
      "geometry": {
        "type": "Point",
        "coordinates": [
          18.4497,
          49.8426
        ]
      },
      "properties": {
        "label": "Colliery Hlavní jáma",
        "type": "Mine",
        "entity": "http://www.wikidata.org/entity/Q13232201",
        "country_qid": "Q213"
      }
    },
    {
      "type": "Feature",
      "geometry": {
        "type": "Point",
        "coordinates": [
          14.064703,
          49.912517
        ]
      },
      "properties": {
        "label": "Velkolom Čertovy schody",
        "type": "Mine",
        "entity": "http://www.wikidata.org/entity/Q14912321",
        "country_qid": "Q213"
      }
    },
    {
      "type": "Feature",
      "geometry": {
        "type": "Point",
        "coordinates": [
          12.7669,
          50.2467
        ]
      },
      "properties": {
        "label": "Q12033877",
        "type": "Mine",
        "entity": "http://www.wikidata.org/entity/Q12033877",
        "country_qid": "Q213"
      }
    },
    {
      "type": "Feature",
      "geometry": {
        "type": "Point",
        "coordinates": [
          13.4009961,
          49.7349422
        ]
      },
      "properties": {
        "label": "Chvojkovy lomy",
        "type": "Mine",
        "entity": "http://www.wikidata.org/entity/Q15057986",
        "country_qid": "Q213"
      }
    },
    {
      "type": "Feature",
      "geometry": {
        "type": "Point",
        "coordinates": [
          14.151272,
          49.932171
        ]
      },
      "properties": {
        "label": "Petzoldův lom",
        "type": "Mine",
        "entity": "http://www.wikidata.org/entity/Q64952281",
        "country_qid": "Q213"
      }
    },
    {
      "type": "Feature",
      "geometry": {
        "type": "Point",
        "coordinates": [
          12.6775,
          50.1989
        ]
      },
      "properties": {
        "label": "Důl Marie Majerová",
        "type": "Mine",
        "entity": "http://www.wikidata.org/entity/Q11863215",
        "country_qid": "Q213"
      }
    },
    {
      "type": "Feature",
      "geometry": {
        "type": "Point",
        "coordinates": [
          14.2131,
          50.1238
        ]
      },
      "properties": {
        "label": "Žákova skála",
        "type": "Mine",
        "entity": "http://www.wikidata.org/entity/Q10296551",
        "country_qid": "Q213"
      }
    },
    {
      "type": "Feature",
      "geometry": {
        "type": "Point",
        "coordinates": [
          12.9412731,
          50.3603033
        ]
      },
      "properties": {
        "label": "Q123531351",
        "type": "Mine",
        "entity": "http://www.wikidata.org/entity/Q123531351",
        "country_qid": "Q213"
      }
    },
    {
      "type": "Feature",
      "geometry": {
        "type": "Point",
        "coordinates": [
          16.22082,
          49.48139
        ]
      },
      "properties": {
        "label": "Uranový důl Rožná I",
        "type": "Mine",
        "entity": "http://www.wikidata.org/entity/Q13416467",
        "country_qid": "Q213"
      }
    },
    {
      "type": "Feature",
      "geometry": {
        "type": "Point",
        "coordinates": [
          14.34313889,
          49.74466667
        ]
      },
      "properties": {
        "label": "Mokrsko mine",
        "type": "Mine",
        "entity": "http://www.wikidata.org/entity/Q15254731",
        "country_qid": "Q213"
      }
    },
    {
      "type": "Feature",
      "geometry": {
        "type": "Point",
        "coordinates": [
          18.3214,
          49.8258
        ]
      },
      "properties": {
        "label": "Jan Maria Mine",
        "type": "Mine",
        "entity": "http://www.wikidata.org/entity/Q11863207",
        "country_qid": "Q213"
      }
    },
    {
      "type": "Feature",
      "geometry": {
        "type": "Point",
        "coordinates": [
          14.612958333,
          50.1787
        ]
      },
      "properties": {
        "label": "Marešovka",
        "type": "Mine",
        "entity": "http://www.wikidata.org/entity/Q107999172",
        "country_qid": "Q213"
      }
    },
    {
      "type": "Feature",
      "geometry": {
        "type": "Point",
        "coordinates": [
          14.1761,
          49.9542
        ]
      },
      "properties": {
        "label": "Malá Amerika",
        "type": "Mine",
        "entity": "http://www.wikidata.org/entity/Q12035037",
        "country_qid": "Q213"
      }
    },
    {
      "type": "Feature",
      "geometry": {
        "type": "Point",
        "coordinates": [
          15.8384367,
          49.7865622
        ]
      },
      "properties": {
        "label": "Q70984954",
        "type": "Mine",
        "entity": "http://www.wikidata.org/entity/Q70984954",
        "country_qid": "Q213"
      }
    },
    {
      "type": "Feature",
      "geometry": {
        "type": "Point",
        "coordinates": [
          18.3079,
          49.8421
        ]
      },
      "properties": {
        "label": "Důl Petr Bezruč",
        "type": "Mine",
        "entity": "http://www.wikidata.org/entity/Q11863220",
        "country_qid": "Q213"
      }
    },
    {
      "type": "Feature",
      "geometry": {
        "type": "Point",
        "coordinates": [
          18.2711,
          49.7012
        ]
      },
      "properties": {
        "label": "Důl Paskov",
        "type": "Mine",
        "entity": "http://www.wikidata.org/entity/Q15703426",
        "country_qid": "Q213"
      }
    },
    {
      "type": "Feature",
      "geometry": {
        "type": "Point",
        "coordinates": [
          18.5801,
          49.8264
        ]
      },
      "properties": {
        "label": "Morcinek coal mine in Kaczyce",
        "type": "Mine",
        "entity": "http://www.wikidata.org/entity/Q11743383",
        "country_qid": "Q213"
      }
    },
    {
      "type": "Feature",
      "geometry": {
        "type": "Point",
        "coordinates": [
          16.349136111,
          49.137452777
        ]
      },
      "properties": {
        "label": "Františka Mine",
        "type": "Mine",
        "entity": "http://www.wikidata.org/entity/Q22950101",
        "country_qid": "Q213"
      }
    },
    {
      "type": "Feature",
      "geometry": {
        "type": "Point",
        "coordinates": [
          13.9910144,
          49.6809489
        ]
      },
      "properties": {
        "label": "Důl Marie",
        "type": "Mine",
        "entity": "http://www.wikidata.org/entity/Q11863214",
        "country_qid": "Q213"
      }
    },
    {
      "type": "Feature",
      "geometry": {
        "type": "Point",
        "coordinates": [
          14.0245625,
          49.026945
        ]
      },
      "properties": {
        "label": "Kobylí hora",
        "type": "Mine",
        "entity": "http://www.wikidata.org/entity/Q98923096",
        "country_qid": "Q213"
      }
    },
    {
      "type": "Feature",
      "geometry": {
        "type": "Point",
        "coordinates": [
          14.1340078,
          49.9461603
        ]
      },
      "properties": {
        "label": "Q119041249",
        "type": "Mine",
        "entity": "http://www.wikidata.org/entity/Q119041249",
        "country_qid": "Q213"
      }
    },
    {
      "type": "Feature",
      "geometry": {
        "type": "Point",
        "coordinates": [
          15.2614764,
          49.9424658
        ]
      },
      "properties": {
        "label": "Q133825557",
        "type": "Mine",
        "entity": "http://www.wikidata.org/entity/Q133825557",
        "country_qid": "Q213"
      }
    },
    {
      "type": "Feature",
      "geometry": {
        "type": "Point",
        "coordinates": [
          12.588122222,
          50.299316666
        ]
      },
      "properties": {
        "label": "Kernberg Quarry",
        "type": "Mine",
        "entity": "http://www.wikidata.org/entity/Q76939941",
        "country_qid": "Q213"
      }
    },
    {
      "type": "Feature",
      "geometry": {
        "type": "Point",
        "coordinates": [
          18.45841,
          49.84457
        ]
      },
      "properties": {
        "label": "Důl Doubrava",
        "type": "Mine",
        "entity": "http://www.wikidata.org/entity/Q11863190",
        "country_qid": "Q213"
      }
    },
    {
      "type": "Feature",
      "geometry": {
        "type": "Point",
        "coordinates": [
          14.3632542,
          50.0466264
        ]
      },
      "properties": {
        "label": "Lom Kační",
        "type": "Mine",
        "entity": "http://www.wikidata.org/entity/Q106962399",
        "country_qid": "Q213"
      }
    },
    {
      "type": "Feature",
      "geometry": {
        "type": "Point",
        "coordinates": [
          17.5304981,
          49.6005819
        ]
      },
      "properties": {
        "label": "Lom v Kozlově",
        "type": "Mine",
        "entity": "http://www.wikidata.org/entity/Q110270623",
        "country_qid": "Q213"
      }
    },
    {
      "type": "Feature",
      "geometry": {
        "type": "Point",
        "coordinates": [
          18.4946,
          49.832
        ]
      },
      "properties": {
        "label": "Důl Gabriela",
        "type": "Mine",
        "entity": "http://www.wikidata.org/entity/Q11863195",
        "country_qid": "Q213"
      }
    },
    {
      "type": "Feature",
      "geometry": {
        "type": "Point",
        "coordinates": [
          15.8971972,
          49.2327308
        ]
      },
      "properties": {
        "label": "Q92738005",
        "type": "Mine",
        "entity": "http://www.wikidata.org/entity/Q92738005",
        "country_qid": "Q213"
      }
    },
    {
      "type": "Feature",
      "geometry": {
        "type": "Point",
        "coordinates": [
          14.124212265,
          49.950391498
        ]
      },
      "properties": {
        "label": "Lom Alkazar",
        "type": "Mine",
        "entity": "http://www.wikidata.org/entity/Q110462791",
        "country_qid": "Q213"
      }
    },
    {
      "type": "Feature",
      "geometry": {
        "type": "Point",
        "coordinates": [
          16.2485094,
          50.2546992
        ]
      },
      "properties": {
        "label": "Masty Quarry",
        "type": "Mine",
        "entity": "http://www.wikidata.org/entity/Q12033878",
        "country_qid": "Q213"
      }
    },
    {
      "type": "Feature",
      "geometry": {
        "type": "Point",
        "coordinates": [
          12.7957961,
          50.4088597
        ]
      },
      "properties": {
        "label": "Zuzana mine",
        "type": "Mine",
        "entity": "http://www.wikidata.org/entity/Q38050562",
        "country_qid": "Q213"
      }
    },
    {
      "type": "Feature",
      "geometry": {
        "type": "Point",
        "coordinates": [
          18.3149266,
          49.7010242
        ]
      },
      "properties": {
        "label": "Q23929351",
        "type": "Mine",
        "entity": "http://www.wikidata.org/entity/Q23929351",
        "country_qid": "Q213"
      }
    },
    {
      "type": "Feature",
      "geometry": {
        "type": "Point",
        "coordinates": [
          14.2586292,
          50.2061044
        ]
      },
      "properties": {
        "label": "Důl Jan",
        "type": "Mine",
        "entity": "http://www.wikidata.org/entity/Q24639774",
        "country_qid": "Q213"
      }
    },
    {
      "type": "Feature",
      "geometry": {
        "type": "Point",
        "coordinates": [
          14.49979,
          48.9279469
        ]
      },
      "properties": {
        "label": "Q95101882",
        "type": "Mine",
        "entity": "http://www.wikidata.org/entity/Q95101882",
        "country_qid": "Q213"
      }
    },
    {
      "type": "Feature",
      "geometry": {
        "type": "Point",
        "coordinates": [
          15.9291,
          50.66868
        ]
      },
      "properties": {
        "label": "Důl Jan Šverma",
        "type": "Mine",
        "entity": "http://www.wikidata.org/entity/Q27624357",
        "country_qid": "Q213"
      }
    },
    {
      "type": "Feature",
      "geometry": {
        "type": "Point",
        "coordinates": [
          18.3651,
          49.8251
        ]
      },
      "properties": {
        "label": "Q116166611",
        "type": "Mine",
        "entity": "http://www.wikidata.org/entity/Q116166611",
        "country_qid": "Q213"
      }
    },
    {
      "type": "Feature",
      "geometry": {
        "type": "Point",
        "coordinates": [
          16.354722222,
          49.163888888
        ]
      },
      "properties": {
        "label": "Jindřich Mine",
        "type": "Mine",
        "entity": "http://www.wikidata.org/entity/Q29997415",
        "country_qid": "Q213"
      }
    },
    {
      "type": "Feature",
      "geometry": {
        "type": "Point",
        "coordinates": [
          14.143920277,
          50.176644722
        ]
      },
      "properties": {
        "label": "Q59155300",
        "type": "Mine",
        "entity": "http://www.wikidata.org/entity/Q59155300",
        "country_qid": "Q213"
      }
    },
    {
      "type": "Feature",
      "geometry": {
        "type": "Point",
        "coordinates": [
          15.92886,
          50.67409
        ]
      },
      "properties": {
        "label": "Q27186419",
        "type": "Mine",
        "entity": "http://www.wikidata.org/entity/Q27186419",
        "country_qid": "Q213"
      }
    },
    {
      "type": "Feature",
      "geometry": {
        "type": "Point",
        "coordinates": [
          18.3781794,
          49.8176036
        ]
      },
      "properties": {
        "label": "Q123351825",
        "type": "Mine",
        "entity": "http://www.wikidata.org/entity/Q123351825",
        "country_qid": "Q213"
      }
    },
    {
      "type": "Feature",
      "geometry": {
        "type": "Point",
        "coordinates": [
          15.411151054,
          49.620634378
        ]
      },
      "properties": {
        "label": "Trojka",
        "type": "Mine",
        "entity": "http://www.wikidata.org/entity/Q96155197",
        "country_qid": "Q213"
      }
    },
    {
      "type": "Feature",
      "geometry": {
        "type": "Point",
        "coordinates": [
          12.8929811,
          50.3748258
        ]
      },
      "properties": {
        "label": "Q130706028",
        "type": "Mine",
        "entity": "http://www.wikidata.org/entity/Q130706028",
        "country_qid": "Q213"
      }
    },
    {
      "type": "Feature",
      "geometry": {
        "type": "Point",
        "coordinates": [
          14.1722311,
          50.1761828
        ]
      },
      "properties": {
        "label": "Q106034318",
        "type": "Mine",
        "entity": "http://www.wikidata.org/entity/Q106034318",
        "country_qid": "Q213"
      }
    },
    {
      "type": "Feature",
      "geometry": {
        "type": "Point",
        "coordinates": [
          13.3218611,
          50.4275278
        ]
      },
      "properties": {
        "label": "Q79886031",
        "type": "Mine",
        "entity": "http://www.wikidata.org/entity/Q79886031",
        "country_qid": "Q213"
      }
    },
    {
      "type": "Feature",
      "geometry": {
        "type": "Point",
        "coordinates": [
          15.9291803,
          50.6680447
        ]
      },
      "properties": {
        "label": "Jáma Julie",
        "type": "Mine",
        "entity": "http://www.wikidata.org/entity/Q27077326",
        "country_qid": "Q213"
      }
    },
    {
      "type": "Feature",
      "geometry": {
        "type": "Point",
        "coordinates": [
          14.277055555,
          48.836055555
        ]
      },
      "properties": {
        "label": "Q62734358",
        "type": "Mine",
        "entity": "http://www.wikidata.org/entity/Q62734358",
        "country_qid": "Q213"
      }
    },
    {
      "type": "Feature",
      "geometry": {
        "type": "Point",
        "coordinates": [
          15.9195628,
          50.6660592
        ]
      },
      "properties": {
        "label": "Q27186398",
        "type": "Mine",
        "entity": "http://www.wikidata.org/entity/Q27186398",
        "country_qid": "Q213"
      }
    },
    {
      "type": "Feature",
      "geometry": {
        "type": "Point",
        "coordinates": [
          17.3576031,
          50.0651176
        ]
      },
      "properties": {
        "label": "Q38140732",
        "type": "Mine",
        "entity": "http://www.wikidata.org/entity/Q38140732",
        "country_qid": "Q213"
      }
    },
    {
      "type": "Feature",
      "geometry": {
        "type": "Point",
        "coordinates": [
          17.357603144,
          50.065117642
        ]
      },
      "properties": {
        "label": "Q38140741",
        "type": "Mine",
        "entity": "http://www.wikidata.org/entity/Q38140741",
        "country_qid": "Q213"
      }
    },
    {
      "type": "Feature",
      "geometry": {
        "type": "Point",
        "coordinates": [
          17.2822086,
          49.9338347
        ]
      },
      "properties": {
        "label": "Q38094117",
        "type": "Mine",
        "entity": "http://www.wikidata.org/entity/Q38094117",
        "country_qid": "Q213"
      }
    },
    {
      "type": "Feature",
      "geometry": {
        "type": "Point",
        "coordinates": [
          13.297708232,
          50.320090844
        ]
      },
      "properties": {
        "label": "Podkova",
        "type": "Mine",
        "entity": "http://www.wikidata.org/entity/Q96156764",
        "country_qid": "Q213"
      }
    },
    {
      "type": "Feature",
      "geometry": {
        "type": "Point",
        "coordinates": [
          15.4845477,
          49.4077447
        ]
      },
      "properties": {
        "label": "Q38092259",
        "type": "Mine",
        "entity": "http://www.wikidata.org/entity/Q38092259",
        "country_qid": "Q213"
      }
    },
    {
      "type": "Feature",
      "geometry": {
        "type": "Point",
        "coordinates": [
          18.378515,
          49.8181494
        ]
      },
      "properties": {
        "label": "Q111128243",
        "type": "Mine",
        "entity": "http://www.wikidata.org/entity/Q111128243",
        "country_qid": "Q213"
      }
    },
    {
      "type": "Feature",
      "geometry": {
        "type": "Point",
        "coordinates": [
          15.4575697,
          50.1142561
        ]
      },
      "properties": {
        "label": "Jezera Štít",
        "type": "Mine",
        "entity": "http://www.wikidata.org/entity/Q56418406",
        "country_qid": "Q213"
      }
    },
    {
      "type": "Feature",
      "geometry": {
        "type": "Point",
        "coordinates": [
          13.723444444,
          50.217388888
        ]
      },
      "properties": {
        "label": "Q61708825",
        "type": "Mine",
        "entity": "http://www.wikidata.org/entity/Q61708825",
        "country_qid": "Q213"
      }
    },
    {
      "type": "Feature",
      "geometry": {
        "type": "Point",
        "coordinates": [
          13.9840817,
          49.6717761
        ]
      },
      "properties": {
        "label": "Drkolnov Mine",
        "type": "Mine",
        "entity": "http://www.wikidata.org/entity/Q38045970",
        "country_qid": "Q213"
      }
    },
    {
      "type": "Feature",
      "geometry": {
        "type": "Point",
        "coordinates": [
          14.3717456,
          50.0158169
        ]
      },
      "properties": {
        "label": "Dolomite Mine in Velká Chuchle",
        "type": "Mine",
        "entity": "http://www.wikidata.org/entity/Q59180389",
        "country_qid": "Q213"
      }
    },
    {
      "type": "Feature",
      "geometry": {
        "type": "Point",
        "coordinates": [
          17.37016,
          50.2215616
        ]
      },
      "properties": {
        "label": "Q37287261",
        "type": "Mine",
        "entity": "http://www.wikidata.org/entity/Q37287261",
        "country_qid": "Q213"
      }
    },
    {
      "type": "Feature",
      "geometry": {
        "type": "Point",
        "coordinates": [
          12.9032242,
          50.3843272
        ]
      },
      "properties": {
        "label": "Q123753530",
        "type": "Mine",
        "entity": "http://www.wikidata.org/entity/Q123753530",
        "country_qid": "Q213"
      }
    },
    {
      "type": "Feature",
      "geometry": {
        "type": "Point",
        "coordinates": [
          14.8093722,
          49.6176372
        ]
      },
      "properties": {
        "label": "Roudný Mine",
        "type": "Mine",
        "entity": "http://www.wikidata.org/entity/Q36640180",
        "country_qid": "Q213"
      }
    },
    {
      "type": "Feature",
      "geometry": {
        "type": "Point",
        "coordinates": [
          17.2035564,
          49.9336479
        ]
      },
      "properties": {
        "label": "Q38135823",
        "type": "Mine",
        "entity": "http://www.wikidata.org/entity/Q38135823",
        "country_qid": "Q213"
      }
    },
    {
      "type": "Feature",
      "geometry": {
        "type": "Point",
        "coordinates": [
          12.5840781,
          50.1503303
        ]
      },
      "properties": {
        "label": "Q119846815",
        "type": "Mine",
        "entity": "http://www.wikidata.org/entity/Q119846815",
        "country_qid": "Q213"
      }
    },
    {
      "type": "Feature",
      "geometry": {
        "type": "Point",
        "coordinates": [
          18.2600083,
          49.6690497
        ]
      },
      "properties": {
        "label": "Q24081321",
        "type": "Mine",
        "entity": "http://www.wikidata.org/entity/Q24081321",
        "country_qid": "Q213"
      }
    },
    {
      "type": "Feature",
      "geometry": {
        "type": "Point",
        "coordinates": [
          17.9900694,
          49.7501419
        ]
      },
      "properties": {
        "label": "Jezírka na Hublesce",
        "type": "Mine",
        "entity": "http://www.wikidata.org/entity/Q116234853",
        "country_qid": "Q213"
      }
    },
    {
      "type": "Feature",
      "geometry": {
        "type": "Point",
        "coordinates": [
          16.3630436,
          49.1899125
        ]
      },
      "properties": {
        "label": "Julius Mine",
        "type": "Mine",
        "entity": "http://www.wikidata.org/entity/Q24075274",
        "country_qid": "Q213"
      }
    },
    {
      "type": "Feature",
      "geometry": {
        "type": "Point",
        "coordinates": [
          13.3571561,
          50.4344969
        ]
      },
      "properties": {
        "label": "Q79481828",
        "type": "Mine",
        "entity": "http://www.wikidata.org/entity/Q79481828",
        "country_qid": "Q213"
      }
    },
    {
      "type": "Feature",
      "geometry": {
        "type": "Point",
        "coordinates": [
          16.10338,
          50.52547
        ]
      },
      "properties": {
        "label": "Q118864221",
        "type": "Mine",
        "entity": "http://www.wikidata.org/entity/Q118864221",
        "country_qid": "Q213"
      }
    },
    {
      "type": "Feature",
      "geometry": {
        "type": "Point",
        "coordinates": [
          12.8922,
          50.3777
        ]
      },
      "properties": {
        "label": "Elijah Valley ore district",
        "type": "Mine",
        "entity": "http://www.wikidata.org/entity/Q61779037",
        "country_qid": "Q213"
      }
    },
    {
      "type": "Feature",
      "geometry": {
        "type": "Point",
        "coordinates": [
          13.2903008,
          50.2929722
        ]
      },
      "properties": {
        "label": "Q79320717",
        "type": "Mine",
        "entity": "http://www.wikidata.org/entity/Q79320717",
        "country_qid": "Q213"
      }
    },
    {
      "type": "Feature",
      "geometry": {
        "type": "Point",
        "coordinates": [
          17.652826,
          49.725709
        ]
      },
      "properties": {
        "label": "Q110164674",
        "type": "Mine",
        "entity": "http://www.wikidata.org/entity/Q110164674",
        "country_qid": "Q213"
      }
    },
    {
      "type": "Feature",
      "geometry": {
        "type": "Point",
        "coordinates": [
          12.6305447,
          50.3984869
        ]
      },
      "properties": {
        "label": "Q126537461",
        "type": "Mine",
        "entity": "http://www.wikidata.org/entity/Q126537461",
        "country_qid": "Q213"
      }
    },
    {
      "type": "Feature",
      "geometry": {
        "type": "Point",
        "coordinates": [
          13.5024703,
          50.4802783
        ]
      },
      "properties": {
        "label": "Důl Běta",
        "type": "Mine",
        "entity": "http://www.wikidata.org/entity/Q77593079",
        "country_qid": "Q213"
      }
    },
    {
      "type": "Feature",
      "geometry": {
        "type": "Point",
        "coordinates": [
          13.9923,
          50.127
        ]
      },
      "properties": {
        "label": "Q105389018",
        "type": "Mine",
        "entity": "http://www.wikidata.org/entity/Q105389018",
        "country_qid": "Q213"
      }
    },
    {
      "type": "Feature",
      "geometry": {
        "type": "Point",
        "coordinates": [
          14.129138888,
          50.163916666
        ]
      },
      "properties": {
        "label": "Q61664479",
        "type": "Mine",
        "entity": "http://www.wikidata.org/entity/Q61664479",
        "country_qid": "Q213"
      }
    },
    {
      "type": "Feature",
      "geometry": {
        "type": "Point",
        "coordinates": [
          13.724638888,
          50.626388888
        ]
      },
      "properties": {
        "label": "Q55992599",
        "type": "Mine",
        "entity": "http://www.wikidata.org/entity/Q55992599",
        "country_qid": "Q213"
      }
    },
    {
      "type": "Feature",
      "geometry": {
        "type": "Point",
        "coordinates": [
          13.8683956,
          50.6942142
        ]
      },
      "properties": {
        "label": "Revír Knötel",
        "type": "Mine",
        "entity": "http://www.wikidata.org/entity/Q37284319",
        "country_qid": "Q213"
      }
    },
    {
      "type": "Feature",
      "geometry": {
        "type": "Point",
        "coordinates": [
          13.9440356,
          50.1401689
        ]
      },
      "properties": {
        "label": "Q106237652",
        "type": "Mine",
        "entity": "http://www.wikidata.org/entity/Q106237652",
        "country_qid": "Q213"
      }
    },
    {
      "type": "Feature",
      "geometry": {
        "type": "Point",
        "coordinates": [
          15.436572,
          49.4712997
        ]
      },
      "properties": {
        "label": "Q37014558",
        "type": "Mine",
        "entity": "http://www.wikidata.org/entity/Q37014558",
        "country_qid": "Q213"
      }
    },
    {
      "type": "Feature",
      "geometry": {
        "type": "Point",
        "coordinates": [
          16.607793,
          49.6468
        ]
      },
      "properties": {
        "label": "Prokop mine",
        "type": "Mine",
        "entity": "http://www.wikidata.org/entity/Q47546148",
        "country_qid": "Q213"
      }
    },
    {
      "type": "Feature",
      "geometry": {
        "type": "Point",
        "coordinates": [
          14.0833,
          50.2423
        ]
      },
      "properties": {
        "label": "Q114737427",
        "type": "Mine",
        "entity": "http://www.wikidata.org/entity/Q114737427",
        "country_qid": "Q213"
      }
    },
    {
      "type": "Feature",
      "geometry": {
        "type": "Point",
        "coordinates": [
          18.341379,
          49.843616
        ]
      },
      "properties": {
        "label": "Q38044453",
        "type": "Mine",
        "entity": "http://www.wikidata.org/entity/Q38044453",
        "country_qid": "Q213"
      }
    },
    {
      "type": "Feature",
      "geometry": {
        "type": "Point",
        "coordinates": [
          16.122928647,
          50.613656623
        ]
      },
      "properties": {
        "label": "Pískovna",
        "type": "Mine",
        "entity": "http://www.wikidata.org/entity/Q95377054",
        "country_qid": "Q213"
      }
    },
    {
      "type": "Feature",
      "geometry": {
        "type": "Point",
        "coordinates": [
          13.6326481,
          49.8662819
        ]
      },
      "properties": {
        "label": "Q106363179",
        "type": "Mine",
        "entity": "http://www.wikidata.org/entity/Q106363179",
        "country_qid": "Q213"
      }
    },
    {
      "type": "Feature",
      "geometry": {
        "type": "Point",
        "coordinates": [
          16.094705,
          50.5482081
        ]
      },
      "properties": {
        "label": "Q37178414",
        "type": "Mine",
        "entity": "http://www.wikidata.org/entity/Q37178414",
        "country_qid": "Q213"
      }
    },
    {
      "type": "Feature",
      "geometry": {
        "type": "Point",
        "coordinates": [
          16.3036575,
          49.3024974
        ]
      },
      "properties": {
        "label": "Q38141108",
        "type": "Mine",
        "entity": "http://www.wikidata.org/entity/Q38141108",
        "country_qid": "Q213"
      }
    },
    {
      "type": "Feature",
      "geometry": {
        "type": "Point",
        "coordinates": [
          17.8211533,
          49.6464044
        ]
      },
      "properties": {
        "label": "Q103424491",
        "type": "Mine",
        "entity": "http://www.wikidata.org/entity/Q103424491",
        "country_qid": "Q213"
      }
    },
    {
      "type": "Feature",
      "geometry": {
        "type": "Point",
        "coordinates": [
          17.3777833,
          50.2706704
        ]
      },
      "properties": {
        "label": "Q38228034",
        "type": "Mine",
        "entity": "http://www.wikidata.org/entity/Q38228034",
        "country_qid": "Q213"
      }
    },
    {
      "type": "Feature",
      "geometry": {
        "type": "Point",
        "coordinates": [
          15.7312122,
          50.7277764
        ]
      },
      "properties": {
        "label": "Kovárna Mine",
        "type": "Mine",
        "entity": "http://www.wikidata.org/entity/Q43370768",
        "country_qid": "Q213"
      }
    },
    {
      "type": "Feature",
      "geometry": {
        "type": "Point",
        "coordinates": [
          14.0299433,
          50.1626865
        ]
      },
      "properties": {
        "label": "Důl Schöller",
        "type": "Mine",
        "entity": "http://www.wikidata.org/entity/Q37460529",
        "country_qid": "Q213"
      }
    },
    {
      "type": "Feature",
      "geometry": {
        "type": "Point",
        "coordinates": [
          15.968111111,
          49.842944444
        ]
      },
      "properties": {
        "label": "Q62928382",
        "type": "Mine",
        "entity": "http://www.wikidata.org/entity/Q62928382",
        "country_qid": "Q213"
      }
    },
    {
      "type": "Feature",
      "geometry": {
        "type": "Point",
        "coordinates": [
          12.800555555,
          50.122777777
        ]
      },
      "properties": {
        "label": "Huber stock",
        "type": "Mine",
        "entity": "http://www.wikidata.org/entity/Q23933886",
        "country_qid": "Q213"
      }
    },
    {
      "type": "Feature",
      "geometry": {
        "type": "Point",
        "coordinates": [
          13.3303358,
          50.3847298
        ]
      },
      "properties": {
        "label": "Q38149728",
        "type": "Mine",
        "entity": "http://www.wikidata.org/entity/Q38149728",
        "country_qid": "Q213"
      }
    },
    {
      "type": "Feature",
      "geometry": {
        "type": "Point",
        "coordinates": [
          13.4384889,
          50.45418
        ]
      },
      "properties": {
        "label": "Q26710508",
        "type": "Mine",
        "entity": "http://www.wikidata.org/entity/Q26710508",
        "country_qid": "Q213"
      }
    },
    {
      "type": "Feature",
      "geometry": {
        "type": "Point",
        "coordinates": [
          14.1114691,
          50.160408
        ]
      },
      "properties": {
        "label": "Kübeck Mine",
        "type": "Mine",
        "entity": "http://www.wikidata.org/entity/Q37342453",
        "country_qid": "Q213"
      }
    },
    {
      "type": "Feature",
      "geometry": {
        "type": "Point",
        "coordinates": [
          13.5903336,
          50.5573356
        ]
      },
      "properties": {
        "label": "Q37176374",
        "type": "Mine",
        "entity": "http://www.wikidata.org/entity/Q37176374",
        "country_qid": "Q213"
      }
    },
    {
      "type": "Feature",
      "geometry": {
        "type": "Point",
        "coordinates": [
          14.0880261,
          50.1518197
        ]
      },
      "properties": {
        "label": "Engerth mine",
        "type": "Mine",
        "entity": "http://www.wikidata.org/entity/Q104764146",
        "country_qid": "Q213"
      }
    },
    {
      "type": "Feature",
      "geometry": {
        "type": "Point",
        "coordinates": [
          17.7398,
          49.6895331
        ]
      },
      "properties": {
        "label": "Former mine Petrova skála",
        "type": "Mine",
        "entity": "http://www.wikidata.org/entity/Q106962345",
        "country_qid": "Q213"
      }
    },
    {
      "type": "Feature",
      "geometry": {
        "type": "Point",
        "coordinates": [
          13.9772502,
          50.1158156
        ]
      },
      "properties": {
        "label": "Pustinka",
        "type": "Mine",
        "entity": "http://www.wikidata.org/entity/Q37812937",
        "country_qid": "Q213"
      }
    },
    {
      "type": "Feature",
      "geometry": {
        "type": "Point",
        "coordinates": [
          13.6545128,
          50.5794639
        ]
      },
      "properties": {
        "label": "Koh-i-noor II mine",
        "type": "Mine",
        "entity": "http://www.wikidata.org/entity/Q37818888",
        "country_qid": "Q213"
      }
    },
    {
      "type": "Feature",
      "geometry": {
        "type": "Point",
        "coordinates": [
          16.354772222,
          49.1639
        ]
      },
      "properties": {
        "label": "Jindřich II Mine",
        "type": "Mine",
        "entity": "http://www.wikidata.org/entity/Q24003229",
        "country_qid": "Q213"
      }
    },
    {
      "type": "Feature",
      "geometry": {
        "type": "Point",
        "coordinates": [
          18.305833333,
          49.875555555
        ]
      },
      "properties": {
        "label": "Vrbice V.Shaft",
        "type": "Mine",
        "entity": "http://www.wikidata.org/entity/Q64675931",
        "country_qid": "Q213"
      }
    },
    {
      "type": "Feature",
      "geometry": {
        "type": "Point",
        "coordinates": [
          14.3038095,
          49.2094713
        ]
      },
      "properties": {
        "label": "Q38186838",
        "type": "Mine",
        "entity": "http://www.wikidata.org/entity/Q38186838",
        "country_qid": "Q213"
      }
    },
    {
      "type": "Feature",
      "geometry": {
        "type": "Point",
        "coordinates": [
          16.056111111,
          50.575305555
        ]
      },
      "properties": {
        "label": "Q62577553",
        "type": "Mine",
        "entity": "http://www.wikidata.org/entity/Q62577553",
        "country_qid": "Q213"
      }
    },
    {
      "type": "Feature",
      "geometry": {
        "type": "Point",
        "coordinates": [
          14.7588983,
          49.4431688
        ]
      },
      "properties": {
        "label": "Q38091260",
        "type": "Mine",
        "entity": "http://www.wikidata.org/entity/Q38091260",
        "country_qid": "Q213"
      }
    },
    {
      "type": "Feature",
      "geometry": {
        "type": "Point",
        "coordinates": [
          17.3778138,
          50.2221314
        ]
      },
      "properties": {
        "label": "Q37273422",
        "type": "Mine",
        "entity": "http://www.wikidata.org/entity/Q37273422",
        "country_qid": "Q213"
      }
    },
    {
      "type": "Feature",
      "geometry": {
        "type": "Point",
        "coordinates": [
          17.4031695,
          50.2083107
        ]
      },
      "properties": {
        "label": "Q37273433",
        "type": "Mine",
        "entity": "http://www.wikidata.org/entity/Q37273433",
        "country_qid": "Q213"
      }
    },
    {
      "type": "Feature",
      "geometry": {
        "type": "Point",
        "coordinates": [
          16.3540925,
          49.1779994
        ]
      },
      "properties": {
        "label": "Ferdinand Mine",
        "type": "Mine",
        "entity": "http://www.wikidata.org/entity/Q24194887",
        "country_qid": "Q213"
      }
    },
    {
      "type": "Feature",
      "geometry": {
        "type": "Point",
        "coordinates": [
          14.3573049,
          49.8943499
        ]
      },
      "properties": {
        "label": "Q37422567",
        "type": "Mine",
        "entity": "http://www.wikidata.org/entity/Q37422567",
        "country_qid": "Q213"
      }
    },
    {
      "type": "Feature",
      "geometry": {
        "type": "Point",
        "coordinates": [
          14.1122,
          50.17625
        ]
      },
      "properties": {
        "label": "Q24282866",
        "type": "Mine",
        "entity": "http://www.wikidata.org/entity/Q24282866",
        "country_qid": "Q213"
      }
    },
    {
      "type": "Feature",
      "geometry": {
        "type": "Point",
        "coordinates": [
          13.653,
          49.0653
        ]
      },
      "properties": {
        "label": "Q10816464",
        "type": "Mine",
        "entity": "http://www.wikidata.org/entity/Q10816464",
        "country_qid": "Q213"
      }
    },
    {
      "type": "Feature",
      "geometry": {
        "type": "Point",
        "coordinates": [
          13.1044492,
          50.4267475
        ]
      },
      "properties": {
        "label": "Důl Měděnec",
        "type": "Mine",
        "entity": "http://www.wikidata.org/entity/Q26483472",
        "country_qid": "Q213"
      }
    },
    {
      "type": "Feature",
      "geometry": {
        "type": "Point",
        "coordinates": [
          17.3982587,
          50.2260544
        ]
      },
      "properties": {
        "label": "Q38228024",
        "type": "Mine",
        "entity": "http://www.wikidata.org/entity/Q38228024",
        "country_qid": "Q213"
      }
    },
    {
      "type": "Feature",
      "geometry": {
        "type": "Point",
        "coordinates": [
          12.8636558,
          50.3760647
        ]
      },
      "properties": {
        "label": "Q131313534",
        "type": "Mine",
        "entity": "http://www.wikidata.org/entity/Q131313534",
        "country_qid": "Q213"
      }
    },
    {
      "type": "Feature",
      "geometry": {
        "type": "Point",
        "coordinates": [
          13.024754,
          50.425357
        ]
      },
      "properties": {
        "label": "Lime kiln in Loučná pod Klínovcem",
        "type": "Mine",
        "entity": "http://www.wikidata.org/entity/Q26161627",
        "country_qid": "Q213"
      }
    },
    {
      "type": "Feature",
      "geometry": {
        "type": "Point",
        "coordinates": [
          12.613722222,
          50.360055555
        ]
      },
      "properties": {
        "label": "Q61707759",
        "type": "Mine",
        "entity": "http://www.wikidata.org/entity/Q61707759",
        "country_qid": "Q213"
      }
    },
    {
      "type": "Feature",
      "geometry": {
        "type": "Point",
        "coordinates": [
          14.134865694,
          50.184842448
        ]
      },
      "properties": {
        "label": "Theodor Mine",
        "type": "Mine",
        "entity": "http://www.wikidata.org/entity/Q106086676",
        "country_qid": "Q213"
      }
    },
    {
      "type": "Feature",
      "geometry": {
        "type": "Point",
        "coordinates": [
          14.919444444,
          50.716111111
        ]
      },
      "properties": {
        "label": "North Bohemian uranium district",
        "type": "Mine",
        "entity": "http://www.wikidata.org/entity/Q23936613",
        "country_qid": "Q213"
      }
    },
    {
      "type": "Feature",
      "geometry": {
        "type": "Point",
        "coordinates": [
          13.8467136,
          50.6972889
        ]
      },
      "properties": {
        "label": "Štola Starý Martin",
        "type": "Mine",
        "entity": "http://www.wikidata.org/entity/Q37442889",
        "country_qid": "Q213"
      }
    },
    {
      "type": "Feature",
      "geometry": {
        "type": "Point",
        "coordinates": [
          13.2792644,
          49.8267361
        ]
      },
      "properties": {
        "label": "Nevřeň mine",
        "type": "Mine",
        "entity": "http://www.wikidata.org/entity/Q66370955",
        "country_qid": "Q213"
      }
    },
    {
      "type": "Feature",
      "geometry": {
        "type": "Point",
        "coordinates": [
          14.73095,
          50.17129
        ]
      },
      "properties": {
        "label": "Čelákovická pískovna",
        "type": "Mine",
        "entity": "http://www.wikidata.org/entity/Q23822196",
        "country_qid": "Q213"
      }
    },
    {
      "type": "Feature",
      "geometry": {
        "type": "Point",
        "coordinates": [
          13.7254083,
          50.0794264
        ]
      },
      "properties": {
        "label": "Q106009089",
        "type": "Mine",
        "entity": "http://www.wikidata.org/entity/Q106009089",
        "country_qid": "Q213"
      }
    },
    {
      "type": "Feature",
      "geometry": {
        "type": "Point",
        "coordinates": [
          16.583277777,
          49.762666666
        ]
      },
      "properties": {
        "label": "Q62929142",
        "type": "Mine",
        "entity": "http://www.wikidata.org/entity/Q62929142",
        "country_qid": "Q213"
      }
    },
    {
      "type": "Feature",
      "geometry": {
        "type": "Point",
        "coordinates": [
          12.8976856,
          50.3630381
        ]
      },
      "properties": {
        "label": "Q124608962",
        "type": "Mine",
        "entity": "http://www.wikidata.org/entity/Q124608962",
        "country_qid": "Q213"
      }
    },
    {
      "type": "Feature",
      "geometry": {
        "type": "Point",
        "coordinates": [
          18.3028112,
          49.8634567
        ]
      },
      "properties": {
        "label": "Q38044340",
        "type": "Mine",
        "entity": "http://www.wikidata.org/entity/Q38044340",
        "country_qid": "Q213"
      }
    },
    {
      "type": "Feature",
      "geometry": {
        "type": "Point",
        "coordinates": [
          14.17258333,
          50.18516667
        ]
      },
      "properties": {
        "label": "Michael Mine (Brandýsek)",
        "type": "Mine",
        "entity": "http://www.wikidata.org/entity/Q37014470",
        "country_qid": "Q213"
      }
    },
    {
      "type": "Feature",
      "geometry": {
        "type": "Point",
        "coordinates": [
          13.5883294,
          50.5405514
        ]
      },
      "properties": {
        "label": "Q37852902",
        "type": "Mine",
        "entity": "http://www.wikidata.org/entity/Q37852902",
        "country_qid": "Q213"
      }
    },
    {
      "type": "Feature",
      "geometry": {
        "type": "Point",
        "coordinates": [
          13.8977195,
          50.6621905
        ]
      },
      "properties": {
        "label": "Q91757977",
        "type": "Mine",
        "entity": "http://www.wikidata.org/entity/Q91757977",
        "country_qid": "Q213"
      }
    },
    {
      "type": "Feature",
      "geometry": {
        "type": "Point",
        "coordinates": [
          16.5873989,
          49.6256786
        ]
      },
      "properties": {
        "label": "Březinka mine",
        "type": "Mine",
        "entity": "http://www.wikidata.org/entity/Q47546379",
        "country_qid": "Q213"
      }
    },
    {
      "type": "Feature",
      "geometry": {
        "type": "Point",
        "coordinates": [
          15.4629556,
          50.1237425
        ]
      },
      "properties": {
        "label": "Písník u Chárovny",
        "type": "Mine",
        "entity": "http://www.wikidata.org/entity/Q56418414",
        "country_qid": "Q213"
      }
    },
    {
      "type": "Feature",
      "geometry": {
        "type": "Point",
        "coordinates": [
          14.6399947,
          50.2108667
        ]
      },
      "properties": {
        "label": "Q124733226",
        "type": "Mine",
        "entity": "http://www.wikidata.org/entity/Q124733226",
        "country_qid": "Q213"
      }
    },
    {
      "type": "Feature",
      "geometry": {
        "type": "Point",
        "coordinates": [
          17.3981734,
          50.2291693
        ]
      },
      "properties": {
        "label": "Q38228030",
        "type": "Mine",
        "entity": "http://www.wikidata.org/entity/Q38228030",
        "country_qid": "Q213"
      }
    },
    {
      "type": "Feature",
      "geometry": {
        "type": "Point",
        "coordinates": [
          13.9942831,
          49.6876981
        ]
      },
      "properties": {
        "label": "Anna mine",
        "type": "Mine",
        "entity": "http://www.wikidata.org/entity/Q38045943",
        "country_qid": "Q213"
      }
    },
    {
      "type": "Feature",
      "geometry": {
        "type": "Point",
        "coordinates": [
          14.0324567,
          50.1350614
        ]
      },
      "properties": {
        "label": "Q106019537",
        "type": "Mine",
        "entity": "http://www.wikidata.org/entity/Q106019537",
        "country_qid": "Q213"
      }
    },