{
  "type": "FeatureCollection",
  "features": [
    {
      "type": "Feature",
      "geometry": {
        "type": "Point",
        "coordinates": [
          127.431111111,
          37.141666666
        ]
      },
      "properties": {
        "label": "Gwangsan",
        "type": "Mine",
        "entity": "http://www.wikidata.org/entity/Q27300133",
        "country_qid": "Q884"
      }
    },
    {
      "type": "Feature",
      "geometry": {
        "type": "Point",
        "coordinates": [
          128.757777777,
          37.9325
        ]
      },
      "properties": {
        "label": "Yangyangseoksan-chaeseokjang",
        "type": "Mine",
        "entity": "http://www.wikidata.org/entity/Q27340955",
        "country_qid": "Q884"
      }
    },
    {
      "type": "Feature",
      "geometry": {
        "type": "Point",
        "coordinates": [
          127.279166666,
          37.974444444
        ]
      },
      "properties": {
        "label": "Geumjugwangsan",
        "type": "Mine",
        "entity": "http://www.wikidata.org/entity/Q27340897",
        "country_qid": "Q884"
      }
    },
    {
      "type": "Feature",
      "geometry": {
        "type": "Point",
        "coordinates": [
          126.634722222,
          36.568055555
        ]
      },
      "properties": {
        "label": "Hongsong-gwangsan",
        "type": "Mine",
        "entity": "http://www.wikidata.org/entity/Q27309530",
        "country_qid": "Q884"
      }
    },
    {
      "type": "Feature",
      "geometry": {
        "type": "Point",
        "coordinates": [
          127.723888888,
          37.993888888
        ]
      },
      "properties": {
        "label": "Gotanseokjae",
        "type": "Mine",
        "entity": "http://www.wikidata.org/entity/Q27340758",
        "country_qid": "Q884"
      }
    },
    {
      "type": "Feature",
      "geometry": {
        "type": "Point",
        "coordinates": [
          128.085,
          37.8975
        ]
      },
      "properties": {
        "label": "Daemyeonggwangsan",
        "type": "Mine",
        "entity": "http://www.wikidata.org/entity/Q27340718",
        "country_qid": "Q884"
      }
    },
    {
      "type": "Feature",
      "geometry": {
        "type": "Point",
        "coordinates": [
          129.066666666,
          36.85
        ]
      },
      "properties": {
        "label": "Janggun mine",
        "type": "Mine",
        "entity": "http://www.wikidata.org/entity/Q29643895",
        "country_qid": "Q884"
      }
    },
    {
      "type": "Feature",
      "geometry": {
        "type": "Point",
        "coordinates": [
          127.383611111,
          37.855277777
        ]
      },
      "properties": {
        "label": "Yukcheonggwangsan",
        "type": "Mine",
        "entity": "http://www.wikidata.org/entity/Q27340886",
        "country_qid": "Q884"
      }
    },
    {
      "type": "Feature",
      "geometry": {
        "type": "Point",
        "coordinates": [
          128.007222222,
          37.872777777
        ]
      },
      "properties": {
        "label": "Hongchongwangsan",
        "type": "Mine",
        "entity": "http://www.wikidata.org/entity/Q27340723",
        "country_qid": "Q884"
      }
    },
    {
      "type": "Feature",
      "geometry": {
        "type": "Point",
        "coordinates": [
          127.733333333,
          37.987222222
        ]
      },
      "properties": {
        "label": "Daesanseokjae",
        "type": "Mine",
        "entity": "http://www.wikidata.org/entity/Q27340756",
        "country_qid": "Q884"
      }
    },
    {
      "type": "Feature",
      "geometry": {
        "type": "Point",
        "coordinates": [
          129.0775,
          36.844444444
        ]
      },
      "properties": {
        "label": "Irwol-gwangsan",
        "type": "Mine",
        "entity": "http://www.wikidata.org/entity/Q27323812",
        "country_qid": "Q884"
      }
    },
    {
      "type": "Feature",
      "geometry": {
        "type": "Point",
        "coordinates": [
          128.761666666,
          37.930833333
        ]
      },
      "properties": {
        "label": "Donghaeseoksan-chaeseokjang",
        "type": "Mine",
        "entity": "http://www.wikidata.org/entity/Q27340953",
        "country_qid": "Q884"
      }
    },
    {
      "type": "Feature",
      "geometry": {
        "type": "Point",
        "coordinates": [
          128.83333333,
          37.15
        ]
      },
      "properties": {
        "label": "Sangdong mine",
        "type": "Mine",
        "entity": "http://www.wikidata.org/entity/Q16979154",
        "country_qid": "Q884"
      }
    },
    {
      "type": "Feature",
      "geometry": {
        "type": "Point",
        "coordinates": [
          128.554722222,
          38.088888888
        ]
      },
      "properties": {
        "label": "Ilyang Ready-Made Concrete Goljaechaechwijang",
        "type": "Mine",
        "entity": "http://www.wikidata.org/entity/Q27341143",
        "country_qid": "Q884"
      }
    },
    {
      "type": "Feature",
      "geometry": {
        "type": "Point",
        "coordinates": [
          127.171944444,
          37.948611111
        ]
      },
      "properties": {
        "label": "Pocheonseokjaedanji",
        "type": "Mine",
        "entity": "http://www.wikidata.org/entity/Q27340872",
        "country_qid": "Q884"
      }
    },
    {
      "type": "Feature",
      "geometry": {
        "type": "Point",
        "coordinates": [
          128.022777777,
          37.856666666
        ]
      },
      "properties": {
        "label": "Jaeungwangsan",
        "type": "Mine",
        "entity": "http://www.wikidata.org/entity/Q27340722",
        "country_qid": "Q884"
      }
    },
    {
      "type": "Feature",
      "geometry": {
        "type": "Point",
        "coordinates": [
          127.64,
          38.193055555
        ]
      },
      "properties": {
        "label": "Buchongwangsan",
        "type": "Mine",
        "entity": "http://www.wikidata.org/entity/Q27341449",
        "country_qid": "Q884"
      }
    },
    {
      "type": "Feature",
      "geometry": {
        "type": "Point",
        "coordinates": [
          127.606666666,
          38.018888888
        ]
      },
      "properties": {
        "label": "Sinp'o-gwangsan",
        "type": "Mine",
        "entity": "http://www.wikidata.org/entity/Q27300435",
        "country_qid": "Q884"
      }
    },
    {
      "type": "Feature",
      "geometry": {
        "type": "Point",
        "coordinates": [
          129.456666666,
          36.712777777
        ]
      },
      "properties": {
        "label": "P'yonghae-gwangopso",
        "type": "Mine",
        "entity": "http://www.wikidata.org/entity/Q27321814",
        "country_qid": "Q884"
      }
    },
    {
      "type": "Feature",
      "geometry": {
        "type": "Point",
        "coordinates": [
          127.794444444,
          37.853333333
        ]
      },
      "properties": {
        "label": "Daeryonggwangeopso",
        "type": "Mine",
        "entity": "http://www.wikidata.org/entity/Q27340749",
        "country_qid": "Q884"
      }
    },
    {
      "type": "Feature",
      "geometry": {
        "type": "Point",
        "coordinates": [
          129.306666666,
          36.616111111
        ]
      },
      "properties": {
        "label": "Paegam-gwangopso",
        "type": "Mine",
        "entity": "http://www.wikidata.org/entity/Q27321811",
        "country_qid": "Q884"
      }
    },
    {
      "type": "Feature",
      "geometry": {
        "type": "Point",
        "coordinates": [
          127.321944444,
          37.865
        ]
      },
      "properties": {
        "label": "Yuchangsaneop",
        "type": "Mine",
        "entity": "http://www.wikidata.org/entity/Q27340891",
        "country_qid": "Q884"
      }
    },
    {
      "type": "Feature",
      "geometry": {
        "type": "Point",
        "coordinates": [
          128.8702,
          37.1954
        ]
      },
      "properties": {
        "label": "Samtan Art Mine",
        "type": "Mine",
        "entity": "http://www.wikidata.org/entity/Q100000050",
        "country_qid": "Q884"
      }
    },
    {
      "type": "Feature",
      "geometry": {
        "type": "Point",
        "coordinates": [
          129.136111111,
          36.921944444
        ]
      },
      "properties": {
        "label": "Okpang-gwangsan",
        "type": "Mine",
        "entity": "http://www.wikidata.org/entity/Q27323810",
        "country_qid": "Q884"
      }
    },
    {
      "type": "Feature",
      "geometry": {
        "type": "Point",
        "coordinates": [
          127.524166666,
          38.167222222
        ]
      },
      "properties": {
        "label": "Q27300558",
        "type": "Mine",
        "entity": "http://www.wikidata.org/entity/Q27300558",
        "country_qid": "Q884"
      }
    }
  ]
}