{
  "type": "FeatureCollection",
  "features": [
    {
      "type": "Feature",
      "geometry": {
        "type": "Point",
        "coordinates": [
          30.784722222,
          -1.372777777
        ]
      },
      "properties": {
        "label": "Q49424342",
        "type": "Mine",
        "entity": "http://www.wikidata.org/entity/Q49424342",
        "country_qid": "Q924"
      }
    },
    {
      "type": "Feature",
      "geometry": {
        "type": "Point",
        "coordinates": [
          30.064166666,
          -5.887777777
        ]
      },
      "properties": {
        "label": "Kapalagulu intrusion",
        "type": "Mine",
        "entity": "http://www.wikidata.org/entity/Q24045536",
        "country_qid": "Q924"
      }
    },
    {
      "type": "Feature",
      "geometry": {
        "type": "Point",
        "coordinates": [
          33.28333333,
          -8.71666667
        ]
      },
      "properties": {
        "label": "New Luika Gold Mine",
        "type": "Mine",
        "entity": "http://www.wikidata.org/entity/Q16990595",
        "country_qid": "Q924"
      }
    },
    {
      "type": "Feature",
      "geometry": {
        "type": "Point",
        "coordinates": [
          38.02776,
          -5.4454
        ]
      },
      "properties": {
        "label": "Handeni mine",
        "type": "Mine",
        "entity": "http://www.wikidata.org/entity/Q16965534",
        "country_qid": "Q924"
      }
    },
    {
      "type": "Feature",
      "geometry": {
        "type": "Point",
        "coordinates": [
          34.94404671,
          -9.86493147
        ]
      },
      "properties": {
        "label": "Liganga mine",
        "type": "Mine",
        "entity": "http://www.wikidata.org/entity/Q16969068",
        "country_qid": "Q924"
      }
    },
    {
      "type": "Feature",
      "geometry": {
        "type": "Point",
        "coordinates": [
          32.48333333,
          -3.23333333
        ]
      },
      "properties": {
        "label": "Bulyanhulu Gold Mine",
        "type": "Mine",
        "entity": "http://www.wikidata.org/entity/Q4997202",
        "country_qid": "Q924"
      }
    },
    {
      "type": "Feature",
      "geometry": {
        "type": "Point",
        "coordinates": [
          31.8833,
          -3.33333
        ]
      },
      "properties": {
        "label": "Tulawaka Gold Mine",
        "type": "Mine",
        "entity": "http://www.wikidata.org/entity/Q7851974",
        "country_qid": "Q924"
      }
    },
    {
      "type": "Feature",
      "geometry": {
        "type": "Point",
        "coordinates": [
          32.3,
          -2.83333333
        ]
      },
      "properties": {
        "label": "Geita Gold Mine",
        "type": "Mine",
        "entity": "http://www.wikidata.org/entity/Q5530260",
        "country_qid": "Q924"
      }
    },
    {
      "type": "Feature",
      "geometry": {
        "type": "Point",
        "coordinates": [
          33.3,
          -4.35
        ]
      },
      "properties": {
        "label": "Golden Pride Gold Mine",
        "type": "Mine",
        "entity": "http://www.wikidata.org/entity/Q5579722",
        "country_qid": "Q924"
      }
    },
    {
      "type": "Feature",
      "geometry": {
        "type": "Point",
        "coordinates": [
          34.51666667,
          -1.46666667
        ]
      },
      "properties": {
        "label": "North Mara Gold Mine",
        "type": "Mine",
        "entity": "http://www.wikidata.org/entity/Q7056043",
        "country_qid": "Q924"
      }
    },
    {
      "type": "Feature",
      "geometry": {
        "type": "Point",
        "coordinates": [
          34.25,
          -3.95
        ]
      },
      "properties": {
        "label": "Kirondatal Gold Mine",
        "type": "Mine",
        "entity": "http://www.wikidata.org/entity/Q6415940",
        "country_qid": "Q924"
      }
    },
    {
      "type": "Feature",
      "geometry": {
        "type": "Point",
        "coordinates": [
          34.25,
          -3.95
        ]
      },
      "properties": {
        "label": "Sekenke Gold Mine",
        "type": "Mine",
        "entity": "http://www.wikidata.org/entity/Q7447147",
        "country_qid": "Q924"
      }
    },
    {
      "type": "Feature",
      "geometry": {
        "type": "Point",
        "coordinates": [
          33.6,
          -3.51667
        ]
      },
      "properties": {
        "label": "Williamson diamond mine",
        "type": "Mine",
        "entity": "http://www.wikidata.org/entity/Q3314859",
        "country_qid": "Q924"
      }
    },
    {
      "type": "Feature",
      "geometry": {
        "type": "Point",
        "coordinates": [
          32.28333333,
          -3.66666667
        ]
      },
      "properties": {
        "label": "Buzwagi Gold Mine",
        "type": "Mine",
        "entity": "http://www.wikidata.org/entity/Q5003473",
        "country_qid": "Q924"
      }
    }
  ]
}