{
  "type": "FeatureCollection",
  "features": [
    {
      "type": "Feature",
      "geometry": {
        "type": "Point",
        "coordinates": [
          -6.765101,
          54.197743
        ]
      },
      "properties": {
        "label": "Lemgare Lead Mines",
        "type": "Mine",
        "entity": "http://www.wikidata.org/entity/Q24196619",
        "country_qid": "Q27"
      }
    },
    {
      "type": "Feature",
      "geometry": {
        "type": "Point",
        "coordinates": [
          -6.765101,
          54.197743
        ]
      },
      "properties": {
        "label": "Lisdrumgormley Lead Mines",
        "type": "Mine",
        "entity": "http://www.wikidata.org/entity/Q24196629",
        "country_qid": "Q27"
      }
    },
    {
      "type": "Feature",
      "geometry": {
        "type": "Point",
        "coordinates": [
          -7.207728,
          52.823849
        ]
      },
      "properties": {
        "label": "Deerpark Mines",
        "type": "Mine",
        "entity": "http://www.wikidata.org/entity/Q5250979",
        "country_qid": "Q27"
      }
    },
    {
      "type": "Feature",
      "geometry": {
        "type": "Point",
        "coordinates": [
          -7.67333333,
          52.74777778
        ]
      },
      "properties": {
        "label": "Lisheen Mine",
        "type": "Mine",
        "entity": "http://www.wikidata.org/entity/Q6558836",
        "country_qid": "Q27"
      }
    },
    {
      "type": "Feature",
      "geometry": {
        "type": "Point",
        "coordinates": [
          -6.234,
          53.2555
        ]
      },
      "properties": {
        "label": "Barnacullia quarries",
        "type": "Mine",
        "entity": "http://www.wikidata.org/entity/Q131299071",
        "country_qid": "Q27"
      }
    },
    {
      "type": "Feature",
      "geometry": {
        "type": "Point",
        "coordinates": [
          -6.163889,
          53.224444
        ]
      },
      "properties": {
        "label": "Ballycorus Leadmines",
        "type": "Mine",
        "entity": "http://www.wikidata.org/entity/Q2881409",
        "country_qid": "Q27"
      }
    },
    {
      "type": "Feature",
      "geometry": {
        "type": "Point",
        "coordinates": [
          -9.505555555,
          51.595833333
        ]
      },
      "properties": {
        "label": "Q26716546",
        "type": "Mine",
        "entity": "http://www.wikidata.org/entity/Q26716546",
        "country_qid": "Q27"
      }
    },
    {
      "type": "Feature",
      "geometry": {
        "type": "Point",
        "coordinates": [
          -6.715,
          53.6553
        ]
      },
      "properties": {
        "label": "Tara Mine",
        "type": "Mine",
        "entity": "http://www.wikidata.org/entity/Q7685105",
        "country_qid": "Q27"
      }
    },
    {
      "type": "Feature",
      "geometry": {
        "type": "Point",
        "coordinates": [
          -6.1069,
          53.2711
        ]
      },
      "properties": {
        "label": "Dalkey Quarry",
        "type": "Mine",
        "entity": "http://www.wikidata.org/entity/Q5211074",
        "country_qid": "Q27"
      }
    },
    {
      "type": "Feature",
      "geometry": {
        "type": "Point",
        "coordinates": [
          -6.226388888,
          52.864444444
        ]
      },
      "properties": {
        "label": "Cooper Sulphur Mines",
        "type": "Mine",
        "entity": "http://www.wikidata.org/entity/Q26717373",
        "country_qid": "Q27"
      }
    },
    {
      "type": "Feature",
      "geometry": {
        "type": "Point",
        "coordinates": [
          -8.380555555,
          53.171111111
        ]
      },
      "properties": {
        "label": "Tynagh Mines",
        "type": "Mine",
        "entity": "http://www.wikidata.org/entity/Q26718732",
        "country_qid": "Q27"
      }
    },
    {
      "type": "Feature",
      "geometry": {
        "type": "Point",
        "coordinates": [
          -7.575452,
          52.593434
        ]
      },
      "properties": {
        "label": "Ballingarry Coal Mines",
        "type": "Mine",
        "entity": "http://www.wikidata.org/entity/Q4851742",
        "country_qid": "Q27"
      }
    },
    {
      "type": "Feature",
      "geometry": {
        "type": "Point",
        "coordinates": [
          -6.761702,
          54.187615
        ]
      },
      "properties": {
        "label": "Annaglogh Lead Mines",
        "type": "Mine",
        "entity": "http://www.wikidata.org/entity/Q24196610",
        "country_qid": "Q27"
      }
    },
    {
      "type": "Feature",
      "geometry": {
        "type": "Point",
        "coordinates": [
          -7.59722222,
          52.80527778
        ]
      },
      "properties": {
        "label": "Galmoy Mine",
        "type": "Mine",
        "entity": "http://www.wikidata.org/entity/Q5519259",
        "country_qid": "Q27"
      }
    }
  ]
}