{
  "type": "FeatureCollection",
  "features": [
    {
      "type": "Feature",
      "geometry": {
        "type": "Point",
        "coordinates": [
          22.8425,
          44.67806
        ]
      },
      "properties": {
        "label": "Husnicioara Coal Mine",
        "type": "Mine",
        "entity": "http://www.wikidata.org/entity/Q5949447",
        "country_qid": "Q218"
      }
    },
    {
      "type": "Feature",
      "geometry": {
        "type": "Point",
        "coordinates": [
          23.261666666,
          45.368055555
        ]
      },
      "properties": {
        "label": "Paroșeni Coal Mine",
        "type": "Mine",
        "entity": "http://www.wikidata.org/entity/Q7139598",
        "country_qid": "Q218"
      }
    },
    {
      "type": "Feature",
      "geometry": {
        "type": "Point",
        "coordinates": [
          23.08,
          46.18
        ]
      },
      "properties": {
        "label": "Țarina mine",
        "type": "Mine",
        "entity": "http://www.wikidata.org/entity/Q16901247",
        "country_qid": "Q218"
      }
    },
    {
      "type": "Feature",
      "geometry": {
        "type": "Point",
        "coordinates": [
          25.1204234,
          46.5508052
        ]
      },
      "properties": {
        "label": "Salt Mine Praid",
        "type": "Mine",
        "entity": "http://www.wikidata.org/entity/Q12740346",
        "country_qid": "Q218"
      }
    },
    {
      "type": "Feature",
      "geometry": {
        "type": "Point",
        "coordinates": [
          24.3093897,
          45.0850778
        ]
      },
      "properties": {
        "label": "Ocnele Mari mine",
        "type": "Mine",
        "entity": "http://www.wikidata.org/entity/Q16979483",
        "country_qid": "Q218"
      }
    },
    {
      "type": "Feature",
      "geometry": {
        "type": "Point",
        "coordinates": [
          22.52,
          46.07
        ]
      },
      "properties": {
        "label": "Cireșata mine",
        "type": "Mine",
        "entity": "http://www.wikidata.org/entity/Q5121882",
        "country_qid": "Q218"
      }
    },
    {
      "type": "Feature",
      "geometry": {
        "type": "Point",
        "coordinates": [
          23.7874,
          46.5877
        ]
      },
      "properties": {
        "label": "Salina Turda",
        "type": "Mine",
        "entity": "http://www.wikidata.org/entity/Q1855800",
        "country_qid": "Q218"
      }
    },
    {
      "type": "Feature",
      "geometry": {
        "type": "Point",
        "coordinates": [
          25.9425,
          45.23555556
        ]
      },
      "properties": {
        "label": "Slănic mine",
        "type": "Mine",
        "entity": "http://www.wikidata.org/entity/Q7404638",
        "country_qid": "Q218"
      }
    },
    {
      "type": "Feature",
      "geometry": {
        "type": "Point",
        "coordinates": [
          23.11,
          45.47
        ]
      },
      "properties": {
        "label": "Colnic mine",
        "type": "Mine",
        "entity": "http://www.wikidata.org/entity/Q5147792",
        "country_qid": "Q218"
      }
    },
    {
      "type": "Feature",
      "geometry": {
        "type": "Point",
        "coordinates": [
          22.85,
          46.09
        ]
      },
      "properties": {
        "label": "Rovina mine",
        "type": "Mine",
        "entity": "http://www.wikidata.org/entity/Q7371721",
        "country_qid": "Q218"
      }
    },
    {
      "type": "Feature",
      "geometry": {
        "type": "Point",
        "coordinates": [
          23.30986,
          45.40827
        ]
      },
      "properties": {
        "label": "Aninoasa coal mine",
        "type": "Mine",
        "entity": "http://www.wikidata.org/entity/Q16251326",
        "country_qid": "Q218"
      }
    },
    {
      "type": "Feature",
      "geometry": {
        "type": "Point",
        "coordinates": [
          22.62833333,
          46.48
        ]
      },
      "properties": {
        "label": "Băița mine",
        "type": "Mine",
        "entity": "http://www.wikidata.org/entity/Q5005372",
        "country_qid": "Q218"
      }
    },
    {
      "type": "Feature",
      "geometry": {
        "type": "Point",
        "coordinates": [
          23.8738124,
          47.6425779
        ]
      },
      "properties": {
        "label": "Cavnic mine",
        "type": "Mine",
        "entity": "http://www.wikidata.org/entity/Q5055190",
        "country_qid": "Q218"
      }
    },
    {
      "type": "Feature",
      "geometry": {
        "type": "Point",
        "coordinates": [
          27.902111111,
          44.094694444
        ]
      },
      "properties": {
        "label": "Urluia (Quarry)",
        "type": "Mine",
        "entity": "http://www.wikidata.org/entity/Q130547772",
        "country_qid": "Q218"
      }
    },
    {
      "type": "Feature",
      "geometry": {
        "type": "Point",
        "coordinates": [
          23.176,
          46.264
        ]
      },
      "properties": {
        "label": "Rodu mine",
        "type": "Mine",
        "entity": "http://www.wikidata.org/entity/Q7357489",
        "country_qid": "Q218"
      }
    },
    {
      "type": "Feature",
      "geometry": {
        "type": "Point",
        "coordinates": [
          25.8980849,
          47.6351073
        ]
      },
      "properties": {
        "label": "Cacica mine",
        "type": "Mine",
        "entity": "http://www.wikidata.org/entity/Q16256030",
        "country_qid": "Q218"
      }
    },
    {
      "type": "Feature",
      "geometry": {
        "type": "Point",
        "coordinates": [
          23.176,
          46.264
        ]
      },
      "properties": {
        "label": "Frasin mine",
        "type": "Mine",
        "entity": "http://www.wikidata.org/entity/Q5493761",
        "country_qid": "Q218"
      }
    },
    {
      "type": "Feature",
      "geometry": {
        "type": "Point",
        "coordinates": [
          24.17885,
          46.76062
        ]
      },
      "properties": {
        "label": "Sărmășel mine",
        "type": "Mine",
        "entity": "http://www.wikidata.org/entity/Q16984874",
        "country_qid": "Q218"
      }
    },
    {
      "type": "Feature",
      "geometry": {
        "type": "Point",
        "coordinates": [
          25.612006625,
          47.351249527
        ]
      },
      "properties": {
        "label": "Crucea – Botușana mine",
        "type": "Mine",
        "entity": "http://www.wikidata.org/entity/Q5189760",
        "country_qid": "Q218"
      }
    },
    {
      "type": "Feature",
      "geometry": {
        "type": "Point",
        "coordinates": [
          25.2362,
          47.1153
        ]
      },
      "properties": {
        "label": "Q76402870",
        "type": "Mine",
        "entity": "http://www.wikidata.org/entity/Q76402870",
        "country_qid": "Q218"
      }
    },
    {
      "type": "Feature",
      "geometry": {
        "type": "Point",
        "coordinates": [
          23.171388888,
          46.314722222
        ]
      },
      "properties": {
        "label": "Roșia Poieni copper mine",
        "type": "Mine",
        "entity": "http://www.wikidata.org/entity/Q14457709",
        "country_qid": "Q218"
      }
    },
    {
      "type": "Feature",
      "geometry": {
        "type": "Point",
        "coordinates": [
          25.9415576,
          45.2355862
        ]
      },
      "properties": {
        "label": "Gura Slănic mine",
        "type": "Mine",
        "entity": "http://www.wikidata.org/entity/Q16982954",
        "country_qid": "Q218"
      }
    },
    {
      "type": "Feature",
      "geometry": {
        "type": "Point",
        "coordinates": [
          25.773639,
          45.141833
        ]
      },
      "properties": {
        "label": "Doftana salt mine",
        "type": "Mine",
        "entity": "http://www.wikidata.org/entity/Q51369610",
        "country_qid": "Q218"
      }
    },
    {
      "type": "Feature",
      "geometry": {
        "type": "Point",
        "coordinates": [
          22.52,
          46.07
        ]
      },
      "properties": {
        "label": "Săcărâmb mine",
        "type": "Mine",
        "entity": "http://www.wikidata.org/entity/Q7666820",
        "country_qid": "Q218"
      }
    },
    {
      "type": "Feature",
      "geometry": {
        "type": "Point",
        "coordinates": [
          22.9,
          45.87
        ]
      },
      "properties": {
        "label": "Certej Mine",
        "type": "Mine",
        "entity": "http://www.wikidata.org/entity/Q5065061",
        "country_qid": "Q218"
      }
    },
    {
      "type": "Feature",
      "geometry": {
        "type": "Point",
        "coordinates": [
          26.6032927,
          46.2875935
        ]
      },
      "properties": {
        "label": "Târgu Ocna mine",
        "type": "Mine",
        "entity": "http://www.wikidata.org/entity/Q28726305",
        "country_qid": "Q218"
      }
    }
  ]
}