{
  "type": "FeatureCollection",
  "features": [
    {
      "type": "Feature",
      "geometry": {
        "type": "Point",
        "coordinates": [
          27.611944444,
          -26.345277777
        ]
      },
      "properties": {
        "label": "Libanon",
        "type": "Mine",
        "entity": "http://www.wikidata.org/entity/Q31942845",
        "country_qid": "Q258"
      }
    },
    {
      "type": "Feature",
      "geometry": {
        "type": "Point",
        "coordinates": [
          27.889166666,
          -25.570833333
        ]
      },
      "properties": {
        "label": "U.C.A.R. Vanadium Mine",
        "type": "Mine",
        "entity": "http://www.wikidata.org/entity/Q32037115",
        "country_qid": "Q258"
      }
    },
    {
      "type": "Feature",
      "geometry": {
        "type": "Point",
        "coordinates": [
          27.687222222,
          -26.405555555
        ]
      },
      "properties": {
        "label": "Elsburg",
        "type": "Mine",
        "entity": "http://www.wikidata.org/entity/Q31913549",
        "country_qid": "Q258"
      }
    },
    {
      "type": "Feature",
      "geometry": {
        "type": "Point",
        "coordinates": [
          30.047777777,
          -22.297222222
        ]
      },
      "properties": {
        "label": "Maryland",
        "type": "Mine",
        "entity": "http://www.wikidata.org/entity/Q31950717",
        "country_qid": "Q258"
      }
    },
    {
      "type": "Feature",
      "geometry": {
        "type": "Point",
        "coordinates": [
          30.904722222,
          -25.884444444
        ]
      },
      "properties": {
        "label": "Montrose Mine",
        "type": "Mine",
        "entity": "http://www.wikidata.org/entity/Q31957394",
        "country_qid": "Q258"
      }
    },
    {
      "type": "Feature",
      "geometry": {
        "type": "Point",
        "coordinates": [
          27.639166666,
          -26.276388888
        ]
      },
      "properties": {
        "label": "Venterspost",
        "type": "Mine",
        "entity": "http://www.wikidata.org/entity/Q32039375",
        "country_qid": "Q258"
      }
    },
    {
      "type": "Feature",
      "geometry": {
        "type": "Point",
        "coordinates": [
          30.771388888,
          -25.557222222
        ]
      },
      "properties": {
        "label": "Kaapsehoop Asbesmyn",
        "type": "Mine",
        "entity": "http://www.wikidata.org/entity/Q31928640",
        "country_qid": "Q258"
      }
    },
    {
      "type": "Feature",
      "geometry": {
        "type": "Point",
        "coordinates": [
          30.099444444,
          -22.459166666
        ]
      },
      "properties": {
        "label": "Heuningfontein",
        "type": "Mine",
        "entity": "http://www.wikidata.org/entity/Q31919765",
        "country_qid": "Q258"
      }
    },
    {
      "type": "Feature",
      "geometry": {
        "type": "Point",
        "coordinates": [
          17.418055555,
          -29.528888888
        ]
      },
      "properties": {
        "label": "Nama Diamante",
        "type": "Mine",
        "entity": "http://www.wikidata.org/entity/Q31966946",
        "country_qid": "Q258"
      }
    },
    {
      "type": "Feature",
      "geometry": {
        "type": "Point",
        "coordinates": [
          26.705,
          -26.920277777
        ]
      },
      "properties": {
        "label": "Vaal Reefs",
        "type": "Mine",
        "entity": "http://www.wikidata.org/entity/Q32038101",
        "country_qid": "Q258"
      }
    },
    {
      "type": "Feature",
      "geometry": {
        "type": "Point",
        "coordinates": [
          30.803333333,
          -24.157222222
        ]
      },
      "properties": {
        "label": "Kusasa Mine",
        "type": "Mine",
        "entity": "http://www.wikidata.org/entity/Q31936506",
        "country_qid": "Q258"
      }
    },
    {
      "type": "Feature",
      "geometry": {
        "type": "Point",
        "coordinates": [
          28.013055555,
          -26.227222222
        ]
      },
      "properties": {
        "label": "Crown",
        "type": "Mine",
        "entity": "http://www.wikidata.org/entity/Q31908697",
        "country_qid": "Q258"
      }
    },
    {
      "type": "Feature",
      "geometry": {
        "type": "Point",
        "coordinates": [
          27.737777777,
          -26.254166666
        ]
      },
      "properties": {
        "label": "Panvlak",
        "type": "Mine",
        "entity": "http://www.wikidata.org/entity/Q31982875",
        "country_qid": "Q258"
      }
    },
    {
      "type": "Feature",
      "geometry": {
        "type": "Point",
        "coordinates": [
          28.525555555,
          -26.258888888
        ]
      },
      "properties": {
        "label": "Grootvlei",
        "type": "Mine",
        "entity": "http://www.wikidata.org/entity/Q31918649",
        "country_qid": "Q258"
      }
    },
    {
      "type": "Feature",
      "geometry": {
        "type": "Point",
        "coordinates": [
          26.920833333,
          -25.332222222
        ]
      },
      "properties": {
        "label": "Plandsberg",
        "type": "Mine",
        "entity": "http://www.wikidata.org/entity/Q31996228",
        "country_qid": "Q258"
      }
    },
    {
      "type": "Feature",
      "geometry": {
        "type": "Point",
        "coordinates": [
          17.754444444,
          -29.59
        ]
      },
      "properties": {
        "label": "Nababeep Wes Myn",
        "type": "Mine",
        "entity": "http://www.wikidata.org/entity/Q31965997",
        "country_qid": "Q258"
      }
    },
    {
      "type": "Feature",
      "geometry": {
        "type": "Point",
        "coordinates": [
          23.424722222,
          -28.259444444
        ]
      },
      "properties": {
        "label": "Danielskuil Asbesmyn",
        "type": "Mine",
        "entity": "http://www.wikidata.org/entity/Q31909772",
        "country_qid": "Q258"
      }
    },
    {
      "type": "Feature",
      "geometry": {
        "type": "Point",
        "coordinates": [
          31.373888888,
          -25.6425
        ]
      },
      "properties": {
        "label": "Sisters Mine",
        "type": "Mine",
        "entity": "http://www.wikidata.org/entity/Q32020911",
        "country_qid": "Q258"
      }
    },
    {
      "type": "Feature",
      "geometry": {
        "type": "Point",
        "coordinates": [
          21.316944444,
          -31.206944444
        ]
      },
      "properties": {
        "label": "Silwerputs",
        "type": "Mine",
        "entity": "http://www.wikidata.org/entity/Q32020429",
        "country_qid": "Q258"
      }
    },
    {
      "type": "Feature",
      "geometry": {
        "type": "Point",
        "coordinates": [
          28.526388888,
          -26.336111111
        ]
      },
      "properties": {
        "label": "Marievale",
        "type": "Mine",
        "entity": "http://www.wikidata.org/entity/Q31950285",
        "country_qid": "Q258"
      }
    },
    {
      "type": "Feature",
      "geometry": {
        "type": "Point",
        "coordinates": [
          23.298611111,
          -28.510555555
        ]
      },
      "properties": {
        "label": "Peiserton Mine",
        "type": "Mine",
        "entity": "http://www.wikidata.org/entity/Q31985279",
        "country_qid": "Q258"
      }
    },
    {
      "type": "Feature",
      "geometry": {
        "type": "Point",
        "coordinates": [
          27.088055555,
          -26.868333333
        ]
      },
      "properties": {
        "label": "Haaskraal",
        "type": "Mine",
        "entity": "http://www.wikidata.org/entity/Q31919059",
        "country_qid": "Q258"
      }
    },
    {
      "type": "Feature",
      "geometry": {
        "type": "Point",
        "coordinates": [
          24.509166666,
          -28.204166666
        ]
      },
      "properties": {
        "label": "Sover",
        "type": "Mine",
        "entity": "http://www.wikidata.org/entity/Q32023414",
        "country_qid": "Q258"
      }
    },
    {
      "type": "Feature",
      "geometry": {
        "type": "Point",
        "coordinates": [
          24.799444444,
          -28.76
        ]
      },
      "properties": {
        "label": "Du Toitspan",
        "type": "Mine",
        "entity": "http://www.wikidata.org/entity/Q31912435",
        "country_qid": "Q258"
      }
    },
    {
      "type": "Feature",
      "geometry": {
        "type": "Point",
        "coordinates": [
          25.559444444,
          -28.4925
        ]
      },
      "properties": {
        "label": "Rovic Diamonds",
        "type": "Mine",
        "entity": "http://www.wikidata.org/entity/Q32010413",
        "country_qid": "Q258"
      }
    },
    {
      "type": "Feature",
      "geometry": {
        "type": "Point",
        "coordinates": [
          23.078611111,
          -27.193055555
        ]
      },
      "properties": {
        "label": "Coretsi Wes",
        "type": "Mine",
        "entity": "http://www.wikidata.org/entity/Q31908467",
        "country_qid": "Q258"
      }
    },
    {
      "type": "Feature",
      "geometry": {
        "type": "Point",
        "coordinates": [
          26.783888888,
          -26.961111111
        ]
      },
      "properties": {
        "label": "Vaal Reefs South",
        "type": "Mine",
        "entity": "http://www.wikidata.org/entity/Q32038116",
        "country_qid": "Q258"
      }
    },
    {
      "type": "Feature",
      "geometry": {
        "type": "Point",
        "coordinates": [
          22.997222222,
          -27.230833333
        ]
      },
      "properties": {
        "label": "Devon",
        "type": "Mine",
        "entity": "http://www.wikidata.org/entity/Q31910489",
        "country_qid": "Q258"
      }
    },
    {
      "type": "Feature",
      "geometry": {
        "type": "Point",
        "coordinates": [
          20.040555555,
          -28.14
        ]
      },
      "properties": {
        "label": "Fincham Gypsum Mine",
        "type": "Mine",
        "entity": "http://www.wikidata.org/entity/Q31916185",
        "country_qid": "Q258"
      }
    },
    {
      "type": "Feature",
      "geometry": {
        "type": "Point",
        "coordinates": [
          27.961666666,
          -24.636111111
        ]
      },
      "properties": {
        "label": "Rhenosterkloof",
        "type": "Mine",
        "entity": "http://www.wikidata.org/entity/Q32007337",
        "country_qid": "Q258"
      }
    },
    {
      "type": "Feature",
      "geometry": {
        "type": "Point",
        "coordinates": [
          24.792222222,
          -28.767222222
        ]
      },
      "properties": {
        "label": "Bultfontein",
        "type": "Mine",
        "entity": "http://www.wikidata.org/entity/Q31885591",
        "country_qid": "Q258"
      }
    },
    {
      "type": "Feature",
      "geometry": {
        "type": "Point",
        "coordinates": [
          27.599722222,
          -26.405833333
        ]
      },
      "properties": {
        "label": "Kloof",
        "type": "Mine",
        "entity": "http://www.wikidata.org/entity/Q31933572",
        "country_qid": "Q258"
      }
    },
    {
      "type": "Feature",
      "geometry": {
        "type": "Point",
        "coordinates": [
          29.064444444,
          -26.512222222
        ]
      },
      "properties": {
        "label": "Bracken Limited",
        "type": "Mine",
        "entity": "http://www.wikidata.org/entity/Q31883060",
        "country_qid": "Q258"
      }
    },
    {
      "type": "Feature",
      "geometry": {
        "type": "Point",
        "coordinates": [
          28.483055555,
          -26.296944444
        ]
      },
      "properties": {
        "label": "Daggafontein",
        "type": "Mine",
        "entity": "http://www.wikidata.org/entity/Q31909600",
        "country_qid": "Q258"
      }
    },
    {
      "type": "Feature",
      "geometry": {
        "type": "Point",
        "coordinates": [
          23.176666666,
          -27.328611111
        ]
      },
      "properties": {
        "label": "Riries",
        "type": "Mine",
        "entity": "http://www.wikidata.org/entity/Q32008022",
        "country_qid": "Q258"
      }
    },
    {
      "type": "Feature",
      "geometry": {
        "type": "Point",
        "coordinates": [
          16.565555555,
          -28.708611111
        ]
      },
      "properties": {
        "label": "Voltas Myn Gebied",
        "type": "Mine",
        "entity": "http://www.wikidata.org/entity/Q32040192",
        "country_qid": "Q258"
      }
    },
    {
      "type": "Feature",
      "geometry": {
        "type": "Point",
        "coordinates": [
          27.170833333,
          -24.935555555
        ]
      },
      "properties": {
        "label": "Rustenburg Platinum Mines",
        "type": "Mine",
        "entity": "http://www.wikidata.org/entity/Q32010972",
        "country_qid": "Q258"
      }
    },
    {
      "type": "Feature",
      "geometry": {
        "type": "Point",
        "coordinates": [
          17.43,
          -29.521666666
        ]
      },
      "properties": {
        "label": "Lang Hoogte",
        "type": "Mine",
        "entity": "http://www.wikidata.org/entity/Q31941942",
        "country_qid": "Q258"
      }
    },
    {
      "type": "Feature",
      "geometry": {
        "type": "Point",
        "coordinates": [
          27.594166666,
          -26.381666666
        ]
      },
      "properties": {
        "label": "Libanon",
        "type": "Mine",
        "entity": "http://www.wikidata.org/entity/Q31942847",
        "country_qid": "Q258"
      }
    },
    {
      "type": "Feature",
      "geometry": {
        "type": "Point",
        "coordinates": [
          29.276111111,
          -30.8025
        ]
      },
      "properties": {
        "label": "Insizwa Mine",
        "type": "Mine",
        "entity": "http://www.wikidata.org/entity/Q31923105",
        "country_qid": "Q258"
      }
    },
    {
      "type": "Feature",
      "geometry": {
        "type": "Point",
        "coordinates": [
          22.568888888,
          -29.630277777
        ]
      },
      "properties": {
        "label": "Glen Allen",
        "type": "Mine",
        "entity": "http://www.wikidata.org/entity/Q31917259",
        "country_qid": "Q258"
      }
    },
    {
      "type": "Feature",
      "geometry": {
        "type": "Point",
        "coordinates": [
          30.285833333,
          -24.378611111
        ]
      },
      "properties": {
        "label": "Penge",
        "type": "Mine",
        "entity": "http://www.wikidata.org/entity/Q31985382",
        "country_qid": "Q258"
      }
    },
    {
      "type": "Feature",
      "geometry": {
        "type": "Point",
        "coordinates": [
          22.9325,
          -27.2625
        ]
      },
      "properties": {
        "label": "Devon",
        "type": "Mine",
        "entity": "http://www.wikidata.org/entity/Q31910494",
        "country_qid": "Q258"
      }
    },
    {
      "type": "Feature",
      "geometry": {
        "type": "Point",
        "coordinates": [
          25.491944444,
          -28.508888888
        ]
      },
      "properties": {
        "label": "New Elands Limited",
        "type": "Mine",
        "entity": "http://www.wikidata.org/entity/Q31969432",
        "country_qid": "Q258"
      }
    },
    {
      "type": "Feature",
      "geometry": {
        "type": "Point",
        "coordinates": [
          24.508333333,
          -28.248611111
        ]
      },
      "properties": {
        "label": "Smith's",
        "type": "Mine",
        "entity": "http://www.wikidata.org/entity/Q32022131",
        "country_qid": "Q258"
      }
    },
    {
      "type": "Feature",
      "geometry": {
        "type": "Point",
        "coordinates": [
          28.461388888,
          -26.412777777
        ]
      },
      "properties": {
        "label": "Nigel",
        "type": "Mine",
        "entity": "http://www.wikidata.org/entity/Q31970801",
        "country_qid": "Q258"
      }
    },
    {
      "type": "Feature",
      "geometry": {
        "type": "Point",
        "coordinates": [
          17.953611111,
          -29.640833333
        ]
      },
      "properties": {
        "label": "Simon van der Stel se Kopermyn",
        "type": "Mine",
        "entity": "http://www.wikidata.org/entity/Q32020557",
        "country_qid": "Q258"
      }
    },
    {
      "type": "Feature",
      "geometry": {
        "type": "Point",
        "coordinates": [
          26.747222222,
          -26.866944444
        ]
      },
      "properties": {
        "label": "Hartebeestfontein",
        "type": "Mine",
        "entity": "http://www.wikidata.org/entity/Q31919487",
        "country_qid": "Q258"
      }
    },
    {
      "type": "Feature",
      "geometry": {
        "type": "Point",
        "coordinates": [
          24.653333333,
          -28.368888888
        ]
      },
      "properties": {
        "label": "Leicester Diamond",
        "type": "Mine",
        "entity": "http://www.wikidata.org/entity/Q31942599",
        "country_qid": "Q258"
      }
    },
    {
      "type": "Feature",
      "geometry": {
        "type": "Point",
        "coordinates": [
          30.641388888,
          -23.966666666
        ]
      },
      "properties": {
        "label": "The Cobra",
        "type": "Mine",
        "entity": "http://www.wikidata.org/entity/Q32028403",
        "country_qid": "Q258"
      }
    },
    {
      "type": "Feature",
      "geometry": {
        "type": "Point",
        "coordinates": [
          17.796666666,
          -29.564444444
        ]
      },
      "properties": {
        "label": "Tungsten Oos",
        "type": "Mine",
        "entity": "http://www.wikidata.org/entity/Q32036444",
        "country_qid": "Q258"
      }
    },
    {
      "type": "Feature",
      "geometry": {
        "type": "Point",
        "coordinates": [
          23.145555555,
          -27.265833333
        ]
      },
      "properties": {
        "label": "Mount Vera",
        "type": "Mine",
        "entity": "http://www.wikidata.org/entity/Q31958999",
        "country_qid": "Q258"
      }
    },
    {
      "type": "Feature",
      "geometry": {
        "type": "Point",
        "coordinates": [
          27.405,
          -25.703333333
        ]
      },
      "properties": {
        "label": "Rustenburg Platinum",
        "type": "Mine",
        "entity": "http://www.wikidata.org/entity/Q32010967",
        "country_qid": "Q258"
      }
    },
    {
      "type": "Feature",
      "geometry": {
        "type": "Point",
        "coordinates": [
          27.984722222,
          -26.228611111
        ]
      },
      "properties": {
        "label": "Crown Mines",
        "type": "Mine",
        "entity": "http://www.wikidata.org/entity/Q31908708",
        "country_qid": "Q258"
      }
    },
    {
      "type": "Feature",
      "geometry": {
        "type": "Point",
        "coordinates": [
          23.095,
          -28.318611111
        ]
      },
      "properties": {
        "label": "Postma Mine",
        "type": "Mine",
        "entity": "http://www.wikidata.org/entity/Q31999380",
        "country_qid": "Q258"
      }
    },
    {
      "type": "Feature",
      "geometry": {
        "type": "Point",
        "coordinates": [
          26.763333333,
          -26.935
        ]
      },
      "properties": {
        "label": "Vaal Reefs North",
        "type": "Mine",
        "entity": "http://www.wikidata.org/entity/Q32038112",
        "country_qid": "Q258"
      }
    },
    {
      "type": "Feature",
      "geometry": {
        "type": "Point",
        "coordinates": [
          17.726944444,
          -28.983055555
        ]
      },
      "properties": {
        "label": "Blesberg",
        "type": "Mine",
        "entity": "http://www.wikidata.org/entity/Q31881015",
        "country_qid": "Q258"
      }
    },
    {
      "type": "Feature",
      "geometry": {
        "type": "Point",
        "coordinates": [
          17.586388888,
          -29.658333333
        ]
      },
      "properties": {
        "label": "Spektakel Myn",
        "type": "Mine",
        "entity": "http://www.wikidata.org/entity/Q32023438",
        "country_qid": "Q258"
      }
    },
    {
      "type": "Feature",
      "geometry": {
        "type": "Point",
        "coordinates": [
          27.382777777,
          -25.729722222
        ]
      },
      "properties": {
        "label": "Rustenburg Chrome Mine",
        "type": "Mine",
        "entity": "http://www.wikidata.org/entity/Q32010960",
        "country_qid": "Q258"
      }
    },
    {
      "type": "Feature",
      "geometry": {
        "type": "Point",
        "coordinates": [
          17.777777777,
          -29.55
        ]
      },
      "properties": {
        "label": "Vlakmyn",
        "type": "Mine",
        "entity": "http://www.wikidata.org/entity/Q32039877",
        "country_qid": "Q258"
      }
    },
    {
      "type": "Feature",
      "geometry": {
        "type": "Point",
        "coordinates": [
          26.674166666,
          -26.951111111
        ]
      },
      "properties": {
        "label": "Vaal Reefs",
        "type": "Mine",
        "entity": "http://www.wikidata.org/entity/Q32038108",
        "country_qid": "Q258"
      }
    },
    {
      "type": "Feature",
      "geometry": {
        "type": "Point",
        "coordinates": [
          29.453333333,
          -26.080833333
        ]
      },
      "properties": {
        "label": "Koornfontein",
        "type": "Mine",
        "entity": "http://www.wikidata.org/entity/Q31934669",
        "country_qid": "Q258"
      }
    },
    {
      "type": "Feature",
      "geometry": {
        "type": "Point",
        "coordinates": [
          31.467777777,
          -25.5575
        ]
      },
      "properties": {
        "label": "Senekal Mine",
        "type": "Mine",
        "entity": "http://www.wikidata.org/entity/Q32016999",
        "country_qid": "Q258"
      }
    },
    {
      "type": "Feature",
      "geometry": {
        "type": "Point",
        "coordinates": [
          30.5975,
          -25.011111111
        ]
      },
      "properties": {
        "label": "Golden Hill Mine",
        "type": "Mine",
        "entity": "http://www.wikidata.org/entity/Q31917430",
        "country_qid": "Q258"
      }
    },
    {
      "type": "Feature",
      "geometry": {
        "type": "Point",
        "coordinates": [
          26.77,
          -28.026111111
        ]
      },
      "properties": {
        "label": "President Brand",
        "type": "Mine",
        "entity": "http://www.wikidata.org/entity/Q31999588",
        "country_qid": "Q258"
      }
    },
    {
      "type": "Feature",
      "geometry": {
        "type": "Point",
        "coordinates": [
          29.982777777,
          -22.375277777
        ]
      },
      "properties": {
        "label": "Campbell Mine",
        "type": "Mine",
        "entity": "http://www.wikidata.org/entity/Q31888263",
        "country_qid": "Q258"
      }
    },
    {
      "type": "Feature",
      "geometry": {
        "type": "Point",
        "coordinates": [
          30.945,
          -25.871666666
        ]
      },
      "properties": {
        "label": "Maid Of The Mountain",
        "type": "Mine",
        "entity": "http://www.wikidata.org/entity/Q31947399",
        "country_qid": "Q258"
      }
    },
    {
      "type": "Feature",
      "geometry": {
        "type": "Point",
        "coordinates": [
          27.634166666,
          -26.303888888
        ]
      },
      "properties": {
        "label": "Venterspost",
        "type": "Mine",
        "entity": "http://www.wikidata.org/entity/Q32039379",
        "country_qid": "Q258"
      }
    },
    {
      "type": "Feature",
      "geometry": {
        "type": "Point",
        "coordinates": [
          28.7725,
          -24.064722222
        ]
      },
      "properties": {
        "label": "Groenfontein Mine",
        "type": "Mine",
        "entity": "http://www.wikidata.org/entity/Q31918068",
        "country_qid": "Q258"
      }
    },
    {
      "type": "Feature",
      "geometry": {
        "type": "Point",
        "coordinates": [
          29.025277777,
          -26.503611111
        ]
      },
      "properties": {
        "label": "Leslie",
        "type": "Mine",
        "entity": "http://www.wikidata.org/entity/Q31942744",
        "country_qid": "Q258"
      }
    },
    {
      "type": "Feature",
      "geometry": {
        "type": "Point",
        "coordinates": [
          17.808611111,
          -29.574722222
        ]
      },
      "properties": {
        "label": "Valentine",
        "type": "Mine",
        "entity": "http://www.wikidata.org/entity/Q32038894",
        "country_qid": "Q258"
      }
    },
    {
      "type": "Feature",
      "geometry": {
        "type": "Point",
        "coordinates": [
          17.763333333,
          -29.523888888
        ]
      },
      "properties": {
        "label": "Jan Coetzee Myn",
        "type": "Mine",
        "entity": "http://www.wikidata.org/entity/Q31928323",
        "country_qid": "Q258"
      }
    },
    {
      "type": "Feature",
      "geometry": {
        "type": "Point",
        "coordinates": [
          30.745555555,
          -25.915
        ]
      },
      "properties": {
        "label": "Stoltzburg Mine",
        "type": "Mine",
        "entity": "http://www.wikidata.org/entity/Q32024687",
        "country_qid": "Q258"
      }
    },
    {
      "type": "Feature",
      "geometry": {
        "type": "Point",
        "coordinates": [
          27.162777777,
          -23.868333333
        ]
      },
      "properties": {
        "label": "Glenover",
        "type": "Mine",
        "entity": "http://www.wikidata.org/entity/Q31917297",
        "country_qid": "Q258"
      }
    },
    {
      "type": "Feature",
      "geometry": {
        "type": "Point",
        "coordinates": [
          23.085833333,
          -27.184444444
        ]
      },
      "properties": {
        "label": "Coretsi",
        "type": "Mine",
        "entity": "http://www.wikidata.org/entity/Q31908463",
        "country_qid": "Q258"
      }
    },
    {
      "type": "Feature",
      "geometry": {
        "type": "Point",
        "coordinates": [
          28.349722222,
          -25.2
        ]
      },
      "properties": {
        "label": "Kalkheuwel",
        "type": "Mine",
        "entity": "http://www.wikidata.org/entity/Q31929287",
        "country_qid": "Q258"
      }
    },
    {
      "type": "Feature",
      "geometry": {
        "type": "Point",
        "coordinates": [
          17.914166666,
          -28.846111111
        ]
      },
      "properties": {
        "label": "Noubestaan",
        "type": "Mine",
        "entity": "http://www.wikidata.org/entity/Q31972318",
        "country_qid": "Q258"
      }
    },
    {
      "type": "Feature",
      "geometry": {
        "type": "Point",
        "coordinates": [
          28.905833333,
          -23.983055555
        ]
      },
      "properties": {
        "label": "Northern Prospecting Platinum Mine",
        "type": "Mine",
        "entity": "http://www.wikidata.org/entity/Q31972236",
        "country_qid": "Q258"
      }
    },
    {
      "type": "Feature",
      "geometry": {
        "type": "Point",
        "coordinates": [
          27.890555555,
          -26.198055555
        ]
      },
      "properties": {
        "label": "Rand Leases",
        "type": "Mine",
        "entity": "http://www.wikidata.org/entity/Q32006187",
        "country_qid": "Q258"
      }
    },
    {
      "type": "Feature",
      "geometry": {
        "type": "Point",
        "coordinates": [
          28.541666666,
          -26.286944444
        ]
      },
      "properties": {
        "label": "East Daggafontein",
        "type": "Mine",
        "entity": "http://www.wikidata.org/entity/Q31912933",
        "country_qid": "Q258"
      }
    },
    {
      "type": "Feature",
      "geometry": {
        "type": "Point",
        "coordinates": [
          27.618888888,
          -26.380555555
        ]
      },
      "properties": {
        "label": "Kloof",
        "type": "Mine",
        "entity": "http://www.wikidata.org/entity/Q31933566",
        "country_qid": "Q258"
      }
    },
    {
      "type": "Feature",
      "geometry": {
        "type": "Point",
        "coordinates": [
          23.275555555,
          -28.237222222
        ]
      },
      "properties": {
        "label": "Groenwater Asbesmyn",
        "type": "Mine",
        "entity": "http://www.wikidata.org/entity/Q31918109",
        "country_qid": "Q258"
      }
    },
    {
      "type": "Feature",
      "geometry": {
        "type": "Point",
        "coordinates": [
          27.906944444,
          -26.898611111
        ]
      },
      "properties": {
        "label": "Coalbrook Collieries",
        "type": "Mine",
        "entity": "http://www.wikidata.org/entity/Q31907949",
        "country_qid": "Q258"
      }
    },
    {
      "type": "Feature",
      "geometry": {
        "type": "Point",
        "coordinates": [
          31.133055555,
          -25.713888888
        ]
      },
      "properties": {
        "label": "Sheba Mine",
        "type": "Mine",
        "entity": "http://www.wikidata.org/entity/Q32018266",
        "country_qid": "Q258"
      }
    },
    {
      "type": "Feature",
      "geometry": {
        "type": "Point",
        "coordinates": [
          27.817777777,
          -24.793055555
        ]
      },
      "properties": {
        "label": "Nieupoort",
        "type": "Mine",
        "entity": "http://www.wikidata.org/entity/Q31970785",
        "country_qid": "Q258"
      }
    },
    {
      "type": "Feature",
      "geometry": {
        "type": "Point",
        "coordinates": [
          27.917222222,
          -26.930277777
        ]
      },
      "properties": {
        "label": "Clydesdale",
        "type": "Mine",
        "entity": "http://www.wikidata.org/entity/Q31907902",
        "country_qid": "Q258"
      }
    },
    {
      "type": "Feature",
      "geometry": {
        "type": "Point",
        "coordinates": [
          26.731388888,
          -26.889444444
        ]
      },
      "properties": {
        "label": "Hartebeestfontein",
        "type": "Mine",
        "entity": "http://www.wikidata.org/entity/Q31919489",
        "country_qid": "Q258"
      }
    },
    {
      "type": "Feature",
      "geometry": {
        "type": "Point",
        "coordinates": [
          31.047777777,
          -25.803333333
        ]
      },
      "properties": {
        "label": "Fortuna",
        "type": "Mine",
        "entity": "http://www.wikidata.org/entity/Q31916367",
        "country_qid": "Q258"
      }
    },
    {
      "type": "Feature",
      "geometry": {
        "type": "Point",
        "coordinates": [
          28.447222222,
          -26.189166666
        ]
      },
      "properties": {
        "label": "Modderfontein East",
        "type": "Mine",
        "entity": "http://www.wikidata.org/entity/Q31956369",
        "country_qid": "Q258"
      }
    },
    {
      "type": "Feature",
      "geometry": {
        "type": "Point",
        "coordinates": [
          30.848611111,
          -24.14
        ]
      },
      "properties": {
        "label": "Union Mica Mine",
        "type": "Mine",
        "entity": "http://www.wikidata.org/entity/Q32037742",
        "country_qid": "Q258"
      }
    },
    {
      "type": "Feature",
      "geometry": {
        "type": "Point",
        "coordinates": [
          22.987777777,
          -27.381388888
        ]
      },
      "properties": {
        "label": "Mamatwan",
        "type": "Mine",
        "entity": "http://www.wikidata.org/entity/Q31948507",
        "country_qid": "Q258"
      }
    },
    {
      "type": "Feature",
      "geometry": {
        "type": "Point",
        "coordinates": [
          27.833333333,
          -24.880277777
        ]
      },
      "properties": {
        "label": "Mountain Minerals",
        "type": "Mine",
        "entity": "http://www.wikidata.org/entity/Q31959020",
        "country_qid": "Q258"
      }
    },
    {
      "type": "Feature",
      "geometry": {
        "type": "Point",
        "coordinates": [
          27.582777777,
          -25.721111111
        ]
      },
      "properties": {
        "label": "Elandskraal",
        "type": "Mine",
        "entity": "http://www.wikidata.org/entity/Q31913449",
        "country_qid": "Q258"
      }
    },
    {
      "type": "Feature",
      "geometry": {
        "type": "Point",
        "coordinates": [
          26.788055555,
          -27.992777777
        ]
      },
      "properties": {
        "label": "President Steyn",
        "type": "Mine",
        "entity": "http://www.wikidata.org/entity/Q31999599",
        "country_qid": "Q258"
      }
    },
    {
      "type": "Feature",
      "geometry": {
        "type": "Point",
        "coordinates": [
          31.078055555,
          -25.738333333
        ]
      },
      "properties": {
        "label": "Fairview Mine",
        "type": "Mine",
        "entity": "http://www.wikidata.org/entity/Q31915106",
        "country_qid": "Q258"
      }
    },
    {
      "type": "Feature",
      "geometry": {
        "type": "Point",
        "coordinates": [
          30.0925,
          -22.358055555
        ]
      },
      "properties": {
        "label": "Sandrivier",
        "type": "Mine",
        "entity": "http://www.wikidata.org/entity/Q32015660",
        "country_qid": "Q258"
      }
    },
    {
      "type": "Feature",
      "geometry": {
        "type": "Point",
        "coordinates": [
          24.495833333,
          -28.218888888
        ]
      },
      "properties": {
        "label": "Excelsior",
        "type": "Mine",
        "entity": "http://www.wikidata.org/entity/Q31915033",
        "country_qid": "Q258"
      }
    },
    {
      "type": "Feature",
      "geometry": {
        "type": "Point",
        "coordinates": [
          23.026666666,
          -28.322222222
        ]
      },
      "properties": {
        "label": "Springbok Mine",
        "type": "Mine",
        "entity": "http://www.wikidata.org/entity/Q32023887",
        "country_qid": "Q258"
      }
    },
    {
      "type": "Feature",
      "geometry": {
        "type": "Point",
        "coordinates": [
          30.623055555,
          -22.531388888
        ]
      },
      "properties": {
        "label": "Nyala",
        "type": "Mine",
        "entity": "http://www.wikidata.org/entity/Q31974052",
        "country_qid": "Q258"
      }
    },
    {
      "type": "Feature",
      "geometry": {
        "type": "Point",
        "coordinates": [
          29.147222222,
          -26.154166666
        ]
      },
      "properties": {
        "label": "South Witbank",
        "type": "Mine",
        "entity": "http://www.wikidata.org/entity/Q32023118",
        "country_qid": "Q258"
      }
    },
    {
      "type": "Feature",
      "geometry": {
        "type": "Point",
        "coordinates": [
          24.75,
          -28.716666666
        ]
      },
      "properties": {
        "label": "Bultfontein mine",
        "type": "Mine",
        "entity": "http://www.wikidata.org/entity/Q28710102",
        "country_qid": "Q258"
      }
    },
    {
      "type": "Feature",
      "geometry": {
        "type": "Point",
        "coordinates": [
          27.655833333,
          -27.137222222
        ]
      },
      "properties": {
        "label": "Bentoniet",
        "type": "Mine",
        "entity": "http://www.wikidata.org/entity/Q31879754",
        "country_qid": "Q258"
      }
    },
    {
      "type": "Feature",
      "geometry": {
        "type": "Point",
        "coordinates": [
          23.4575,
          -28.329166666
        ]
      },
      "properties": {
        "label": "Warrendale Mine",
        "type": "Mine",
        "entity": "http://www.wikidata.org/entity/Q32041262",
        "country_qid": "Q258"
      }
    },
    {
      "type": "Feature",
      "geometry": {
        "type": "Point",
        "coordinates": [
          27.203333333,
          -27.398055555
        ]
      },
      "properties": {
        "label": "Voorspoed Diamond Mine",
        "type": "Mine",
        "entity": "http://www.wikidata.org/entity/Q32040217",
        "country_qid": "Q258"
      }
    },
    {
      "type": "Feature",
      "geometry": {
        "type": "Point",
        "coordinates": [
          28.935555555,
          -25.958888888
        ]
      },
      "properties": {
        "label": "Klipfontein Koolmyn",
        "type": "Mine",
        "entity": "http://www.wikidata.org/entity/Q31933299",
        "country_qid": "Q258"
      }
    },
    {
      "type": "Feature",
      "geometry": {
        "type": "Point",
        "coordinates": [
          16.7769814,
          -28.4827244
        ]
      },
      "properties": {
        "label": "Baken diamond mine",
        "type": "Mine",
        "entity": "http://www.wikidata.org/entity/Q4849059",
        "country_qid": "Q258"
      }
    },
    {
      "type": "Feature",
      "geometry": {
        "type": "Point",
        "coordinates": [
          22.9724121,
          -27.2063964
        ]
      },
      "properties": {
        "label": "Hotazel mine",
        "type": "Mine",
        "entity": "http://www.wikidata.org/entity/Q21839548",
        "country_qid": "Q258"
      }
    },
    {
      "type": "Feature",
      "geometry": {
        "type": "Point",
        "coordinates": [
          22.966666666,
          -27.2
        ]
      },
      "properties": {
        "label": "Wessels mine",
        "type": "Mine",
        "entity": "http://www.wikidata.org/entity/Q16999453",
        "country_qid": "Q258"
      }
    },
    {
      "type": "Feature",
      "geometry": {
        "type": "Point",
        "coordinates": [
          26.7432117,
          -26.9799872
        ]
      },
      "properties": {
        "label": "Q3198843",
        "type": "Mine",
        "entity": "http://www.wikidata.org/entity/Q3198843",
        "country_qid": "Q258"
      }
    },
    {
      "type": "Feature",
      "geometry": {
        "type": "Point",
        "coordinates": [
          28.438611111,
          -26.508888888
        ]
      },
      "properties": {
        "label": "Witnigel",
        "type": "Mine",
        "entity": "http://www.wikidata.org/entity/Q32042950",
        "country_qid": "Q258"
      }
    },
    {
      "type": "Feature",
      "geometry": {
        "type": "Point",
        "coordinates": [
          29.176666666,
          -26.053055555
        ]
      },
      "properties": {
        "label": "Tweefontein United Collieries Number Two",
        "type": "Mine",
        "entity": "http://www.wikidata.org/entity/Q32036764",
        "country_qid": "Q258"
      }
    },
    {
      "type": "Feature",
      "geometry": {
        "type": "Point",
        "coordinates": [
          30.088055555,
          -28.181388888
        ]
      },
      "properties": {
        "label": "Burnside Colliery",
        "type": "Mine",
        "entity": "http://www.wikidata.org/entity/Q31886081",
        "country_qid": "Q258"
      }
    },
    {
      "type": "Feature",
      "geometry": {
        "type": "Point",
        "coordinates": [
          22.8380013,
          -27.1291952
        ]
      },
      "properties": {
        "label": "Nchwaning mines",
        "type": "Mine",
        "entity": "http://www.wikidata.org/entity/Q16963799",
        "country_qid": "Q258"
      }
    },
    {
      "type": "Feature",
      "geometry": {
        "type": "Point",
        "coordinates": [
          29.504444444,
          -23.966666666
        ]
      },
      "properties": {
        "label": "Witkop Silica Mine",
        "type": "Mine",
        "entity": "http://www.wikidata.org/entity/Q32042877",
        "country_qid": "Q258"
      }
    },
    {
      "type": "Feature",
      "geometry": {
        "type": "Point",
        "coordinates": [
          27.713611111,
          -26.364166666
        ]
      },
      "properties": {
        "label": "Western Areas",
        "type": "Mine",
        "entity": "http://www.wikidata.org/entity/Q32041944",
        "country_qid": "Q258"
      }
    },
    {
      "type": "Feature",
      "geometry": {
        "type": "Point",
        "coordinates": [
          28.182222222,
          -26.198888888
        ]
      },
      "properties": {
        "label": "Witwatersrand Mine",
        "type": "Mine",
        "entity": "http://www.wikidata.org/entity/Q32043153",
        "country_qid": "Q258"
      }
    },
    {
      "type": "Feature",
      "geometry": {
        "type": "Point",
        "coordinates": [
          30.084166666,
          -22.305833333
        ]
      },
      "properties": {
        "label": "Messina Mine",
        "type": "Mine",
        "entity": "http://www.wikidata.org/entity/Q109809876",
        "country_qid": "Q258"
      }
    },
    {
      "type": "Feature",
      "geometry": {
        "type": "Point",
        "coordinates": [
          25.4575,
          -28.556944444
        ]
      },
      "properties": {
        "label": "Blaauwbosch",
        "type": "Mine",
        "entity": "http://www.wikidata.org/entity/Q31880838",
        "country_qid": "Q258"
      }
    },
    {
      "type": "Feature",
      "geometry": {
        "type": "Point",
        "coordinates": [
          30.095833333,
          -22.304166666
        ]
      },
      "properties": {
        "label": "Artonvilla",
        "type": "Mine",
        "entity": "http://www.wikidata.org/entity/Q31872186",
        "country_qid": "Q258"
      }
    },
    {
      "type": "Feature",
      "geometry": {
        "type": "Point",
        "coordinates": [
          29.281111111,
          -26.135555555
        ]
      },
      "properties": {
        "label": "Albion Collieries",
        "type": "Mine",
        "entity": "http://www.wikidata.org/entity/Q31869878",
        "country_qid": "Q258"
      }
    },
    {
      "type": "Feature",
      "geometry": {
        "type": "Point",
        "coordinates": [
          26.8264,
          -26.8299
        ]
      },
      "properties": {
        "label": "Hartebeestfontein mine",
        "type": "Mine",
        "entity": "http://www.wikidata.org/entity/Q16975881",
        "country_qid": "Q258"
      }
    },
    {
      "type": "Feature",
      "geometry": {
        "type": "Point",
        "coordinates": [
          24.829166666,
          -28.7675
        ]
      },
      "properties": {
        "label": "Wesselton",
        "type": "Mine",
        "entity": "http://www.wikidata.org/entity/Q32041803",
        "country_qid": "Q258"
      }
    },
    {
      "type": "Feature",
      "geometry": {
        "type": "Point",
        "coordinates": [
          29.331944444,
          -26.087222222
        ]
      },
      "properties": {
        "label": "Springbok Collieries",
        "type": "Mine",
        "entity": "http://www.wikidata.org/entity/Q32023882",
        "country_qid": "Q258"
      }
    },
    {
      "type": "Feature",
      "geometry": {
        "type": "Point",
        "coordinates": [
          28.509722222,
          -26.795277777
        ]
      },
      "properties": {
        "label": "Springfield Collieries",
        "type": "Mine",
        "entity": "http://www.wikidata.org/entity/Q32023976",
        "country_qid": "Q258"
      }
    },
    {
      "type": "Feature",
      "geometry": {
        "type": "Point",
        "coordinates": [
          28.205555555,
          -26.2025
        ]
      },
      "properties": {
        "label": "Wit Deep Limited",
        "type": "Mine",
        "entity": "http://www.wikidata.org/entity/Q32042608",
        "country_qid": "Q258"
      }
    },
    {
      "type": "Feature",
      "geometry": {
        "type": "Point",
        "coordinates": [
          24.7811,
          -28.7589
        ]
      },
      "properties": {
        "label": "Du Toit's Pan",
        "type": "Mine",
        "entity": "http://www.wikidata.org/entity/Q5310079",
        "country_qid": "Q258"
      }
    },
    {
      "type": "Feature",
      "geometry": {
        "type": "Point",
        "coordinates": [
          22.975,
          -28.38333333
        ]
      },
      "properties": {
        "label": "Beeshoek mine",
        "type": "Mine",
        "entity": "http://www.wikidata.org/entity/Q16253981",
        "country_qid": "Q258"
      }
    },
    {
      "type": "Feature",
      "geometry": {
        "type": "Point",
        "coordinates": [
          25.0167,
          -29.4
        ]
      },
      "properties": {
        "label": "Koffiefontein mine",
        "type": "Mine",
        "entity": "http://www.wikidata.org/entity/Q6425688",
        "country_qid": "Q258"
      }
    },
    {
      "type": "Feature",
      "geometry": {
        "type": "Point",
        "coordinates": [
          26.515277777,
          -26.843888888
        ]
      },
      "properties": {
        "label": "Afrikander",
        "type": "Mine",
        "entity": "http://www.wikidata.org/entity/Q31866594",
        "country_qid": "Q258"
      }
    },
    {
      "type": "Feature",
      "geometry": {
        "type": "Point",
        "coordinates": [
          24.758888888,
          -28.738888888
        ]
      },
      "properties": {
        "label": "Big Hole",
        "type": "Mine",
        "entity": "http://www.wikidata.org/entity/Q19040",
        "country_qid": "Q258"
      }
    },
    {
      "type": "Feature",
      "geometry": {
        "type": "Point",
        "coordinates": [
          28.396944444,
          -26.534444444
        ]
      },
      "properties": {
        "label": "Wits Nigel",
        "type": "Mine",
        "entity": "http://www.wikidata.org/entity/Q32043061",
        "country_qid": "Q258"
      }
    },
    {
      "type": "Feature",
      "geometry": {
        "type": "Point",
        "coordinates": [
          18.902131,
          -34.127169
        ]
      },
      "properties": {
        "label": "Blue Rock Quarry",
        "type": "Mine",
        "entity": "http://www.wikidata.org/entity/Q14213708",
        "country_qid": "Q258"
      }
    },
    {
      "type": "Feature",
      "geometry": {
        "type": "Point",
        "coordinates": [
          22.9812527,
          -27.3765691
        ]
      },
      "properties": {
        "label": "Mamatwan mine",
        "type": "Mine",
        "entity": "http://www.wikidata.org/entity/Q16999492",
        "country_qid": "Q258"
      }
    },
    {
      "type": "Feature",
      "geometry": {
        "type": "Point",
        "coordinates": [
          29.888333333,
          -26.335277777
        ]
      },
      "properties": {
        "label": "Consolidated Collieries",
        "type": "Mine",
        "entity": "http://www.wikidata.org/entity/Q31908356",
        "country_qid": "Q258"
      }
    },
    {
      "type": "Feature",
      "geometry": {
        "type": "Point",
        "coordinates": [
          24.566944444,
          -28.490833333
        ]
      },
      "properties": {
        "label": "Barkly Diamond Holdings",
        "type": "Mine",
        "entity": "http://www.wikidata.org/entity/Q31878204",
        "country_qid": "Q258"
      }
    },
    {
      "type": "Feature",
      "geometry": {
        "type": "Point",
        "coordinates": [
          29.193888888,
          -26.14
        ]
      },
      "properties": {
        "label": "Tavistock Colliery",
        "type": "Mine",
        "entity": "http://www.wikidata.org/entity/Q32027641",
        "country_qid": "Q258"
      }
    },
    {
      "type": "Feature",
      "geometry": {
        "type": "Point",
        "coordinates": [
          29.126666666,
          -26.508333333
        ]
      },
      "properties": {
        "label": "Winkelhaak",
        "type": "Mine",
        "entity": "http://www.wikidata.org/entity/Q32042528",
        "country_qid": "Q258"
      }
    },
    {
      "type": "Feature",
      "geometry": {
        "type": "Point",
        "coordinates": [
          29.166111111,
          -26.033611111
        ]
      },
      "properties": {
        "label": "Tweefontein United Collieries Number One",
        "type": "Mine",
        "entity": "http://www.wikidata.org/entity/Q32036758",
        "country_qid": "Q258"
      }
    },
    {
      "type": "Feature",
      "geometry": {
        "type": "Point",
        "coordinates": [
          24.389722222,
          -28.086666666
        ]
      },
      "properties": {
        "label": "Bellshank Diamond Mines",
        "type": "Mine",
        "entity": "http://www.wikidata.org/entity/Q31879563",
        "country_qid": "Q258"
      }
    },
    {
      "type": "Feature",
      "geometry": {
        "type": "Point",
        "coordinates": [
          27.203611111,
          -25.533333333
        ]
      },
      "properties": {
        "label": "Bafokeng Platinum",
        "type": "Mine",
        "entity": "http://www.wikidata.org/entity/Q31874111",
        "country_qid": "Q258"
      }
    },
    {
      "type": "Feature",
      "geometry": {
        "type": "Point",
        "coordinates": [
          29.0801,
          -26.10241
        ]
      },
      "properties": {
        "label": "Goedgevonden mine",
        "type": "Mine",
        "entity": "http://www.wikidata.org/entity/Q16977269",
        "country_qid": "Q258"
      }
    },
    {
      "type": "Feature",
      "geometry": {
        "type": "Point",
        "coordinates": [
          22.8375,
          -27.127777777
        ]
      },
      "properties": {
        "label": "Black Rock mine",
        "type": "Mine",
        "entity": "http://www.wikidata.org/entity/Q16254905",
        "country_qid": "Q258"
      }
    },
    {
      "type": "Feature",
      "geometry": {
        "type": "Point",
        "coordinates": [
          22.854722222,
          -27.113888888
        ]
      },
      "properties": {
        "label": "Wessels",
        "type": "Mine",
        "entity": "http://www.wikidata.org/entity/Q32041784",
        "country_qid": "Q258"
      }
    },
    {
      "type": "Feature",
      "geometry": {
        "type": "Point",
        "coordinates": [
          23.5056782,
          -25.8088547
        ]
      },
      "properties": {
        "label": "Pomfret mine",
        "type": "Mine",
        "entity": "http://www.wikidata.org/entity/Q21834464",
        "country_qid": "Q258"
      }
    },
    {
      "type": "Feature",
      "geometry": {
        "type": "Point",
        "coordinates": [
          28.32,
          -26.1
        ]
      },
      "properties": {
        "label": "East Rand Gold Mine",
        "type": "Mine",
        "entity": "http://www.wikidata.org/entity/Q5329218",
        "country_qid": "Q258"
      }
    },
    {
      "type": "Feature",
      "geometry": {
        "type": "Point",
        "coordinates": [
          31.166666666,
          -25.683055555
        ]
      },
      "properties": {
        "label": "Bon Accord nickel deposit",
        "type": "Mine",
        "entity": "http://www.wikidata.org/entity/Q26701445",
        "country_qid": "Q258"
      }
    },
    {
      "type": "Feature",
      "geometry": {
        "type": "Point",
        "coordinates": [
          25.41888889,
          -29.76527778
        ]
      },
      "properties": {
        "label": "Jagersfontein Mine",
        "type": "Mine",
        "entity": "http://www.wikidata.org/entity/Q6122519",
        "country_qid": "Q258"
      }
    },
    {
      "type": "Feature",
      "geometry": {
        "type": "Point",
        "coordinates": [
          30.127222222,
          -28.151388888
        ]
      },
      "properties": {
        "label": "Northfield Colliery",
        "type": "Mine",
        "entity": "http://www.wikidata.org/entity/Q31972248",
        "country_qid": "Q258"
      }
    },
    {
      "type": "Feature",
      "geometry": {
        "type": "Point",
        "coordinates": [
          29.456388888,
          -25.966666666
        ]
      },
      "properties": {
        "label": "Bankfontein Colliery",
        "type": "Mine",
        "entity": "http://www.wikidata.org/entity/Q31876888",
        "country_qid": "Q258"
      }
    },
    {
      "type": "Feature",
      "geometry": {
        "type": "Point",
        "coordinates": [
          27.851944444,
          -26.164166666
        ]
      },
      "properties": {
        "label": "Wilford",
        "type": "Mine",
        "entity": "http://www.wikidata.org/entity/Q32042274",
        "country_qid": "Q258"
      }
    },
    {
      "type": "Feature",
      "geometry": {
        "type": "Point",
        "coordinates": [
          31.128602,
          -23.989703
        ]
      },
      "properties": {
        "label": "Q20971134",
        "type": "Mine",
        "entity": "http://www.wikidata.org/entity/Q20971134",
        "country_qid": "Q258"
      }
    },
    {
      "type": "Feature",
      "geometry": {
        "type": "Point",
        "coordinates": [
          27.666666666,
          -26.416666666
        ]
      },
      "properties": {
        "label": "South Deep uranium mine",
        "type": "Mine",
        "entity": "http://www.wikidata.org/entity/Q16968936",
        "country_qid": "Q258"
      }
    },
    {
      "type": "Feature",
      "geometry": {
        "type": "Point",
        "coordinates": [
          27.47715,
          -26.3743386
        ]
      },
      "properties": {
        "label": "Driefontein",
        "type": "Mine",
        "entity": "http://www.wikidata.org/entity/Q3039433",
        "country_qid": "Q258"
      }
    },
    {
      "type": "Feature",
      "geometry": {
        "type": "Point",
        "coordinates": [
          28.830833333,
          -26.266111111
        ]
      },
      "properties": {
        "label": "Delmas Colliery",
        "type": "Mine",
        "entity": "http://www.wikidata.org/entity/Q31910231",
        "country_qid": "Q258"
      }
    },
    {
      "type": "Feature",
      "geometry": {
        "type": "Point",
        "coordinates": [
          30.756944444,
          -25.0525
        ]
      },
      "properties": {
        "label": "Belgerick Mine",
        "type": "Mine",
        "entity": "http://www.wikidata.org/entity/Q31879490",
        "country_qid": "Q258"
      }
    },
    {
      "type": "Feature",
      "geometry": {
        "type": "Point",
        "coordinates": [
          29.925833333,
          -26.249444444
        ]
      },
      "properties": {
        "label": "Bankfontein Consolidated Collieries",
        "type": "Mine",
        "entity": "http://www.wikidata.org/entity/Q31876895",
        "country_qid": "Q258"
      }
    },
    {
      "type": "Feature",
      "geometry": {
        "type": "Point",
        "coordinates": [
          29.142777777,
          -26.098333333
        ]
      },
      "properties": {
        "label": "Witbank Consolidated Colliery",
        "type": "Mine",
        "entity": "http://www.wikidata.org/entity/Q32042656",
        "country_qid": "Q258"
      }
    },
    {
      "type": "Feature",
      "geometry": {
        "type": "Point",
        "coordinates": [
          27.47,
          -26.363611111
        ]
      },
      "properties": {
        "label": "Wes Driefontein",
        "type": "Mine",
        "entity": "http://www.wikidata.org/entity/Q32041770",
        "country_qid": "Q258"
      }
    },
    {
      "type": "Feature",
      "geometry": {
        "type": "Point",
        "coordinates": [
          27.606666666,
          -25.623055555
        ]
      },
      "properties": {
        "label": "Afplats mine",
        "type": "Mine",
        "entity": "http://www.wikidata.org/entity/Q16001999",
        "country_qid": "Q258"
      }
    },
    {
      "type": "Feature",
      "geometry": {
        "type": "Point",
        "coordinates": [
          30.10777778,
          -24.98527778
        ]
      },
      "properties": {
        "label": "Mototolo mine",
        "type": "Mine",
        "entity": "http://www.wikidata.org/entity/Q15256582",
        "country_qid": "Q258"
      }
    },
    {
      "type": "Feature",
      "geometry": {
        "type": "Point",
        "coordinates": [
          26.7804623,
          -26.9661418
        ]
      },
      "properties": {
        "label": "Q3342885",
        "type": "Mine",
        "entity": "http://www.wikidata.org/entity/Q3342885",
        "country_qid": "Q258"
      }
    },
    {
      "type": "Feature",
      "geometry": {
        "type": "Point",
        "coordinates": [
          23.0,
          -27.75
        ]
      },
      "properties": {
        "label": "Sishen mine",
        "type": "Mine",
        "entity": "http://www.wikidata.org/entity/Q17037544",
        "country_qid": "Q258"
      }
    },
    {
      "type": "Feature",
      "geometry": {
        "type": "Point",
        "coordinates": [
          27.306111111,
          -25.6875
        ]
      },
      "properties": {
        "label": "Bathopele mine",
        "type": "Mine",
        "entity": "http://www.wikidata.org/entity/Q16253537",
        "country_qid": "Q258"
      }
    },
    {
      "type": "Feature",
      "geometry": {
        "type": "Point",
        "coordinates": [
          28.474,
          -24.71329
        ]
      },
      "properties": {
        "label": "Merensky Reef",
        "type": "Mine",
        "entity": "http://www.wikidata.org/entity/Q1921596",
        "country_qid": "Q258"
      }
    },
    {
      "type": "Feature",
      "geometry": {
        "type": "Point",
        "coordinates": [
          30.071713,
          -24.502547
        ]
      },
      "properties": {
        "label": "Marula mine",
        "type": "Mine",
        "entity": "http://www.wikidata.org/entity/Q16999554",
        "country_qid": "Q258"
      }
    },
    {
      "type": "Feature",
      "geometry": {
        "type": "Point",
        "coordinates": [
          22.99555556,
          -33.88861111
        ]
      },
      "properties": {
        "label": "Millwood, South Africa",
        "type": "Mine",
        "entity": "http://www.wikidata.org/entity/Q6860145",
        "country_qid": "Q258"
      }
    },
    {
      "type": "Feature",
      "geometry": {
        "type": "Point",
        "coordinates": [
          27.66666667,
          -26.41666667
        ]
      },
      "properties": {
        "label": "South Deep mine",
        "type": "Mine",
        "entity": "http://www.wikidata.org/entity/Q15278674",
        "country_qid": "Q258"
      }
    },
    {
      "type": "Feature",
      "geometry": {
        "type": "Point",
        "coordinates": [
          23.0133533,
          -27.8553927
        ]
      },
      "properties": {
        "label": "Khumani mine",
        "type": "Mine",
        "entity": "http://www.wikidata.org/entity/Q16966851",
        "country_qid": "Q258"
      }
    },
    {
      "type": "Feature",
      "geometry": {
        "type": "Point",
        "coordinates": [
          18.6291,
          -30.9861
        ]
      },
      "properties": {
        "label": "Steenkampskraal mine",
        "type": "Mine",
        "entity": "http://www.wikidata.org/entity/Q17054179",
        "country_qid": "Q258"
      }
    },
    {
      "type": "Feature",
      "geometry": {
        "type": "Point",
        "coordinates": [
          28.53333333,
          -24.95
        ]
      },
      "properties": {
        "label": "Springbok Flats mine",
        "type": "Mine",
        "entity": "http://www.wikidata.org/entity/Q16971652",
        "country_qid": "Q258"
      }
    },
    {
      "type": "Feature",
      "geometry": {
        "type": "Point",
        "coordinates": [
          23.230277777,
          -27.301111111
        ]
      },
      "properties": {
        "label": "White Rock",
        "type": "Mine",
        "entity": "http://www.wikidata.org/entity/Q32042105",
        "country_qid": "Q258"
      }
    },
    {
      "type": "Feature",
      "geometry": {
        "type": "Point",
        "coordinates": [
          27.52888889,
          -23.67166667
        ]
      },
      "properties": {
        "label": "Grootegeluk Coal Mine",
        "type": "Mine",
        "entity": "http://www.wikidata.org/entity/Q15222177",
        "country_qid": "Q258"
      }
    },
    {
      "type": "Feature",
      "geometry": {
        "type": "Point",
        "coordinates": [
          23.4461,
          -28.3822
        ]
      },
      "properties": {
        "label": "Finsch diamond mine",
        "type": "Mine",
        "entity": "http://www.wikidata.org/entity/Q5450936",
        "country_qid": "Q258"
      }
    },
    {
      "type": "Feature",
      "geometry": {
        "type": "Point",
        "coordinates": [
          29.7742,
          -25.93
        ]
      },
      "properties": {
        "label": "Arnot coal mine",
        "type": "Mine",
        "entity": "http://www.wikidata.org/entity/Q16251786",
        "country_qid": "Q258"
      }
    },
    {
      "type": "Feature",
      "geometry": {
        "type": "Point",
        "coordinates": [
          30.1125,
          -22.381388888
        ]
      },
      "properties": {
        "label": "Baobab Minerals",
        "type": "Mine",
        "entity": "http://www.wikidata.org/entity/Q31877978",
        "country_qid": "Q258"
      }
    },
    {
      "type": "Feature",
      "geometry": {
        "type": "Point",
        "coordinates": [
          29.348888888,
          -26.165555555
        ]
      },
      "properties": {
        "label": "Transvaal Navigation Collieries",
        "type": "Mine",
        "entity": "http://www.wikidata.org/entity/Q32035308",
        "country_qid": "Q258"
      }
    },
    {
      "type": "Feature",
      "geometry": {
        "type": "Point",
        "coordinates": [
          23.0134,
          -27.8554
        ]
      },
      "properties": {
        "label": "Kopanang mine",
        "type": "Mine",
        "entity": "http://www.wikidata.org/entity/Q16967752",
        "country_qid": "Q258"
      }
    },
    {
      "type": "Feature",
      "geometry": {
        "type": "Point",
        "coordinates": [
          29.210833333,
          -26.064722222
        ]
      },
      "properties": {
        "label": "Phoenix Colliery",
        "type": "Mine",
        "entity": "http://www.wikidata.org/entity/Q31987010",
        "country_qid": "Q258"
      }
    },
    {
      "type": "Feature",
      "geometry": {
        "type": "Point",
        "coordinates": [
          23.263055555,
          -27.405
        ]
      },
      "properties": {
        "label": "Wandrag",
        "type": "Mine",
        "entity": "http://www.wikidata.org/entity/Q32041112",
        "country_qid": "Q258"
      }
    },
    {
      "type": "Feature",
      "geometry": {
        "type": "Point",
        "coordinates": [
          27.50277778,
          -26.41972222
        ]
      },
      "properties": {
        "label": "Driefontein mine",
        "type": "Mine",
        "entity": "http://www.wikidata.org/entity/Q16969104",
        "country_qid": "Q258"
      }
    },
    {
      "type": "Feature",
      "geometry": {
        "type": "Point",
        "coordinates": [
          27.3592,
          -26.4539
        ]
      },
      "properties": {
        "label": "Kusasalethu mine",
        "type": "Mine",
        "entity": "http://www.wikidata.org/entity/Q6447799",
        "country_qid": "Q258"
      }
    },
    {
      "type": "Feature",
      "geometry": {
        "type": "Point",
        "coordinates": [
          27.471388888,
          -25.671388888
        ]
      },
      "properties": {
        "label": "Karee mine",
        "type": "Mine",
        "entity": "http://www.wikidata.org/entity/Q106071269",
        "country_qid": "Q258"
      }
    },
    {
      "type": "Feature",
      "geometry": {
        "type": "Point",
        "coordinates": [
          26.850278,
          -26.913056
        ]
      },
      "properties": {
        "label": "Buffelsfontein mine",
        "type": "Mine",
        "entity": "http://www.wikidata.org/entity/Q16255761",
        "country_qid": "Q258"
      }
    },
    {
      "type": "Feature",
      "geometry": {
        "type": "Point",
        "coordinates": [
          27.40333333,
          -26.42166667
        ]
      },
      "properties": {
        "label": "TauTona Mine",
        "type": "Mine",
        "entity": "http://www.wikidata.org/entity/Q2140375",
        "country_qid": "Q258"
      }
    },
    {
      "type": "Feature",
      "geometry": {
        "type": "Point",
        "coordinates": [
          27.2,
          -27.4
        ]
      },
      "properties": {
        "label": "Voorspoed diamond mine",
        "type": "Mine",
        "entity": "http://www.wikidata.org/entity/Q16991479",
        "country_qid": "Q258"
      }
    },
    {
      "type": "Feature",
      "geometry": {
        "type": "Point",
        "coordinates": [
          29.3139,
          -22.4339
        ]
      },
      "properties": {
        "label": "Venetia Diamond Mine",
        "type": "Mine",
        "entity": "http://www.wikidata.org/entity/Q7919717",
        "country_qid": "Q258"
      }
    },
    {
      "type": "Feature",
      "geometry": {
        "type": "Point",
        "coordinates": [
          29.317777777,
          -26.139722222
        ]
      },
      "properties": {
        "label": "New Clydesdale Collieries",
        "type": "Mine",
        "entity": "http://www.wikidata.org/entity/Q31969427",
        "country_qid": "Q258"
      }
    },
    {
      "type": "Feature",
      "geometry": {
        "type": "Point",
        "coordinates": [
          29.391388888,
          -26.042777777
        ]
      },
      "properties": {
        "label": "Douglas Colliery",
        "type": "Mine",
        "entity": "http://www.wikidata.org/entity/Q31912009",
        "country_qid": "Q258"
      }
    },
    {
      "type": "Feature",
      "geometry": {
        "type": "Point",
        "coordinates": [
          29.68027778,
          -22.17305556
        ]
      },
      "properties": {
        "label": "Vele coal mine",
        "type": "Mine",
        "entity": "http://www.wikidata.org/entity/Q16968863",
        "country_qid": "Q258"
      }
    },
    {
      "type": "Feature",
      "geometry": {
        "type": "Point",
        "coordinates": [
          23.012777777,
          -28.291944444
        ]
      },
      "properties": {
        "label": "Beeshoek",
        "type": "Mine",
        "entity": "http://www.wikidata.org/entity/Q31879293",
        "country_qid": "Q258"
      }
    },
    {
      "type": "Feature",
      "geometry": {
        "type": "Point",
        "coordinates": [
          31.098055555,
          -25.763611111
        ]
      },
      "properties": {
        "label": "Alfstrom Gold Mine",
        "type": "Mine",
        "entity": "http://www.wikidata.org/entity/Q31870030",
        "country_qid": "Q258"
      }
    },
    {
      "type": "Feature",
      "geometry": {
        "type": "Point",
        "coordinates": [
          29.270883333,
          -24.121091666
        ]
      },
      "properties": {
        "label": "Eersteling Gold Mine",
        "type": "Mine",
        "entity": "http://www.wikidata.org/entity/Q107148404",
        "country_qid": "Q258"
      }
    },
    {
      "type": "Feature",
      "geometry": {
        "type": "Point",
        "coordinates": [
          26.737222222,
          -28.004166666
        ]
      },
      "properties": {
        "label": "President Brand Gold Mining Company",
        "type": "Mine",
        "entity": "http://www.wikidata.org/entity/Q31999593",
        "country_qid": "Q258"
      }
    },
    {
      "type": "Feature",
      "geometry": {
        "type": "Point",
        "coordinates": [
          27.792777777,
          -26.213055555
        ]
      },
      "properties": {
        "label": "South Roodepoort Main Reef Gold Mines",
        "type": "Mine",
        "entity": "http://www.wikidata.org/entity/Q32023097",
        "country_qid": "Q258"
      }
    },
    {
      "type": "Feature",
      "geometry": {
        "type": "Point",
        "coordinates": [
          26.709166666,
          -28.0175
        ]
      },
      "properties": {
        "label": "Saint Helena Gold Mining Limited",
        "type": "Mine",
        "entity": "http://www.wikidata.org/entity/Q32014645",
        "country_qid": "Q258"
      }
    },
    {
      "type": "Feature",
      "geometry": {
        "type": "Point",
        "coordinates": [
          27.433333333,
          -26.383333333
        ]
      },
      "properties": {
        "label": "West Driefontein",
        "type": "Mine",
        "entity": "http://www.wikidata.org/entity/Q3166678",
        "country_qid": "Q258"
      }
    },
    {
      "type": "Feature",
      "geometry": {
        "type": "Point",
        "coordinates": [
          27.4,
          -26.4
        ]
      },
      "properties": {
        "label": "Blyvooruitzicht",
        "type": "Mine",
        "entity": "http://www.wikidata.org/entity/Q2463927",
        "country_qid": "Q258"
      }
    },
    {
      "type": "Feature",
      "geometry": {
        "type": "Point",
        "coordinates": [
          28.134166666,
          -26.224166666
        ]
      },
      "properties": {
        "label": "Simmer and Jack Gold Mine",
        "type": "Mine",
        "entity": "http://www.wikidata.org/entity/Q32020552",
        "country_qid": "Q258"
      }
    },
    {
      "type": "Feature",
      "geometry": {
        "type": "Point",
        "coordinates": [
          26.852222222,
          -28.121388888
        ]
      },
      "properties": {
        "label": "Merriespruit Gold Mining Company",
        "type": "Mine",
        "entity": "http://www.wikidata.org/entity/Q31954054",
        "country_qid": "Q258"
      }
    },
    {
      "type": "Feature",
      "geometry": {
        "type": "Point",
        "coordinates": [
          29.911666666,
          -25.163888888
        ]
      },
      "properties": {
        "label": "Mapochs Iron Ore Mine",
        "type": "Mine",
        "entity": "http://www.wikidata.org/entity/Q31949749",
        "country_qid": "Q258"
      }
    },
    {
      "type": "Feature",
      "geometry": {
        "type": "Point",
        "coordinates": [
          30.12,
          -24.894444444
        ]
      },
      "properties": {
        "label": "Tweefontein Chrome Mine",
        "type": "Mine",
        "entity": "http://www.wikidata.org/entity/Q32036752",
        "country_qid": "Q258"
      }
    },
    {
      "type": "Feature",
      "geometry": {
        "type": "Point",
        "coordinates": [
          27.4306297,
          -26.4359932
        ]
      },
      "properties": {
        "label": "Mponeng",
        "type": "Mine",
        "entity": "http://www.wikidata.org/entity/Q3327134",
        "country_qid": "Q258"
      }
    },
    {
      "type": "Feature",
      "geometry": {
        "type": "Point",
        "coordinates": [
          30.152777777,
          -24.626944444
        ]
      },
      "properties": {
        "label": "Montrose Chrome Mine",
        "type": "Mine",
        "entity": "http://www.wikidata.org/entity/Q31957386",
        "country_qid": "Q258"
      }
    },
    {
      "type": "Feature",
      "geometry": {
        "type": "Point",
        "coordinates": [
          28.5125,
          -25.6725
        ]
      },
      "properties": {
        "label": "Premier Mine",
        "type": "Mine",
        "entity": "http://www.wikidata.org/entity/Q2576349",
        "country_qid": "Q258"
      }
    },
    {
      "type": "Feature",
      "geometry": {
        "type": "Point",
        "coordinates": [
          30.1225,
          -24.875833333
        ]
      },
      "properties": {
        "label": "Tweefontein",
        "type": "Mine",
        "entity": "http://www.wikidata.org/entity/Q32036749",
        "country_qid": "Q258"
      }
    },
    {
      "type": "Feature",
      "geometry": {
        "type": "Point",
        "coordinates": [
          26.851944444,
          -28.069166666
        ]
      },
      "properties": {
        "label": "Harmony Gold",
        "type": "Mine",
        "entity": "http://www.wikidata.org/entity/Q1507228",
        "country_qid": "Q258"
      }
    },
    {
      "type": "Feature",
      "geometry": {
        "type": "Point",
        "coordinates": [
          27.281666666,
          -24.785277777
        ]
      },
      "properties": {
        "label": "Zwartkop Chroom Myn",
        "type": "Mine",
        "entity": "http://www.wikidata.org/entity/Q32058891",
        "country_qid": "Q258"
      }
    },
    {
      "type": "Feature",
      "geometry": {
        "type": "Point",
        "coordinates": [
          31.073055555,
          -25.652222222
        ]
      },
      "properties": {
        "label": "Consort Gold Mine",
        "type": "Mine",
        "entity": "http://www.wikidata.org/entity/Q31908360",
        "country_qid": "Q258"
      }
    },
    {
      "type": "Feature",
      "geometry": {
        "type": "Point",
        "coordinates": [
          27.728611111,
          -26.153888888
        ]
      },
      "properties": {
        "label": "Radiontein Estates Gold Mines",
        "type": "Mine",
        "entity": "http://www.wikidata.org/entity/Q32005869",
        "country_qid": "Q258"
      }
    },
    {
      "type": "Feature",
      "geometry": {
        "type": "Point",
        "coordinates": [
          28.35,
          -26.216666666
        ]
      },
      "properties": {
        "label": "Modderfontein Gold Mine",
        "type": "Mine",
        "entity": "http://www.wikidata.org/entity/Q126717676",
        "country_qid": "Q258"
      }
    }
  ]
}