{
  "type": "FeatureCollection",
  "features": [
    {
      "type": "Feature",
      "geometry": {
        "type": "Point",
        "coordinates": [
          33.5036895,
          48.0822483
        ]
      },
      "properties": {
        "label": "Q12171319",
        "type": "Mine",
        "entity": "http://www.wikidata.org/entity/Q12171319",
        "country_qid": "Q15180"
      }
    },
    {
      "type": "Feature",
      "geometry": {
        "type": "Point",
        "coordinates": [
          67.633333333,
          44.333333333
        ]
      },
      "properties": {
        "label": "Kurumsak vanadium deposit",
        "type": "Mine",
        "entity": "http://www.wikidata.org/entity/Q28125552",
        "country_qid": "Q15180"
      }
    },
    {
      "type": "Feature",
      "geometry": {
        "type": "Point",
        "coordinates": [
          44.8463,
          41.0881
        ]
      },
      "properties": {
        "label": "Teghut copper-molybdenum deposit",
        "type": "Mine",
        "entity": "http://www.wikidata.org/entity/Q4456930",
        "country_qid": "Q15180"
      }
    },
    {
      "type": "Feature",
      "geometry": {
        "type": "Point",
        "coordinates": [
          72.5225,
          49.72583
        ]
      },
      "properties": {
        "label": "Lenin coal mine",
        "type": "Mine",
        "entity": "http://www.wikidata.org/entity/Q12551753",
        "country_qid": "Q15180"
      }
    },
    {
      "type": "Feature",
      "geometry": {
        "type": "Point",
        "coordinates": [
          73.11472,
          49.86028
        ]
      },
      "properties": {
        "label": "Kostenko coal mine",
        "type": "Mine",
        "entity": "http://www.wikidata.org/entity/Q4521397",
        "country_qid": "Q15180"
      }
    },
    {
      "type": "Feature",
      "geometry": {
        "type": "Point",
        "coordinates": [
          36.056111111,
          48.526944444
        ]
      },
      "properties": {
        "label": "Q4456051",
        "type": "Mine",
        "entity": "http://www.wikidata.org/entity/Q4456051",
        "country_qid": "Q15180"
      }
    },
    {
      "type": "Feature",
      "geometry": {
        "type": "Point",
        "coordinates": [
          67.416666666,
          44.533333333
        ]
      },
      "properties": {
        "label": "Balasauskandyk vanadium deposit",
        "type": "Mine",
        "entity": "http://www.wikidata.org/entity/Q28751057",
        "country_qid": "Q15180"
      }
    },
    {
      "type": "Feature",
      "geometry": {
        "type": "Point",
        "coordinates": [
          39.2525,
          48.144722222
        ]
      },
      "properties": {
        "label": "Q4521403",
        "type": "Mine",
        "entity": "http://www.wikidata.org/entity/Q4521403",
        "country_qid": "Q15180"
      }
    },
    {
      "type": "Feature",
      "geometry": {
        "type": "Point",
        "coordinates": [
          33.430555555,
          47.993333333
        ]
      },
      "properties": {
        "label": "Pokrovska Mine",
        "type": "Mine",
        "entity": "http://www.wikidata.org/entity/Q12171231",
        "country_qid": "Q15180"
      }
    },
    {
      "type": "Feature",
      "geometry": {
        "type": "Point",
        "coordinates": [
          141.861611111,
          46.436111111
        ]
      },
      "properties": {
        "label": "Shebunino coal mine",
        "type": "Mine",
        "entity": "http://www.wikidata.org/entity/Q120713329",
        "country_qid": "Q15180"
      }
    },
    {
      "type": "Feature",
      "geometry": {
        "type": "Point",
        "coordinates": [
          72.75833,
          49.68667
        ]
      },
      "properties": {
        "label": "Q12526188",
        "type": "Mine",
        "entity": "http://www.wikidata.org/entity/Q12526188",
        "country_qid": "Q15180"
      }
    },
    {
      "type": "Feature",
      "geometry": {
        "type": "Point",
        "coordinates": [
          30.287709,
          69.39531
        ]
      },
      "properties": {
        "label": "Kaula-Kotselvaara Mine",
        "type": "Mine",
        "entity": "http://www.wikidata.org/entity/Q116149926",
        "country_qid": "Q15180"
      }
    },
    {
      "type": "Feature",
      "geometry": {
        "type": "Point",
        "coordinates": [
          36.425,
          48.361944444
        ]
      },
      "properties": {
        "label": "Q12171294",
        "type": "Mine",
        "entity": "http://www.wikidata.org/entity/Q12171294",
        "country_qid": "Q15180"
      }
    },
    {
      "type": "Feature",
      "geometry": {
        "type": "Point",
        "coordinates": [
          57.642797,
          59.004901
        ]
      },
      "properties": {
        "label": "Q4399552",
        "type": "Mine",
        "entity": "http://www.wikidata.org/entity/Q4399552",
        "country_qid": "Q15180"
      }
    }
  ]
}