{
  "type": "FeatureCollection",
  "features": [
    {
      "type": "Feature",
      "geometry": {
        "type": "Point",
        "coordinates": [
          6.025638888,
          35.867805555
        ]
      },
      "properties": {
        "label": "Aïn Djasser Power Plant",
        "type": "Energy generation station",
        "entity": "http://www.wikidata.org/entity/Q56373306",
        "country_qid": "Q262"
      }
    },
    {
      "type": "Feature",
      "geometry": {
        "type": "Point",
        "coordinates": [
          -0.3317249,
          33.4686136
        ]
      },
      "properties": {
        "label": "Naâma gas turbine power plant",
        "type": "Energy generation station",
        "entity": "http://www.wikidata.org/entity/Q116187048",
        "country_qid": "Q262"
      }
    },
    {
      "type": "Feature",
      "geometry": {
        "type": "Point",
        "coordinates": [
          6.05025,
          31.788388888
        ]
      },
      "properties": {
        "label": "Hassi Messaoud Nord Power Plant",
        "type": "Energy generation station",
        "entity": "http://www.wikidata.org/entity/Q56373327",
        "country_qid": "Q262"
      }
    },
    {
      "type": "Feature",
      "geometry": {
        "type": "Point",
        "coordinates": [
          1.356194444,
          35.339611111
        ]
      },
      "properties": {
        "label": "Tiaret Power Plant",
        "type": "Energy generation station",
        "entity": "http://www.wikidata.org/entity/Q56373138",
        "country_qid": "Q262"
      }
    },
    {
      "type": "Feature",
      "geometry": {
        "type": "Point",
        "coordinates": [
          -0.194222222,
          35.799638888
        ]
      },
      "properties": {
        "label": "Marsat El Hadjadj Power Plant",
        "type": "Energy generation station",
        "entity": "http://www.wikidata.org/entity/Q56373133",
        "country_qid": "Q262"
      }
    },
    {
      "type": "Feature",
      "geometry": {
        "type": "Point",
        "coordinates": [
          5.996305555,
          31.805888888
        ]
      },
      "properties": {
        "label": "Hassi Messaoud North III Power Plant",
        "type": "Energy generation station",
        "entity": "http://www.wikidata.org/entity/Q56373328",
        "country_qid": "Q262"
      }
    },
    {
      "type": "Feature",
      "geometry": {
        "type": "Point",
        "coordinates": [
          7.763361111,
          36.892361111
        ]
      },
      "properties": {
        "label": "Annaba Power Plant",
        "type": "Energy generation station",
        "entity": "http://www.wikidata.org/entity/Q56373274",
        "country_qid": "Q262"
      }
    },
    {
      "type": "Feature",
      "geometry": {
        "type": "Point",
        "coordinates": [
          3.2525875,
          32.93607
        ]
      },
      "properties": {
        "label": "Hassi R'Mel Power Plant",
        "type": "Energy generation station",
        "entity": "http://www.wikidata.org/entity/Q116187036",
        "country_qid": "Q262"
      }
    },
    {
      "type": "Feature",
      "geometry": {
        "type": "Point",
        "coordinates": [
          9.788361111,
          28.641361111
        ]
      },
      "properties": {
        "label": "Alrar Power Plant",
        "type": "Energy generation station",
        "entity": "http://www.wikidata.org/entity/Q56373332",
        "country_qid": "Q262"
      }
    },
    {
      "type": "Feature",
      "geometry": {
        "type": "Point",
        "coordinates": [
          5.329083333,
          36.555222222
        ]
      },
      "properties": {
        "label": "Darguina Power Plant",
        "type": "Energy generation station",
        "entity": "http://www.wikidata.org/entity/Q56372900",
        "country_qid": "Q262"
      }
    },
    {
      "type": "Feature",
      "geometry": {
        "type": "Point",
        "coordinates": [
          -0.247611111,
          35.806388888
        ]
      },
      "properties": {
        "label": "Kahrama",
        "type": "Energy generation station",
        "entity": "http://www.wikidata.org/entity/Q56373134",
        "country_qid": "Q262"
      }
    },
    {
      "type": "Feature",
      "geometry": {
        "type": "Point",
        "coordinates": [
          7.361888888,
          35.766611111
        ]
      },
      "properties": {
        "label": "F'Kirina Power Plant",
        "type": "Energy generation station",
        "entity": "http://www.wikidata.org/entity/Q56373305",
        "country_qid": "Q262"
      }
    },
    {
      "type": "Feature",
      "geometry": {
        "type": "Point",
        "coordinates": [
          2.080027777,
          36.575277777
        ]
      },
      "properties": {
        "label": "Hadjret En Nouss Power Plant",
        "type": "Energy generation station",
        "entity": "http://www.wikidata.org/entity/Q56373140",
        "country_qid": "Q262"
      }
    },
    {
      "type": "Feature",
      "geometry": {
        "type": "Point",
        "coordinates": [
          2.960027777,
          35.439611111
        ]
      },
      "properties": {
        "label": "Aïn Oussara Power Plant",
        "type": "Energy generation station",
        "entity": "http://www.wikidata.org/entity/Q56373369",
        "country_qid": "Q262"
      }
    },
    {
      "type": "Feature",
      "geometry": {
        "type": "Point",
        "coordinates": [
          3.1375,
          36.598805555
        ]
      },
      "properties": {
        "label": "Larbâa Power Plant",
        "type": "Energy generation station",
        "entity": "http://www.wikidata.org/entity/Q56373141",
        "country_qid": "Q262"
      }
    },
    {
      "type": "Feature",
      "geometry": {
        "type": "Point",
        "coordinates": [
          5.2065,
          36.1577
        ]
      },
      "properties": {
        "label": "Aïn Arnat Power Plant",
        "type": "Energy generation station",
        "entity": "http://www.wikidata.org/entity/Q56373362",
        "country_qid": "Q262"
      }
    },
    {
      "type": "Feature",
      "geometry": {
        "type": "Point",
        "coordinates": [
          0.128333333,
          36.018305555
        ]
      },
      "properties": {
        "label": "Sonaghter Power Plant",
        "type": "Energy generation station",
        "entity": "http://www.wikidata.org/entity/Q56373370",
        "country_qid": "Q262"
      }
    },
    {
      "type": "Feature",
      "geometry": {
        "type": "Point",
        "coordinates": [
          -0.938583333,
          35.565805555
        ]
      },
      "properties": {
        "label": "Boutlelis Power Plant",
        "type": "Energy generation station",
        "entity": "http://www.wikidata.org/entity/Q56373117",
        "country_qid": "Q262"
      }
    },
    {
      "type": "Feature",
      "geometry": {
        "type": "Point",
        "coordinates": [
          3.3689189,
          33.1366618
        ]
      },
      "properties": {
        "label": "Tilghemt 3 Power Plant",
        "type": "Energy generation station",
        "entity": "http://www.wikidata.org/entity/Q56373066",
        "country_qid": "Q262"
      }
    },
    {
      "type": "Feature",
      "geometry": {
        "type": "Point",
        "coordinates": [
          4.879805555,
          36.649888888
        ]
      },
      "properties": {
        "label": "Amizour Power Plant",
        "type": "Energy generation station",
        "entity": "http://www.wikidata.org/entity/Q56373318",
        "country_qid": "Q262"
      }
    },
    {
      "type": "Feature",
      "geometry": {
        "type": "Point",
        "coordinates": [
          5.8920407,
          34.4412298
        ]
      },
      "properties": {
        "label": "Oumache I Power Plant",
        "type": "Energy generation station",
        "entity": "http://www.wikidata.org/entity/Q116183944",
        "country_qid": "Q262"
      }
    },
    {
      "type": "Feature",
      "geometry": {
        "type": "Point",
        "coordinates": [
          6.022555555,
          31.761583333
        ]
      },
      "properties": {
        "label": "Hassi Messaoud West Power Plant",
        "type": "Energy generation station",
        "entity": "http://www.wikidata.org/entity/Q56373326",
        "country_qid": "Q262"
      }
    },
    {
      "type": "Feature",
      "geometry": {
        "type": "Point",
        "coordinates": [
          3.082277777,
          36.748888888
        ]
      },
      "properties": {
        "label": "El Hamma Power Plant",
        "type": "Energy generation station",
        "entity": "http://www.wikidata.org/entity/Q56373146",
        "country_qid": "Q262"
      }
    },
    {
      "type": "Feature",
      "geometry": {
        "type": "Point",
        "coordinates": [
          3.184694444,
          36.729444444
        ]
      },
      "properties": {
        "label": "Bab Ezzouar Power Plant",
        "type": "Energy generation station",
        "entity": "http://www.wikidata.org/entity/Q56373219",
        "country_qid": "Q262"
      }
    },
    {
      "type": "Feature",
      "geometry": {
        "type": "Point",
        "coordinates": [
          4.477611111,
          35.707805555
        ]
      },
      "properties": {
        "label": "M'Sila Power Plant",
        "type": "Energy generation station",
        "entity": "http://www.wikidata.org/entity/Q56373316",
        "country_qid": "Q262"
      }
    },
    {
      "type": "Feature",
      "geometry": {
        "type": "Point",
        "coordinates": [
          6.936611111,
          36.878888888
        ]
      },
      "properties": {
        "label": "skikda combined cycle power plant",
        "type": "Energy generation station",
        "entity": "http://www.wikidata.org/entity/Q56373271",
        "country_qid": "Q262"
      }
    },
    {
      "type": "Feature",
      "geometry": {
        "type": "Point",
        "coordinates": [
          6.9347709,
          36.8797708
        ]
      },
      "properties": {
        "label": "skikda steam power plant",
        "type": "Energy generation station",
        "entity": "http://www.wikidata.org/entity/Q116182916",
        "country_qid": "Q262"
      }
    },
    {
      "type": "Feature",
      "geometry": {
        "type": "Point",
        "coordinates": [
          6.0605317,
          31.6748182
        ]
      },
      "properties": {
        "label": "Hassi Messaoud South Power Plant",
        "type": "Energy generation station",
        "entity": "http://www.wikidata.org/entity/Q116187119",
        "country_qid": "Q262"
      }
    },
    {
      "type": "Feature",
      "geometry": {
        "type": "Point",
        "coordinates": [
          3.065555555,
          36.760888888
        ]
      },
      "properties": {
        "label": "Alger-Port Power Plant",
        "type": "Energy generation station",
        "entity": "http://www.wikidata.org/entity/Q56373142",
        "country_qid": "Q262"
      }
    },
    {
      "type": "Feature",
      "geometry": {
        "type": "Point",
        "coordinates": [
          2.498722222,
          27.1815
        ]
      },
      "properties": {
        "label": "In Salah Power Plant",
        "type": "Energy generation station",
        "entity": "http://www.wikidata.org/entity/Q56373324",
        "country_qid": "Q262"
      }
    },
    {
      "type": "Feature",
      "geometry": {
        "type": "Point",
        "coordinates": [
          6.9819872,
          34.5037384
        ]
      },
      "properties": {
        "label": "Labreg Power Plant",
        "type": "Energy generation station",
        "entity": "http://www.wikidata.org/entity/Q56373317",
        "country_qid": "Q262"
      }
    },
    {
      "type": "Feature",
      "geometry": {
        "type": "Point",
        "coordinates": [
          6.869555555,
          35.550527777
        ]
      },
      "properties": {
        "label": "Kaïs Power Plant",
        "type": "Energy generation station",
        "entity": "http://www.wikidata.org/entity/Q56373359",
        "country_qid": "Q262"
      }
    },
    {
      "type": "Feature",
      "geometry": {
        "type": "Point",
        "coordinates": [
          -0.632,
          35.709333333
        ]
      },
      "properties": {
        "label": "Ravin Blanc Power Plant",
        "type": "Energy generation station",
        "entity": "http://www.wikidata.org/entity/Q56373132",
        "country_qid": "Q262"
      }
    },
    {
      "type": "Feature",
      "geometry": {
        "type": "Point",
        "coordinates": [
          3.698305555,
          36.850888888
        ]
      },
      "properties": {
        "label": "Ras Djinet Power Plant",
        "type": "Energy generation station",
        "entity": "http://www.wikidata.org/entity/Q56373220",
        "country_qid": "Q262"
      }
    },
    {
      "type": "Feature",
      "geometry": {
        "type": "Point",
        "coordinates": [
          -1.228323,
          35.46102
        ]
      },
      "properties": {
        "label": "Terga Power Plant",
        "type": "Energy generation station",
        "entity": "http://www.wikidata.org/entity/Q26203111",
        "country_qid": "Q262"
      }
    },
    {
      "type": "Feature",
      "geometry": {
        "type": "Point",
        "coordinates": [
          8.077805555,
          36.885
        ]
      },
      "properties": {
        "label": "Koudiet Eddraouch Power Plant",
        "type": "Energy generation station",
        "entity": "http://www.wikidata.org/entity/Q56373275",
        "country_qid": "Q262"
      }
    },
    {
      "type": "Feature",
      "geometry": {
        "type": "Point",
        "coordinates": [
          5.8798528,
          34.4419023
        ]
      },
      "properties": {
        "label": "Oumache III Power Plant",
        "type": "Energy generation station",
        "entity": "http://www.wikidata.org/entity/Q116183982",
        "country_qid": "Q262"
      }
    },
    {
      "type": "Feature",
      "geometry": {
        "type": "Point",
        "coordinates": [
          6.252472222,
          36.739527777
        ]
      },
      "properties": {
        "label": "Bellara Power Plant",
        "type": "Energy generation station",
        "entity": "http://www.wikidata.org/entity/Q56373346",
        "country_qid": "Q262"
      }
    },
    {
      "type": "Feature",
      "geometry": {
        "type": "Point",
        "coordinates": [
          2.878916666,
          36.597138888
        ]
      },
      "properties": {
        "label": "Boufarik II Power Plant",
        "type": "Energy generation station",
        "entity": "http://www.wikidata.org/entity/Q56373371",
        "country_qid": "Q262"
      }
    },
    {
      "type": "Feature",
      "geometry": {
        "type": "Point",
        "coordinates": [
          8.030055555,
          30.823416666
        ]
      },
      "properties": {
        "label": "Hassi Berkine Power Plant",
        "type": "Energy generation station",
        "entity": "http://www.wikidata.org/entity/Q56373116",
        "country_qid": "Q262"
      }
    },
    {
      "type": "Feature",
      "geometry": {
        "type": "Point",
        "coordinates": [
          -0.3437197,
          33.4749723
        ]
      },
      "properties": {
        "label": "Naâma combined cycle power plant",
        "type": "Energy generation station",
        "entity": "http://www.wikidata.org/entity/Q56373372",
        "country_qid": "Q262"
      }
    },
    {
      "type": "Feature",
      "geometry": {
        "type": "Point",
        "coordinates": [
          5.887638888,
          34.440472222
        ]
      },
      "properties": {
        "label": "Oumache II Power Plant",
        "type": "Energy generation station",
        "entity": "http://www.wikidata.org/entity/Q56373361",
        "country_qid": "Q262"
      }
    },
    {
      "type": "Feature",
      "geometry": {
        "type": "Point",
        "coordinates": [
          -0.295166666,
          27.8945
        ]
      },
      "properties": {
        "label": "Adrar Power Plant",
        "type": "Energy generation station",
        "entity": "http://www.wikidata.org/entity/Q56373064",
        "country_qid": "Q262"
      }
    },
    {
      "type": "Feature",
      "geometry": {
        "type": "Point",
        "coordinates": [
          3.3647346,
          33.1413693
        ]
      },
      "properties": {
        "label": "Tilghemt 2 Power Plant",
        "type": "Energy generation station",
        "entity": "http://www.wikidata.org/entity/Q116187032",
        "country_qid": "Q262"
      }
    },
    {
      "type": "Feature",
      "geometry": {
        "type": "Point",
        "coordinates": [
          2.929611111,
          36.139888888
        ]
      },
      "properties": {
        "label": "Berrouaghia Power Plant",
        "type": "Energy generation station",
        "entity": "http://www.wikidata.org/entity/Q56373139",
        "country_qid": "Q262"
      }
    },
    {
      "type": "Feature",
      "geometry": {
        "type": "Point",
        "coordinates": [
          5.576754683,
          36.58202332
        ]
      },
      "properties": {
        "label": "Erraguene Dam",
        "type": "Energy generation station",
        "entity": "http://www.wikidata.org/entity/Q12215567",
        "country_qid": "Q262"
      }
    },
    {
      "type": "Feature",
      "geometry": {
        "type": "Point",
        "coordinates": [
          3.345916666,
          33.131722222
        ]
      },
      "properties": {
        "label": "Tilghemt 1 Power Plant",
        "type": "Energy generation station",
        "entity": "http://www.wikidata.org/entity/Q56373065",
        "country_qid": "Q262"
      }
    },
    {
      "type": "Feature",
      "geometry": {
        "type": "Point",
        "coordinates": [
          0.540666666,
          35.7835
        ]
      },
      "properties": {
        "label": "Relizane Power Plant",
        "type": "Energy generation station",
        "entity": "http://www.wikidata.org/entity/Q56373136",
        "country_qid": "Q262"
      }
    },
    {
      "type": "Feature",
      "geometry": {
        "type": "Point",
        "coordinates": [
          3.35194444,
          33.12472222
        ]
      },
      "properties": {
        "label": "Hassi R'Mel integrated solar combined cycle power station",
        "type": "Energy generation station",
        "entity": "http://www.wikidata.org/entity/Q835854",
        "country_qid": "Q262"
      }
    },
    {
      "type": "Feature",
      "geometry": {
        "type": "Point",
        "coordinates": [
          5.876,
          36.813888888
        ]
      },
      "properties": {
        "label": "Jijel power station",
        "type": "Energy generation station",
        "entity": "http://www.wikidata.org/entity/Q56373221",
        "country_qid": "Q262"
      }
    },
    {
      "type": "Feature",
      "geometry": {
        "type": "Point",
        "coordinates": [
          6.7523324,
          33.2748434
        ]
      },
      "properties": {
        "label": "El Oued Power Plant",
        "type": "Energy generation station",
        "entity": "http://www.wikidata.org/entity/Q56373323",
        "country_qid": "Q262"
      }
    }
  ]
}