{
  "type": "FeatureCollection",
  "features": [
    {
      "type": "Feature",
      "geometry": {
        "type": "Point",
        "coordinates": [
          44.378034,
          33.257213
        ]
      },
      "properties": {
        "label": "Doura power plant",
        "type": "Energy generation station",
        "entity": "http://www.wikidata.org/entity/Q11965973",
        "country_qid": "Q796"
      }
    },
    {
      "type": "Feature",
      "geometry": {
        "type": "Point",
        "coordinates": [
          44.27371667,
          36.70581944
        ]
      },
      "properties": {
        "label": "Bekhme Dam",
        "type": "Energy generation station",
        "entity": "http://www.wikidata.org/entity/Q815019",
        "country_qid": "Q796"
      }
    },
    {
      "type": "Feature",
      "geometry": {
        "type": "Point",
        "coordinates": [
          43.850556,
          34.195833
        ]
      },
      "properties": {
        "label": "Samarra Barrage",
        "type": "Energy generation station",
        "entity": "http://www.wikidata.org/entity/Q1639567",
        "country_qid": "Q796"
      }
    },
    {
      "type": "Feature",
      "geometry": {
        "type": "Point",
        "coordinates": [
          42.355,
          34.206944444
        ]
      },
      "properties": {
        "label": "Haditha Dam",
        "type": "Energy generation station",
        "entity": "http://www.wikidata.org/entity/Q1567496",
        "country_qid": "Q796"
      }
    },
    {
      "type": "Feature",
      "geometry": {
        "type": "Point",
        "coordinates": [
          45.53048333,
          34.84140833
        ]
      },
      "properties": {
        "label": "Bawanur Dam",
        "type": "Energy generation station",
        "entity": "http://www.wikidata.org/entity/Q24908614",
        "country_qid": "Q796"
      }
    },
    {
      "type": "Feature",
      "geometry": {
        "type": "Point",
        "coordinates": [
          44.276407,
          32.84199
        ]
      },
      "properties": {
        "label": "Al-Mussaib Thermal Power Station",
        "type": "Energy generation station",
        "entity": "http://www.wikidata.org/entity/Q115012475",
        "country_qid": "Q796"
      }
    },
    {
      "type": "Feature",
      "geometry": {
        "type": "Point",
        "coordinates": [
          44.055514,
          32.401964
        ]
      },
      "properties": {
        "label": "Al Khairat Thermal Power Plant",
        "type": "Energy generation station",
        "entity": "http://www.wikidata.org/entity/Q123333647",
        "country_qid": "Q796"
      }
    },
    {
      "type": "Feature",
      "geometry": {
        "type": "Point",
        "coordinates": [
          42.82421,
          36.63083
        ]
      },
      "properties": {
        "label": "Mosul Dam",
        "type": "Energy generation station",
        "entity": "http://www.wikidata.org/entity/Q606561",
        "country_qid": "Q796"
      }
    },
    {
      "type": "Feature",
      "geometry": {
        "type": "Point",
        "coordinates": [
          44.953,
          35.954
        ]
      },
      "properties": {
        "label": "Dokan Hydroelectric Power Plant",
        "type": "Energy generation station",
        "entity": "http://www.wikidata.org/entity/Q26856054",
        "country_qid": "Q796"
      }
    },
    {
      "type": "Feature",
      "geometry": {
        "type": "Point",
        "coordinates": [
          42.96638889,
          36.46666667
        ]
      },
      "properties": {
        "label": "Badush Dam",
        "type": "Energy generation station",
        "entity": "http://www.wikidata.org/entity/Q4841184",
        "country_qid": "Q796"
      }
    }
  ]
}