{
  "type": "FeatureCollection",
  "features": [
    {
      "type": "Feature",
      "geometry": {
        "type": "Point",
        "coordinates": [
          137.214889,
          36.756778
        ]
      },
      "properties": {
        "label": "Toyama Thermal Power Station",
        "type": "Energy generation station",
        "entity": "http://www.wikidata.org/entity/Q10259751",
        "country_qid": "Q17"
      }
    },
    {
      "type": "Feature",
      "geometry": {
        "type": "Point",
        "coordinates": [
          141.34444444,
          43.01472222
        ]
      },
      "properties": {
        "label": "Moiwa Power Station",
        "type": "Energy generation station",
        "entity": "http://www.wikidata.org/entity/Q22120957",
        "country_qid": "Q17"
      }
    },
    {
      "type": "Feature",
      "geometry": {
        "type": "Point",
        "coordinates": [
          137.066417,
          34.654111
        ]
      },
      "properties": {
        "label": "Atsumi Thermal Power Station",
        "type": "Energy generation station",
        "entity": "http://www.wikidata.org/entity/Q11562867",
        "country_qid": "Q17"
      }
    },
    {
      "type": "Feature",
      "geometry": {
        "type": "Point",
        "coordinates": [
          129.959639,
          33.465972
        ]
      },
      "properties": {
        "label": "Karatsu Power Plant",
        "type": "Energy generation station",
        "entity": "http://www.wikidata.org/entity/Q11418638",
        "country_qid": "Q17"
      }
    },
    {
      "type": "Feature",
      "geometry": {
        "type": "Point",
        "coordinates": [
          125.28863889,
          24.81208333
        ]
      },
      "properties": {
        "label": "Miyako Gas Turbine Power Plant",
        "type": "Energy generation station",
        "entity": "http://www.wikidata.org/entity/Q11453484",
        "country_qid": "Q17"
      }
    },
    {
      "type": "Feature",
      "geometry": {
        "type": "Point",
        "coordinates": [
          135.255944,
          35.557556
        ]
      },
      "properties": {
        "label": "Miyazu Energy Research Center",
        "type": "Energy generation station",
        "entity": "http://www.wikidata.org/entity/Q10240480",
        "country_qid": "Q17"
      }
    },
    {
      "type": "Feature",
      "geometry": {
        "type": "Point",
        "coordinates": [
          140.379138888,
          36.539111111
        ]
      },
      "properties": {
        "label": "Q11510086",
        "type": "Energy generation station",
        "entity": "http://www.wikidata.org/entity/Q11510086",
        "country_qid": "Q17"
      }
    },
    {
      "type": "Feature",
      "geometry": {
        "type": "Point",
        "coordinates": [
          136.205917,
          34.067
        ]
      },
      "properties": {
        "label": "Owase-Mita Thermal Power Station",
        "type": "Energy generation station",
        "entity": "http://www.wikidata.org/entity/Q11465547",
        "country_qid": "Q17"
      }
    },
    {
      "type": "Feature",
      "geometry": {
        "type": "Point",
        "coordinates": [
          140.606666666,
          36.466388888
        ]
      },
      "properties": {
        "label": "Tokai No.2 Power Station",
        "type": "Energy generation station",
        "entity": "http://www.wikidata.org/entity/Q21777235",
        "country_qid": "Q17"
      }
    },
    {
      "type": "Feature",
      "geometry": {
        "type": "Point",
        "coordinates": [
          140.606667,
          36.466389
        ]
      },
      "properties": {
        "label": "Tokai Power Station",
        "type": "Energy generation station",
        "entity": "http://www.wikidata.org/entity/Q11527936",
        "country_qid": "Q17"
      }
    },
    {
      "type": "Feature",
      "geometry": {
        "type": "Point",
        "coordinates": [
          131.691472,
          33.262139
        ]
      },
      "properties": {
        "label": "Oita Power Plant",
        "type": "Energy generation station",
        "entity": "http://www.wikidata.org/entity/Q11432776",
        "country_qid": "Q17"
      }
    },
    {
      "type": "Feature",
      "geometry": {
        "type": "Point",
        "coordinates": [
          135.06544444,
          33.92672222
        ]
      },
      "properties": {
        "label": "Hidaka nuclear power plant",
        "type": "Energy generation station",
        "entity": "http://www.wikidata.org/entity/Q17224591",
        "country_qid": "Q17"
      }
    },
    {
      "type": "Feature",
      "geometry": {
        "type": "Point",
        "coordinates": [
          131.68947222,
          33.26647222
        ]
      },
      "properties": {
        "label": "Ohita Refinery",
        "type": "Energy generation station",
        "entity": "http://www.wikidata.org/entity/Q11226747",
        "country_qid": "Q17"
      }
    },
    {
      "type": "Feature",
      "geometry": {
        "type": "Point",
        "coordinates": [
          131.851444,
          34.011833
        ]
      },
      "properties": {
        "label": "Kudamatsu Power Station",
        "type": "Energy generation station",
        "entity": "http://www.wikidata.org/entity/Q11361024",
        "country_qid": "Q17"
      }
    },
    {
      "type": "Feature",
      "geometry": {
        "type": "Point",
        "coordinates": [
          134.761917,
          34.754361
        ]
      },
      "properties": {
        "label": "Takasago Power Station",
        "type": "Energy generation station",
        "entity": "http://www.wikidata.org/entity/Q11672636",
        "country_qid": "Q17"
      }
    },
    {
      "type": "Feature",
      "geometry": {
        "type": "Point",
        "coordinates": [
          139.254,
          38.46691667
        ]
      },
      "properties": {
        "label": "Q11604586",
        "type": "Energy generation station",
        "entity": "http://www.wikidata.org/entity/Q11604586",
        "country_qid": "Q17"
      }
    },
    {
      "type": "Feature",
      "geometry": {
        "type": "Point",
        "coordinates": [
          135.82447222,
          35.53263889
        ]
      },
      "properties": {
        "label": "Q24860756",
        "type": "Energy generation station",
        "entity": "http://www.wikidata.org/entity/Q24860756",
        "country_qid": "Q17"
      }
    },
    {
      "type": "Feature",
      "geometry": {
        "type": "Point",
        "coordinates": [
          139.860278,
          35.363333
        ]
      },
      "properties": {
        "label": "Q17240164",
        "type": "Energy generation station",
        "entity": "http://www.wikidata.org/entity/Q17240164",
        "country_qid": "Q17"
      }
    },
    {
      "type": "Feature",
      "geometry": {
        "type": "Point",
        "coordinates": [
          138.508583,
          35.006944
        ]
      },
      "properties": {
        "label": "Q11502740",
        "type": "Energy generation station",
        "entity": "http://www.wikidata.org/entity/Q11502740",
        "country_qid": "Q17"
      }
    },
    {
      "type": "Feature",
      "geometry": {
        "type": "Point",
        "coordinates": [
          139.8125,
          33.075
        ]
      },
      "properties": {
        "label": "Q11390470",
        "type": "Energy generation station",
        "entity": "http://www.wikidata.org/entity/Q11390470",
        "country_qid": "Q17"
      }
    },
    {
      "type": "Feature",
      "geometry": {
        "type": "Point",
        "coordinates": [
          141.39027778,
          41.18805556
        ]
      },
      "properties": {
        "label": "Higashidōri Nuclear Power Plant",
        "type": "Energy generation station",
        "entity": "http://www.wikidata.org/entity/Q2008105",
        "country_qid": "Q17"
      }
    },
    {
      "type": "Feature",
      "geometry": {
        "type": "Point",
        "coordinates": [
          141.417444444,
          44.444833333
        ]
      },
      "properties": {
        "label": "Q18458929",
        "type": "Energy generation station",
        "entity": "http://www.wikidata.org/entity/Q18458929",
        "country_qid": "Q17"
      }
    },
    {
      "type": "Feature",
      "geometry": {
        "type": "Point",
        "coordinates": [
          135.128056,
          34.321556
        ]
      },
      "properties": {
        "label": "Q11430656",
        "type": "Energy generation station",
        "entity": "http://www.wikidata.org/entity/Q11430656",
        "country_qid": "Q17"
      }
    },
    {
      "type": "Feature",
      "geometry": {
        "type": "Point",
        "coordinates": [
          132.281388888,
          35.025555555
        ]
      },
      "properties": {
        "label": "Q22118667",
        "type": "Energy generation station",
        "entity": "http://www.wikidata.org/entity/Q22118667",
        "country_qid": "Q17"
      }
    },
    {
      "type": "Feature",
      "geometry": {
        "type": "Point",
        "coordinates": [
          130.52470278,
          31.46703333
        ]
      },
      "properties": {
        "label": "Kagoshima Nanatsujima Mega Solar Power Plant",
        "type": "Energy generation station",
        "entity": "http://www.wikidata.org/entity/Q17223312",
        "country_qid": "Q17"
      }
    },
    {
      "type": "Feature",
      "geometry": {
        "type": "Point",
        "coordinates": [
          127.71930556,
          26.26941667
        ]
      },
      "properties": {
        "label": "Makiminato Power Plant",
        "type": "Energy generation station",
        "entity": "http://www.wikidata.org/entity/Q11570463",
        "country_qid": "Q17"
      }
    },
    {
      "type": "Feature",
      "geometry": {
        "type": "Point",
        "coordinates": [
          136.4275,
          34.21944444
        ]
      },
      "properties": {
        "label": "Q11614891",
        "type": "Energy generation station",
        "entity": "http://www.wikidata.org/entity/Q11614891",
        "country_qid": "Q17"
      }
    },
    {
      "type": "Feature",
      "geometry": {
        "type": "Point",
        "coordinates": [
          143.938666666,
          42.898416666
        ]
      },
      "properties": {
        "label": "Onbetsu Power Station",
        "type": "Energy generation station",
        "entity": "http://www.wikidata.org/entity/Q11664156",
        "country_qid": "Q17"
      }
    },
    {
      "type": "Feature",
      "geometry": {
        "type": "Point",
        "coordinates": [
          140.828806,
          42.483
        ]
      },
      "properties": {
        "label": "Date Power Station",
        "type": "Energy generation station",
        "entity": "http://www.wikidata.org/entity/Q11380841",
        "country_qid": "Q17"
      }
    },
    {
      "type": "Feature",
      "geometry": {
        "type": "Point",
        "coordinates": [
          141.143416666,
          45.199694444
        ]
      },
      "properties": {
        "label": "Q17214560",
        "type": "Energy generation station",
        "entity": "http://www.wikidata.org/entity/Q17214560",
        "country_qid": "Q17"
      }
    },
    {
      "type": "Feature",
      "geometry": {
        "type": "Point",
        "coordinates": [
          132.03458333,
          33.79194444
        ]
      },
      "properties": {
        "label": "Kaminoseki Nuclear Power Plant",
        "type": "Energy generation station",
        "entity": "http://www.wikidata.org/entity/Q11360506",
        "country_qid": "Q17"
      }
    },
    {
      "type": "Feature",
      "geometry": {
        "type": "Point",
        "coordinates": [
          124.15975,
          24.34836111
        ]
      },
      "properties": {
        "label": "Ishigaki thermo-electric power plant",
        "type": "Energy generation station",
        "entity": "http://www.wikidata.org/entity/Q11585412",
        "country_qid": "Q17"
      }
    },
    {
      "type": "Feature",
      "geometry": {
        "type": "Point",
        "coordinates": [
          134.88083333,
          35.65572222
        ]
      },
      "properties": {
        "label": "Q11369655",
        "type": "Energy generation station",
        "entity": "http://www.wikidata.org/entity/Q11369655",
        "country_qid": "Q17"
      }
    },
    {
      "type": "Feature",
      "geometry": {
        "type": "Point",
        "coordinates": [
          139.790917,
          35.647861
        ]
      },
      "properties": {
        "label": "Q11502565",
        "type": "Energy generation station",
        "entity": "http://www.wikidata.org/entity/Q11502565",
        "country_qid": "Q17"
      }
    },
    {
      "type": "Feature",
      "geometry": {
        "type": "Point",
        "coordinates": [
          138.323389,
          37.996556
        ]
      },
      "properties": {
        "label": "Q11383306",
        "type": "Energy generation station",
        "entity": "http://www.wikidata.org/entity/Q11383306",
        "country_qid": "Q17"
      }
    },
    {
      "type": "Feature",
      "geometry": {
        "type": "Point",
        "coordinates": [
          138.393722222,
          35.820416666
        ]
      },
      "properties": {
        "label": "Q11402059",
        "type": "Energy generation station",
        "entity": "http://www.wikidata.org/entity/Q11402059",
        "country_qid": "Q17"
      }
    },
    {
      "type": "Feature",
      "geometry": {
        "type": "Point",
        "coordinates": [
          139.377889,
          35.359444
        ]
      },
      "properties": {
        "label": "Q11457371",
        "type": "Energy generation station",
        "entity": "http://www.wikidata.org/entity/Q11457371",
        "country_qid": "Q17"
      }
    },
    {
      "type": "Feature",
      "geometry": {
        "type": "Point",
        "coordinates": [
          134.71652778,
          33.83183333
        ]
      },
      "properties": {
        "label": "Q24861291",
        "type": "Energy generation station",
        "entity": "http://www.wikidata.org/entity/Q24861291",
        "country_qid": "Q17"
      }
    },
    {
      "type": "Feature",
      "geometry": {
        "type": "Point",
        "coordinates": [
          140.7018592,
          35.9170457
        ]
      },
      "properties": {
        "label": "Kashima Power Station",
        "type": "Energy generation station",
        "entity": "http://www.wikidata.org/entity/Q2944679",
        "country_qid": "Q17"
      }
    },
    {
      "type": "Feature",
      "geometry": {
        "type": "Point",
        "coordinates": [
          141.01777778,
          37.23833333
        ]
      },
      "properties": {
        "label": "Hirono Thermal Power Station",
        "type": "Energy generation station",
        "entity": "http://www.wikidata.org/entity/Q2944675",
        "country_qid": "Q17"
      }
    },
    {
      "type": "Feature",
      "geometry": {
        "type": "Point",
        "coordinates": [
          135.153056,
          33.860028
        ]
      },
      "properties": {
        "label": "Gobō Thermal Power Plant",
        "type": "Energy generation station",
        "entity": "http://www.wikidata.org/entity/Q11488885",
        "country_qid": "Q17"
      }
    },
    {
      "type": "Feature",
      "geometry": {
        "type": "Point",
        "coordinates": [
          135.122611,
          34.247222
        ]
      },
      "properties": {
        "label": "Q17216522",
        "type": "Energy generation station",
        "entity": "http://www.wikidata.org/entity/Q17216522",
        "country_qid": "Q17"
      }
    },
    {
      "type": "Feature",
      "geometry": {
        "type": "Point",
        "coordinates": [
          132.99916667,
          35.53833333
        ]
      },
      "properties": {
        "label": "Shimane Nuclear Power Plant",
        "type": "Energy generation station",
        "entity": "http://www.wikidata.org/entity/Q1739471",
        "country_qid": "Q17"
      }
    },
    {
      "type": "Feature",
      "geometry": {
        "type": "Point",
        "coordinates": [
          133.686611,
          34.516472
        ]
      },
      "properties": {
        "label": "Tamashima Power Station",
        "type": "Energy generation station",
        "entity": "http://www.wikidata.org/entity/Q11572533",
        "country_qid": "Q17"
      }
    },
    {
      "type": "Feature",
      "geometry": {
        "type": "Point",
        "coordinates": [
          139.790944,
          35.753222
        ]
      },
      "properties": {
        "label": "Senju Thermal Power Station",
        "type": "Energy generation station",
        "entity": "http://www.wikidata.org/entity/Q7450801",
        "country_qid": "Q17"
      }
    },
    {
      "type": "Feature",
      "geometry": {
        "type": "Point",
        "coordinates": [
          140.425083,
          41.582806
        ]
      },
      "properties": {
        "label": "Shiriuchi Power Station",
        "type": "Energy generation station",
        "entity": "http://www.wikidata.org/entity/Q11584509",
        "country_qid": "Q17"
      }
    },
    {
      "type": "Feature",
      "geometry": {
        "type": "Point",
        "coordinates": [
          139.713111,
          35.495389
        ]
      },
      "properties": {
        "label": "Q17216596",
        "type": "Energy generation station",
        "entity": "http://www.wikidata.org/entity/Q17216596",
        "country_qid": "Q17"
      }
    },
    {
      "type": "Feature",
      "geometry": {
        "type": "Point",
        "coordinates": [
          127.84036111,
          26.42936111
        ]
      },
      "properties": {
        "label": "Ishikawa Thermal Power Station",
        "type": "Energy generation station",
        "entity": "http://www.wikidata.org/entity/Q11585903",
        "country_qid": "Q17"
      }
    },
    {
      "type": "Feature",
      "geometry": {
        "type": "Point",
        "coordinates": [
          140.68788889,
          35.90286111
        ]
      },
      "properties": {
        "label": "Q11677100",
        "type": "Energy generation station",
        "entity": "http://www.wikidata.org/entity/Q11677100",
        "country_qid": "Q17"
      }
    },
    {
      "type": "Feature",
      "geometry": {
        "type": "Point",
        "coordinates": [
          139.24111111,
          37.99972222
        ]
      },
      "properties": {
        "label": "Higashi-Niigata Thermal Power Station",
        "type": "Energy generation station",
        "entity": "http://www.wikidata.org/entity/Q11527078",
        "country_qid": "Q17"
      }
    },
    {
      "type": "Feature",
      "geometry": {
        "type": "Point",
        "coordinates": [
          134.60497222,
          35.65191667
        ]
      },
      "properties": {
        "label": "Q24861835",
        "type": "Energy generation station",
        "entity": "http://www.wikidata.org/entity/Q24861835",
        "country_qid": "Q17"
      }
    },
    {
      "type": "Feature",
      "geometry": {
        "type": "Point",
        "coordinates": [
          132.201,
          34.119722
        ]
      },
      "properties": {
        "label": "Iwakuni Power Station",
        "type": "Energy generation station",
        "entity": "http://www.wikidata.org/entity/Q11474280",
        "country_qid": "Q17"
      }
    },
    {
      "type": "Feature",
      "geometry": {
        "type": "Point",
        "coordinates": [
          131.25344444,
          31.38241667
        ]
      },
      "properties": {
        "label": "Q24862576",
        "type": "Energy generation station",
        "entity": "http://www.wikidata.org/entity/Q24862576",
        "country_qid": "Q17"
      }
    },
    {
      "type": "Feature",
      "geometry": {
        "type": "Point",
        "coordinates": [
          133.23402778,
          33.20263889
        ]
      },
      "properties": {
        "label": "Q24862545",
        "type": "Energy generation station",
        "entity": "http://www.wikidata.org/entity/Q24862545",
        "country_qid": "Q17"
      }
    },
    {
      "type": "Feature",
      "geometry": {
        "type": "Point",
        "coordinates": [
          130.199639,
          31.857333
        ]
      },
      "properties": {
        "label": "Sendai Power Station",
        "type": "Energy generation station",
        "entity": "http://www.wikidata.org/entity/Q11477750",
        "country_qid": "Q17"
      }
    },
    {
      "type": "Feature",
      "geometry": {
        "type": "Point",
        "coordinates": [
          130.420305555,
          33.01225
        ]
      },
      "properties": {
        "label": "Q17218377",
        "type": "Energy generation station",
        "entity": "http://www.wikidata.org/entity/Q17218377",
        "country_qid": "Q17"
      }
    },
    {
      "type": "Feature",
      "geometry": {
        "type": "Point",
        "coordinates": [
          139.74544444,
          35.51447222
        ]
      },
      "properties": {
        "label": "Q11309266",
        "type": "Energy generation station",
        "entity": "http://www.wikidata.org/entity/Q11309266",
        "country_qid": "Q17"
      }
    },
    {
      "type": "Feature",
      "geometry": {
        "type": "Point",
        "coordinates": [
          138.433556,
          38.114806
        ]
      },
      "properties": {
        "label": "Q11362659",
        "type": "Energy generation station",
        "entity": "http://www.wikidata.org/entity/Q11362659",
        "country_qid": "Q17"
      }
    },
    {
      "type": "Feature",
      "geometry": {
        "type": "Point",
        "coordinates": [
          131.000986,
          34.001906
        ]
      },
      "properties": {
        "label": "Shimonoseki Power Station",
        "type": "Energy generation station",
        "entity": "http://www.wikidata.org/entity/Q11361469",
        "country_qid": "Q17"
      }
    },
    {
      "type": "Feature",
      "geometry": {
        "type": "Point",
        "coordinates": [
          134.45725,
          34.774806
        ]
      },
      "properties": {
        "label": "Aioi Power Station",
        "type": "Energy generation station",
        "entity": "http://www.wikidata.org/entity/Q11582297",
        "country_qid": "Q17"
      }
    },
    {
      "type": "Feature",
      "geometry": {
        "type": "Point",
        "coordinates": [
          134.653333,
          33.879167
        ]
      },
      "properties": {
        "label": "Anan Power Station",
        "type": "Energy generation station",
        "entity": "http://www.wikidata.org/entity/Q11657335",
        "country_qid": "Q17"
      }
    },
    {
      "type": "Feature",
      "geometry": {
        "type": "Point",
        "coordinates": [
          141.03419444,
          37.51338889
        ]
      },
      "properties": {
        "label": "Namie-Odaka Nuclear Power Plant",
        "type": "Energy generation station",
        "entity": "http://www.wikidata.org/entity/Q3367024",
        "country_qid": "Q17"
      }
    },
    {
      "type": "Feature",
      "geometry": {
        "type": "Point",
        "coordinates": [
          135.188139,
          34.151694
        ]
      },
      "properties": {
        "label": "Kainan Power Plant",
        "type": "Energy generation station",
        "entity": "http://www.wikidata.org/entity/Q11558782",
        "country_qid": "Q17"
      }
    },
    {
      "type": "Feature",
      "geometry": {
        "type": "Point",
        "coordinates": [
          129.647917,
          33.196167
        ]
      },
      "properties": {
        "label": "Ainoura Power Station",
        "type": "Energy generation station",
        "entity": "http://www.wikidata.org/entity/Q11582229",
        "country_qid": "Q17"
      }
    },
    {
      "type": "Feature",
      "geometry": {
        "type": "Point",
        "coordinates": [
          139.506583333,
          42.173861111
        ]
      },
      "properties": {
        "label": "Q11445676",
        "type": "Energy generation station",
        "entity": "http://www.wikidata.org/entity/Q11445676",
        "country_qid": "Q17"
      }
    },
    {
      "type": "Feature",
      "geometry": {
        "type": "Point",
        "coordinates": [
          139.662028,
          35.4861
        ]
      },
      "properties": {
        "label": "Q11226752",
        "type": "Energy generation station",
        "entity": "http://www.wikidata.org/entity/Q11226752",
        "country_qid": "Q17"
      }
    },
    {
      "type": "Feature",
      "geometry": {
        "type": "Point",
        "coordinates": [
          134.379167,
          34.741583
        ]
      },
      "properties": {
        "label": "Akō Power Plant",
        "type": "Energy generation station",
        "entity": "http://www.wikidata.org/entity/Q11635896",
        "country_qid": "Q17"
      }
    },
    {
      "type": "Feature",
      "geometry": {
        "type": "Point",
        "coordinates": [
          139.75666667,
          35.615
        ]
      },
      "properties": {
        "label": "Oi Thermal Power Station",
        "type": "Energy generation station",
        "entity": "http://www.wikidata.org/entity/Q2944650",
        "country_qid": "Q17"
      }
    },
    {
      "type": "Feature",
      "geometry": {
        "type": "Point",
        "coordinates": [
          136.133694,
          36.2075
        ]
      },
      "properties": {
        "label": "Fukui Thermal Power Plant",
        "type": "Energy generation station",
        "entity": "http://www.wikidata.org/entity/Q11591412",
        "country_qid": "Q17"
      }
    },
    {
      "type": "Feature",
      "geometry": {
        "type": "Point",
        "coordinates": [
          141.39508333,
          43.57208333
        ]
      },
      "properties": {
        "label": "Q24861532",
        "type": "Energy generation station",
        "entity": "http://www.wikidata.org/entity/Q24861532",
        "country_qid": "Q17"
      }
    },
    {
      "type": "Feature",
      "geometry": {
        "type": "Point",
        "coordinates": [
          131.11922222,
          33.62519444
        ]
      },
      "properties": {
        "label": "Buzen Power Station",
        "type": "Energy generation station",
        "entity": "http://www.wikidata.org/entity/Q11633310",
        "country_qid": "Q17"
      }
    },
    {
      "type": "Feature",
      "geometry": {
        "type": "Point",
        "coordinates": [
          140.048611,
          39.783611
        ]
      },
      "properties": {
        "label": "Akita Thermal Power Station",
        "type": "Energy generation station",
        "entity": "http://www.wikidata.org/entity/Q11595385",
        "country_qid": "Q17"
      }
    },
    {
      "type": "Feature",
      "geometry": {
        "type": "Point",
        "coordinates": [
          132.442011,
          34.358417
        ]
      },
      "properties": {
        "label": "Hiroshima City Naka Incineration Plant",
        "type": "Energy generation station",
        "entity": "http://www.wikidata.org/entity/Q110029292",
        "country_qid": "Q17"
      }
    },
    {
      "type": "Feature",
      "geometry": {
        "type": "Point",
        "coordinates": [
          135.8225,
          34.118888888
        ]
      },
      "properties": {
        "label": "Okuyahagi 1 Pumped Storage Power Station",
        "type": "Energy generation station",
        "entity": "http://www.wikidata.org/entity/Q11993292",
        "country_qid": "Q17"
      }
    },
    {
      "type": "Feature",
      "geometry": {
        "type": "Point",
        "coordinates": [
          137.747777777,
          36.154444444
        ]
      },
      "properties": {
        "label": "Midono hydro power station",
        "type": "Energy generation station",
        "entity": "http://www.wikidata.org/entity/Q84762447",
        "country_qid": "Q17"
      }
    },
    {
      "type": "Feature",
      "geometry": {
        "type": "Point",
        "coordinates": [
          139.063,
          36.7747
        ]
      },
      "properties": {
        "label": "Tambara Dam",
        "type": "Energy generation station",
        "entity": "http://www.wikidata.org/entity/Q4563482",
        "country_qid": "Q17"
      }
    },
    {
      "type": "Feature",
      "geometry": {
        "type": "Point",
        "coordinates": [
          141.02111,
          37.31944
        ]
      },
      "properties": {
        "label": "Fukushima Daini Nuclear Power Plant",
        "type": "Energy generation station",
        "entity": "http://www.wikidata.org/entity/Q838816",
        "country_qid": "Q17"
      }
    },
    {
      "type": "Feature",
      "geometry": {
        "type": "Point",
        "coordinates": [
          131.3706395,
          32.2510511
        ]
      },
      "properties": {
        "label": "Omarugawa Pumped Storage Power Station",
        "type": "Energy generation station",
        "entity": "http://www.wikidata.org/entity/Q3435653",
        "country_qid": "Q17"
      }
    },
    {
      "type": "Feature",
      "geometry": {
        "type": "Point",
        "coordinates": [
          139.90833333,
          37.34505556
        ]
      },
      "properties": {
        "label": "Shimogo Pumped Storage Power Station",
        "type": "Energy generation station",
        "entity": "http://www.wikidata.org/entity/Q12000206",
        "country_qid": "Q17"
      }
    },
    {
      "type": "Feature",
      "geometry": {
        "type": "Point",
        "coordinates": [
          135.2035,
          35.69769444
        ]
      },
      "properties": {
        "label": "Q11444735",
        "type": "Energy generation station",
        "entity": "http://www.wikidata.org/entity/Q11444735",
        "country_qid": "Q17"
      }
    },
    {
      "type": "Feature",
      "geometry": {
        "type": "Point",
        "coordinates": [
          135.50472222,
          35.52222222
        ]
      },
      "properties": {
        "label": "Takahama Nuclear Power Plant",
        "type": "Energy generation station",
        "entity": "http://www.wikidata.org/entity/Q1557429",
        "country_qid": "Q17"
      }
    },
    {
      "type": "Feature",
      "geometry": {
        "type": "Point",
        "coordinates": [
          132.31111111,
          33.49083333
        ]
      },
      "properties": {
        "label": "Ikata Nuclear Power Plant",
        "type": "Energy generation station",
        "entity": "http://www.wikidata.org/entity/Q1201465",
        "country_qid": "Q17"
      }
    },
    {
      "type": "Feature",
      "geometry": {
        "type": "Point",
        "coordinates": [
          136.892222222,
          35.160416666
        ]
      },
      "properties": {
        "label": "Q97162178",
        "type": "Energy generation station",
        "entity": "http://www.wikidata.org/entity/Q97162178",
        "country_qid": "Q17"
      }
    },
    {
      "type": "Feature",
      "geometry": {
        "type": "Point",
        "coordinates": [
          132.510833333,
          34.565277777
        ]
      },
      "properties": {
        "label": "Nabara Hydro Power Station",
        "type": "Energy generation station",
        "entity": "http://www.wikidata.org/entity/Q84761734",
        "country_qid": "Q17"
      }
    },
    {
      "type": "Feature",
      "geometry": {
        "type": "Point",
        "coordinates": [
          135.65194444,
          35.54055556
        ]
      },
      "properties": {
        "label": "Ōi Nuclear Power Plant",
        "type": "Energy generation station",
        "entity": "http://www.wikidata.org/entity/Q1633906",
        "country_qid": "Q17"
      }
    },
    {
      "type": "Feature",
      "geometry": {
        "type": "Point",
        "coordinates": [
          135.98805556,
          35.74027778
        ]
      },
      "properties": {
        "label": "Monju Nuclear Power Plant",
        "type": "Energy generation station",
        "entity": "http://www.wikidata.org/entity/Q1331046",
        "country_qid": "Q17"
      }
    },
    {
      "type": "Feature",
      "geometry": {
        "type": "Point",
        "coordinates": [
          139.603055555,
          37.453611111
        ]
      },
      "properties": {
        "label": "Numazawa Pumped Storage Power Station",
        "type": "Energy generation station",
        "entity": "http://www.wikidata.org/entity/Q11992742",
        "country_qid": "Q17"
      }
    },
    {
      "type": "Feature",
      "geometry": {
        "type": "Point",
        "coordinates": [
          141.915277777,
          45.470277777
        ]
      },
      "properties": {
        "label": "Sōyamisaki Wind Farm",
        "type": "Energy generation station",
        "entity": "http://www.wikidata.org/entity/Q11452052",
        "country_qid": "Q17"
      }
    },
    {
      "type": "Feature",
      "geometry": {
        "type": "Point",
        "coordinates": [
          138.7007,
          36.0327
        ]
      },
      "properties": {
        "label": "Kannagawa Hydropower Plant",
        "type": "Energy generation station",
        "entity": "http://www.wikidata.org/entity/Q1142420",
        "country_qid": "Q17"
      }
    },
    {
      "type": "Feature",
      "geometry": {
        "type": "Point",
        "coordinates": [
          135.46069444,
          34.67833333
        ]
      },
      "properties": {
        "label": "Q11513586",
        "type": "Energy generation station",
        "entity": "http://www.wikidata.org/entity/Q11513586",
        "country_qid": "Q17"
      }
    },
    {
      "type": "Feature",
      "geometry": {
        "type": "Point",
        "coordinates": [
          141.659389,
          42.638806
        ]
      },
      "properties": {
        "label": "Tomakomai Power Station",
        "type": "Energy generation station",
        "entity": "http://www.wikidata.org/entity/Q11616834",
        "country_qid": "Q17"
      }
    },
    {
      "type": "Feature",
      "geometry": {
        "type": "Point",
        "coordinates": [
          141.49972222,
          38.40111111
        ]
      },
      "properties": {
        "label": "Onagawa Nuclear Power Plant",
        "type": "Energy generation station",
        "entity": "http://www.wikidata.org/entity/Q1067623",
        "country_qid": "Q17"
      }
    },
    {
      "type": "Feature",
      "geometry": {
        "type": "Point",
        "coordinates": [
          140.51333333,
          43.03722222
        ]
      },
      "properties": {
        "label": "Tomari Nuclear Power Plant",
        "type": "Energy generation station",
        "entity": "http://www.wikidata.org/entity/Q367676",
        "country_qid": "Q17"
      }
    },
    {
      "type": "Feature",
      "geometry": {
        "type": "Point",
        "coordinates": [
          142.554444444,
          42.605277777
        ]
      },
      "properties": {
        "label": "Niikappu hydro power station",
        "type": "Energy generation station",
        "entity": "http://www.wikidata.org/entity/Q84761693",
        "country_qid": "Q17"
      }
    },
    {
      "type": "Feature",
      "geometry": {
        "type": "Point",
        "coordinates": [
          137.446388888,
          35.221666666
        ]
      },
      "properties": {
        "label": "Okuyahagi 2 Pumped Storage Power Station",
        "type": "Energy generation station",
        "entity": "http://www.wikidata.org/entity/Q84762388",
        "country_qid": "Q17"
      }
    },
    {
      "type": "Feature",
      "geometry": {
        "type": "Point",
        "coordinates": [
          136.72638889,
          37.06111111
        ]
      },
      "properties": {
        "label": "Shika Nuclear Power Plant",
        "type": "Energy generation station",
        "entity": "http://www.wikidata.org/entity/Q672931",
        "country_qid": "Q17"
      }
    },
    {
      "type": "Feature",
      "geometry": {
        "type": "Point",
        "coordinates": [
          135.18833333,
          34.15833333
        ]
      },
      "properties": {
        "label": "Q55532810",
        "type": "Energy generation station",
        "entity": "http://www.wikidata.org/entity/Q55532810",
        "country_qid": "Q17"
      }
    },
    {
      "type": "Feature",
      "geometry": {
        "type": "Point",
        "coordinates": [
          135.858055555,
          34.895277777
        ]
      },
      "properties": {
        "label": "Kisenyama Pumped Storage Power Station",
        "type": "Energy generation station",
        "entity": "http://www.wikidata.org/entity/Q84761754",
        "country_qid": "Q17"
      }
    },
    {
      "type": "Feature",
      "geometry": {
        "type": "Point",
        "coordinates": [
          134.295833333,
          33.803055555
        ]
      },
      "properties": {
        "label": "Q84761699",
        "type": "Energy generation station",
        "entity": "http://www.wikidata.org/entity/Q84761699",
        "country_qid": "Q17"
      }
    },
    {
      "type": "Feature",
      "geometry": {
        "type": "Point",
        "coordinates": [
          139.83908333,
          42.44325
        ]
      },
      "properties": {
        "label": "Setana wind turbines",
        "type": "Energy generation station",
        "entity": "http://www.wikidata.org/entity/Q56026058",
        "country_qid": "Q17"
      }
    },
    {
      "type": "Feature",
      "geometry": {
        "type": "Point",
        "coordinates": [
          141.698611111,
          44.976666666
        ]
      },
      "properties": {
        "label": "Otonrui wind farm",
        "type": "Energy generation station",
        "entity": "http://www.wikidata.org/entity/Q39127748",
        "country_qid": "Q17"
      }
    },
    {
      "type": "Feature",
      "geometry": {
        "type": "Point",
        "coordinates": [
          129.938694,
          32.969306
        ]
      },
      "properties": {
        "label": "Omura Power Plant",
        "type": "Energy generation station",
        "entity": "http://www.wikidata.org/entity/Q11436040",
        "country_qid": "Q17"
      }
    },
    {
      "type": "Feature",
      "geometry": {
        "type": "Point",
        "coordinates": [
          139.71797222,
          35.48386111
        ]
      },
      "properties": {
        "label": "Q22118916",
        "type": "Energy generation station",
        "entity": "http://www.wikidata.org/entity/Q22118916",
        "country_qid": "Q17"
      }
    },
    {
      "type": "Feature",
      "geometry": {
        "type": "Point",
        "coordinates": [
          139.273888888,
          35.603888888
        ]
      },
      "properties": {
        "label": "Shiroyama Pumped Storage Power Station",
        "type": "Energy generation station",
        "entity": "http://www.wikidata.org/entity/Q12000224",
        "country_qid": "Q17"
      }
    },
    {
      "type": "Feature",
      "geometry": {
        "type": "Point",
        "coordinates": [
          139.65222222,
          35.46722222
        ]
      },
      "properties": {
        "label": "Hama Wing",
        "type": "Energy generation station",
        "entity": "http://www.wikidata.org/entity/Q5643921",
        "country_qid": "Q17"
      }
    },
    {
      "type": "Feature",
      "geometry": {
        "type": "Point",
        "coordinates": [
          130.84916667,
          33.90194444
        ]
      },
      "properties": {
        "label": "Q48748852",
        "type": "Energy generation station",
        "entity": "http://www.wikidata.org/entity/Q48748852",
        "country_qid": "Q17"
      }
    },
    {
      "type": "Feature",
      "geometry": {
        "type": "Point",
        "coordinates": [
          141.274166666,
          43.194444444
        ]
      },
      "properties": {
        "label": "Ishikari Bay New Port Power Station",
        "type": "Energy generation station",
        "entity": "http://www.wikidata.org/entity/Q11586875",
        "country_qid": "Q17"
      }
    },
    {
      "type": "Feature",
      "geometry": {
        "type": "Point",
        "coordinates": [
          129.909918,
          31.833497
        ]
      },
      "properties": {
        "label": "Q11574221",
        "type": "Energy generation station",
        "entity": "http://www.wikidata.org/entity/Q11574221",
        "country_qid": "Q17"
      }
    },
    {
      "type": "Feature",
      "geometry": {
        "type": "Point",
        "coordinates": [
          130.5962,
          31.67179167
        ]
      },
      "properties": {
        "label": "Q11570297",
        "type": "Energy generation station",
        "entity": "http://www.wikidata.org/entity/Q11570297",
        "country_qid": "Q17"
      }
    },
    {
      "type": "Feature",
      "geometry": {
        "type": "Point",
        "coordinates": [
          136.01638889,
          35.75444444
        ]
      },
      "properties": {
        "label": "Fugen Nuclear Power Plant",
        "type": "Energy generation station",
        "entity": "http://www.wikidata.org/entity/Q1500817",
        "country_qid": "Q17"
      }
    },
    {
      "type": "Feature",
      "geometry": {
        "type": "Point",
        "coordinates": [
          133.401388888,
          34.821111111
        ]
      },
      "properties": {
        "label": "Shin-Nariwagawa Hydro Power Station",
        "type": "Energy generation station",
        "entity": "http://www.wikidata.org/entity/Q84761735",
        "country_qid": "Q17"
      }
    },
    {
      "type": "Feature",
      "geometry": {
        "type": "Point",
        "coordinates": [
          139.79311111,
          35.70261111
        ]
      },
      "properties": {
        "label": "Q11557232",
        "type": "Energy generation station",
        "entity": "http://www.wikidata.org/entity/Q11557232",
        "country_qid": "Q17"
      }
    },
    {
      "type": "Feature",
      "geometry": {
        "type": "Point",
        "coordinates": [
          133.509444444,
          35.2575
        ]
      },
      "properties": {
        "label": "Matanogawa Pumped Storage Power Station",
        "type": "Energy generation station",
        "entity": "http://www.wikidata.org/entity/Q84761738",
        "country_qid": "Q17"
      }
    },
    {
      "type": "Feature",
      "geometry": {
        "type": "Point",
        "coordinates": [
          141.0325,
          37.42138889
        ]
      },
      "properties": {
        "label": "Fukushima Daiichi Nuclear Power Plant",
        "type": "Energy generation station",
        "entity": "http://www.wikidata.org/entity/Q114295",
        "country_qid": "Q17"
      }
    },
    {
      "type": "Feature",
      "geometry": {
        "type": "Point",
        "coordinates": [
          136.892221944,
          35.090556111
        ]
      },
      "properties": {
        "label": "Q32859434",
        "type": "Energy generation station",
        "entity": "http://www.wikidata.org/entity/Q32859434",
        "country_qid": "Q17"
      }
    },
    {
      "type": "Feature",
      "geometry": {
        "type": "Point",
        "coordinates": [
          140.68875,
          35.94058333
        ]
      },
      "properties": {
        "label": "Kashima Kyodo Power Station",
        "type": "Energy generation station",
        "entity": "http://www.wikidata.org/entity/Q24899350",
        "country_qid": "Q17"
      }
    },
    {
      "type": "Feature",
      "geometry": {
        "type": "Point",
        "coordinates": [
          130.96777778,
          33.97166667
        ]
      },
      "properties": {
        "label": "Q30925646",
        "type": "Energy generation station",
        "entity": "http://www.wikidata.org/entity/Q30925646",
        "country_qid": "Q17"
      }
    },
    {
      "type": "Feature",
      "geometry": {
        "type": "Point",
        "coordinates": [
          129.83722222,
          33.51555556
        ]
      },
      "properties": {
        "label": "Genkai Nuclear Power Plant",
        "type": "Energy generation station",
        "entity": "http://www.wikidata.org/entity/Q1513575",
        "country_qid": "Q17"
      }
    },
    {
      "type": "Feature",
      "geometry": {
        "type": "Point",
        "coordinates": [
          140.046638888,
          37.334444444
        ]
      },
      "properties": {
        "label": "Nunobiki Plateau Wind Farm",
        "type": "Energy generation station",
        "entity": "http://www.wikidata.org/entity/Q1105536",
        "country_qid": "Q17"
      }
    },
    {
      "type": "Feature",
      "geometry": {
        "type": "Point",
        "coordinates": [
          137.15691667,
          35.75886111
        ]
      },
      "properties": {
        "label": "Mazegawa 1 hydro power station",
        "type": "Energy generation station",
        "entity": "http://www.wikidata.org/entity/Q11988796",
        "country_qid": "Q17"
      }
    },
    {
      "type": "Feature",
      "geometry": {
        "type": "Point",
        "coordinates": [
          140.097777777,
          41.793888888
        ]
      },
      "properties": {
        "label": "Q40835627",
        "type": "Energy generation station",
        "entity": "http://www.wikidata.org/entity/Q40835627",
        "country_qid": "Q17"
      }
    },
    {
      "type": "Feature",
      "geometry": {
        "type": "Point",
        "coordinates": [
          138.183333333,
          35.321666666
        ]
      },
      "properties": {
        "label": "Hatanagi-I Dam",
        "type": "Energy generation station",
        "entity": "http://www.wikidata.org/entity/Q3431162",
        "country_qid": "Q17"
      }
    },
    {
      "type": "Feature",
      "geometry": {
        "type": "Point",
        "coordinates": [
          131.35152778,
          32.50627778
        ]
      },
      "properties": {
        "label": "Q84761706",
        "type": "Energy generation station",
        "entity": "http://www.wikidata.org/entity/Q84761706",
        "country_qid": "Q17"
      }
    },
    {
      "type": "Feature",
      "geometry": {
        "type": "Point",
        "coordinates": [
          139.71875,
          35.49913889
        ]
      },
      "properties": {
        "label": "JR East Kawasaki Thermal Power Station",
        "type": "Energy generation station",
        "entity": "http://www.wikidata.org/entity/Q11226273",
        "country_qid": "Q17"
      }
    },
    {
      "type": "Feature",
      "geometry": {
        "type": "Point",
        "coordinates": [
          140.961944444,
          42.940555555
        ]
      },
      "properties": {
        "label": "Kyogoku hydro power station",
        "type": "Energy generation station",
        "entity": "http://www.wikidata.org/entity/Q84761692",
        "country_qid": "Q17"
      }
    },
    {
      "type": "Feature",
      "geometry": {
        "type": "Point",
        "coordinates": [
          140.9825,
          42.357777777
        ]
      },
      "properties": {
        "label": "Q96913561",
        "type": "Energy generation station",
        "entity": "http://www.wikidata.org/entity/Q96913561",
        "country_qid": "Q17"
      }
    },
    {
      "type": "Feature",
      "geometry": {
        "type": "Point",
        "coordinates": [
          139.667754,
          36.831927
        ]
      },
      "properties": {
        "label": "Imaichi Pumped Storage Power Station",
        "type": "Energy generation station",
        "entity": "http://www.wikidata.org/entity/Q48988723",
        "country_qid": "Q17"
      }
    },
    {
      "type": "Feature",
      "geometry": {
        "type": "Point",
        "coordinates": [
          138.76611111,
          36.84361111
        ]
      },
      "properties": {
        "label": "Okukiyotsu Pumped Storage Power Station",
        "type": "Energy generation station",
        "entity": "http://www.wikidata.org/entity/Q19384380",
        "country_qid": "Q17"
      }
    },
    {
      "type": "Feature",
      "geometry": {
        "type": "Point",
        "coordinates": [
          140.60666667,
          36.46638889
        ]
      },
      "properties": {
        "label": "Tōkai Nuclear Power Plant",
        "type": "Energy generation station",
        "entity": "http://www.wikidata.org/entity/Q738945",
        "country_qid": "Q17"
      }
    },
    {
      "type": "Feature",
      "geometry": {
        "type": "Point",
        "coordinates": [
          130.714166666,
          32.420277777
        ]
      },
      "properties": {
        "label": "Ohira Pumped Storage Power Station",
        "type": "Energy generation station",
        "entity": "http://www.wikidata.org/entity/Q84761703",
        "country_qid": "Q17"
      }
    },
    {
      "type": "Feature",
      "geometry": {
        "type": "Point",
        "coordinates": [
          141.677222222,
          44.258055555
        ]
      },
      "properties": {
        "label": "Q39128817",
        "type": "Energy generation station",
        "entity": "http://www.wikidata.org/entity/Q39128817",
        "country_qid": "Q17"
      }
    },
    {
      "type": "Feature",
      "geometry": {
        "type": "Point",
        "coordinates": [
          137.63736111,
          35.82213889
        ]
      },
      "properties": {
        "label": "Міо Hydro Power Station",
        "type": "Energy generation station",
        "entity": "http://www.wikidata.org/entity/Q65197078",
        "country_qid": "Q17"
      }
    },
    {
      "type": "Feature",
      "geometry": {
        "type": "Point",
        "coordinates": [
          128.265556,
          26.673611
        ]
      },
      "properties": {
        "label": "Okinawa Yanbaru Seawater Pumped Storage Power Station",
        "type": "Energy generation station",
        "entity": "http://www.wikidata.org/entity/Q1508094",
        "country_qid": "Q17"
      }
    },
    {
      "type": "Feature",
      "geometry": {
        "type": "Point",
        "coordinates": [
          137.719444444,
          36.132777777
        ]
      },
      "properties": {
        "label": "Azumi hydro power station",
        "type": "Energy generation station",
        "entity": "http://www.wikidata.org/entity/Q84762446",
        "country_qid": "Q17"
      }
    },
    {
      "type": "Feature",
      "geometry": {
        "type": "Point",
        "coordinates": [
          130.420306,
          33.01225
        ]
      },
      "properties": {
        "label": "Minato Power Plant",
        "type": "Energy generation station",
        "entity": "http://www.wikidata.org/entity/Q11563102",
        "country_qid": "Q17"
      }
    },
    {
      "type": "Feature",
      "geometry": {
        "type": "Point",
        "coordinates": [
          139.04,
          36.801944444
        ]
      },
      "properties": {
        "label": "Tamahara Pumped Storage Station",
        "type": "Energy generation station",
        "entity": "http://www.wikidata.org/entity/Q84762438",
        "country_qid": "Q17"
      }
    },
    {
      "type": "Feature",
      "geometry": {
        "type": "Point",
        "coordinates": [
          136.661193,
          35.735374
        ]
      },
      "properties": {
        "label": "Okumino Pumped Storage Power Station",
        "type": "Energy generation station",
        "entity": "http://www.wikidata.org/entity/Q19384382",
        "country_qid": "Q17"
      }
    },
    {
      "type": "Feature",
      "geometry": {
        "type": "Point",
        "coordinates": [
          135.9747416,
          34.0407605
        ]
      },
      "properties": {
        "label": "Ikehara hydro power station",
        "type": "Energy generation station",
        "entity": "http://www.wikidata.org/entity/Q11976922",
        "country_qid": "Q17"
      }
    },
    {
      "type": "Feature",
      "geometry": {
        "type": "Point",
        "coordinates": [
          136.86583333,
          35.09027778
        ]
      },
      "properties": {
        "label": "Q32859438",
        "type": "Energy generation station",
        "entity": "http://www.wikidata.org/entity/Q32859438",
        "country_qid": "Q17"
      }
    },
    {
      "type": "Feature",
      "geometry": {
        "type": "Point",
        "coordinates": [
          137.689722222,
          36.473888888
        ]
      },
      "properties": {
        "label": "Shin-Takasegawa Pumped Storage Station",
        "type": "Energy generation station",
        "entity": "http://www.wikidata.org/entity/Q1161509",
        "country_qid": "Q17"
      }
    },
    {
      "type": "Feature",
      "geometry": {
        "type": "Point",
        "coordinates": [
          132.54538889,
          33.04333333
        ]
      },
      "properties": {
        "label": "Q23442095",
        "type": "Energy generation station",
        "entity": "http://www.wikidata.org/entity/Q23442095",
        "country_qid": "Q17"
      }
    },
    {
      "type": "Feature",
      "geometry": {
        "type": "Point",
        "coordinates": [
          136.02083333,
          35.75222222
        ]
      },
      "properties": {
        "label": "Tsuruga Nuclear Power Plant",
        "type": "Energy generation station",
        "entity": "http://www.wikidata.org/entity/Q1623116",
        "country_qid": "Q17"
      }
    },
    {
      "type": "Feature",
      "geometry": {
        "type": "Point",
        "coordinates": [
          139.8675,
          36.990833333
        ]
      },
      "properties": {
        "label": "Shiobara Pumped Storage Plant",
        "type": "Energy generation station",
        "entity": "http://www.wikidata.org/entity/Q12000225",
        "country_qid": "Q17"
      }
    },
    {
      "type": "Feature",
      "geometry": {
        "type": "Point",
        "coordinates": [
          139.80816667,
          35.60377778
        ]
      },
      "properties": {
        "label": "Q11525116",
        "type": "Energy generation station",
        "entity": "http://www.wikidata.org/entity/Q11525116",
        "country_qid": "Q17"
      }
    },
    {
      "type": "Feature",
      "geometry": {
        "type": "Point",
        "coordinates": [
          140.91027778,
          41.50972222
        ]
      },
      "properties": {
        "label": "Ōma Nuclear Power Plant",
        "type": "Energy generation station",
        "entity": "http://www.wikidata.org/entity/Q935091",
        "country_qid": "Q17"
      }
    },
    {
      "type": "Feature",
      "geometry": {
        "type": "Point",
        "coordinates": [
          138.56666667,
          35.58333333
        ]
      },
      "properties": {
        "label": "Komekurayama Solar Power Plant",
        "type": "Energy generation station",
        "entity": "http://www.wikidata.org/entity/Q6428293",
        "country_qid": "Q17"
      }
    },
    {
      "type": "Feature",
      "geometry": {
        "type": "Point",
        "coordinates": [
          139.822972222,
          38.969
        ]
      },
      "properties": {
        "label": "Q17992036",
        "type": "Energy generation station",
        "entity": "http://www.wikidata.org/entity/Q17992036",
        "country_qid": "Q17"
      }
    },
    {
      "type": "Feature",
      "geometry": {
        "type": "Point",
        "coordinates": [
          133.44205556,
          34.47941667
        ]
      },
      "properties": {
        "label": "Fukuyama Joint Power Station",
        "type": "Energy generation station",
        "entity": "http://www.wikidata.org/entity/Q11592010",
        "country_qid": "Q17"
      }
    },
    {
      "type": "Feature",
      "geometry": {
        "type": "Point",
        "coordinates": [
          133.842778,
          34.342778
        ]
      },
      "properties": {
        "label": "Sakaide Power Plant",
        "type": "Energy generation station",
        "entity": "http://www.wikidata.org/entity/Q11425010",
        "country_qid": "Q17"
      }
    },
    {
      "type": "Feature",
      "geometry": {
        "type": "Point",
        "coordinates": [
          130.110555555,
          33.339444444
        ]
      },
      "properties": {
        "label": "Tianshan Pumped Storage Power Station",
        "type": "Energy generation station",
        "entity": "http://www.wikidata.org/entity/Q84761701",
        "country_qid": "Q17"
      }
    },
    {
      "type": "Feature",
      "geometry": {
        "type": "Point",
        "coordinates": [
          139.72722222,
          35.48861111
        ]
      },
      "properties": {
        "label": "Ogishima Solar Power Plant",
        "type": "Energy generation station",
        "entity": "http://www.wikidata.org/entity/Q7080072",
        "country_qid": "Q17"
      }
    },
    {
      "type": "Feature",
      "geometry": {
        "type": "Point",
        "coordinates": [
          131.648028,
          33.268722
        ]
      },
      "properties": {
        "label": "Q11432654",
        "type": "Energy generation station",
        "entity": "http://www.wikidata.org/entity/Q11432654",
        "country_qid": "Q17"
      }
    },
    {
      "type": "Feature",
      "geometry": {
        "type": "Point",
        "coordinates": [
          131.70758333,
          33.26725
        ]
      },
      "properties": {
        "label": "Shin-Oita Power Plant",
        "type": "Energy generation station",
        "entity": "http://www.wikidata.org/entity/Q11501652",
        "country_qid": "Q17"
      }
    },
    {
      "type": "Feature",
      "geometry": {
        "type": "Point",
        "coordinates": [
          139.9044195,
          37.1003356
        ]
      },
      "properties": {
        "label": "Numappara Pumped Storage Power Station",
        "type": "Energy generation station",
        "entity": "http://www.wikidata.org/entity/Q11992741",
        "country_qid": "Q17"
      }
    },
    {
      "type": "Feature",
      "geometry": {
        "type": "Point",
        "coordinates": [
          140.075916666,
          41.428694444
        ]
      },
      "properties": {
        "label": "Q96912595",
        "type": "Energy generation station",
        "entity": "http://www.wikidata.org/entity/Q96912595",
        "country_qid": "Q17"
      }
    },
    {
      "type": "Feature",
      "geometry": {
        "type": "Point",
        "coordinates": [
          138.601666666,
          37.428333333
        ]
      },
      "properties": {
        "label": "Kashiwazaki-Kariwa Nuclear Power Plant",
        "type": "Energy generation station",
        "entity": "http://www.wikidata.org/entity/Q725100",
        "country_qid": "Q17"
      }
    },
    {
      "type": "Feature",
      "geometry": {
        "type": "Point",
        "coordinates": [
          138.1425,
          34.62361111
        ]
      },
      "properties": {
        "label": "Hamaoka Nuclear Power Plant",
        "type": "Energy generation station",
        "entity": "http://www.wikidata.org/entity/Q995979",
        "country_qid": "Q17"
      }
    },
    {
      "type": "Feature",
      "geometry": {
        "type": "Point",
        "coordinates": [
          140.519722,
          43.04
        ]
      },
      "properties": {
        "label": "Q114444746",
        "type": "Energy generation station",
        "entity": "http://www.wikidata.org/entity/Q114444746",
        "country_qid": "Q17"
      }
    },
    {
      "type": "Feature",
      "geometry": {
        "type": "Point",
        "coordinates": [
          141.8175,
          45.37
        ]
      },
      "properties": {
        "label": "Tenpoku Wind Farm",
        "type": "Energy generation station",
        "entity": "http://www.wikidata.org/entity/Q57537242",
        "country_qid": "Q17"
      }
    },
    {
      "type": "Feature",
      "geometry": {
        "type": "Point",
        "coordinates": [
          138.261833,
          37.981917
        ]
      },
      "properties": {
        "label": "Q11582005",
        "type": "Energy generation station",
        "entity": "http://www.wikidata.org/entity/Q11582005",
        "country_qid": "Q17"
      }
    },
    {
      "type": "Feature",
      "geometry": {
        "type": "Point",
        "coordinates": [
          134.88111111,
          35.2375
        ]
      },
      "properties": {
        "label": "Okutataragi Pumped Storage Power Station",
        "type": "Energy generation station",
        "entity": "http://www.wikidata.org/entity/Q949237",
        "country_qid": "Q17"
      }
    },
    {
      "type": "Feature",
      "geometry": {
        "type": "Point",
        "coordinates": [
          137.78913889,
          35.13172222
        ]
      },
      "properties": {
        "label": "Shintoyone Pumped Storage Power Station",
        "type": "Energy generation station",
        "entity": "http://www.wikidata.org/entity/Q28154419",
        "country_qid": "Q17"
      }
    },
    {
      "type": "Feature",
      "geometry": {
        "type": "Point",
        "coordinates": [
          139.056111111,
          36.910833333
        ]
      },
      "properties": {
        "label": "Yagisawa hydro power station",
        "type": "Energy generation station",
        "entity": "http://www.wikidata.org/entity/Q12010921",
        "country_qid": "Q17"
      }
    },
    {
      "type": "Feature",
      "geometry": {
        "type": "Point",
        "coordinates": [
          132.224214,
          33.435645
        ]
      },
      "properties": {
        "label": "Q11383360",
        "type": "Energy generation station",
        "entity": "http://www.wikidata.org/entity/Q11383360",
        "country_qid": "Q17"
      }
    },
    {
      "type": "Feature",
      "geometry": {
        "type": "Point",
        "coordinates": [
          141.65986111,
          42.63844444
        ]
      },
      "properties": {
        "label": "Tomakomai Joint Thermal Power Station",
        "type": "Energy generation station",
        "entity": "http://www.wikidata.org/entity/Q24899357",
        "country_qid": "Q17"
      }
    },
    {
      "type": "Feature",
      "geometry": {
        "type": "Point",
        "coordinates": [
          141.661944444,
          44.246666666
        ]
      },
      "properties": {
        "label": "Q39128174",
        "type": "Energy generation station",
        "entity": "http://www.wikidata.org/entity/Q39128174",
        "country_qid": "Q17"
      }
    },
    {
      "type": "Feature",
      "geometry": {
        "type": "Point",
        "coordinates": [
          134.675917,
          34.289667
        ]
      },
      "properties": {
        "label": "Q17209222",
        "type": "Energy generation station",
        "entity": "http://www.wikidata.org/entity/Q17209222",
        "country_qid": "Q17"
      }
    },
    {
      "type": "Feature",
      "geometry": {
        "type": "Point",
        "coordinates": [
          130.18972222,
          31.83388889
        ]
      },
      "properties": {
        "label": "Sendai Nuclear Power Plant",
        "type": "Energy generation station",
        "entity": "http://www.wikidata.org/entity/Q1735730",
        "country_qid": "Q17"
      }
    },
    {
      "type": "Feature",
      "geometry": {
        "type": "Point",
        "coordinates": [
          137.49130556,
          36.03519444
        ]
      },
      "properties": {
        "label": "Takane 1 hydro power station",
        "type": "Energy generation station",
        "entity": "http://www.wikidata.org/entity/Q65196185",
        "country_qid": "Q17"
      }
    },
    {
      "type": "Feature",
      "geometry": {
        "type": "Point",
        "coordinates": [
          142.638,
          42.4578
        ]
      },
      "properties": {
        "label": "Takami Dam",
        "type": "Energy generation station",
        "entity": "http://www.wikidata.org/entity/Q7677141",
        "country_qid": "Q17"
      }
    },
    {
      "type": "Feature",
      "geometry": {
        "type": "Point",
        "coordinates": [
          140.568944444,
          38.986361111
        ]
      },
      "properties": {
        "label": "Q113461085",
        "type": "Energy generation station",
        "entity": "http://www.wikidata.org/entity/Q113461085",
        "country_qid": "Q17"
      }
    },
    {
      "type": "Feature",
      "geometry": {
        "type": "Point",
        "coordinates": [
          132.223333333,
          33.435555555
        ]
      },
      "properties": {
        "label": "Seto Windhill",
        "type": "Energy generation station",
        "entity": "http://www.wikidata.org/entity/Q9076551",
        "country_qid": "Q17"
      }
    },
    {
      "type": "Feature",
      "geometry": {
        "type": "Point",
        "coordinates": [
          135.82111111,
          34.11777778
        ]
      },
      "properties": {
        "label": "Okuyoshino Pumped Storage Power Station",
        "type": "Energy generation station",
        "entity": "http://www.wikidata.org/entity/Q7082785",
        "country_qid": "Q17"
      }
    },
    {
      "type": "Feature",
      "geometry": {
        "type": "Point",
        "coordinates": [
          134.7148408,
          35.1281691
        ]
      },
      "properties": {
        "label": "Okawachi Pumped Storage Power Station",
        "type": "Energy generation station",
        "entity": "http://www.wikidata.org/entity/Q11444075",
        "country_qid": "Q17"
      }
    },
    {
      "type": "Feature",
      "geometry": {
        "type": "Point",
        "coordinates": [
          135.963415,
          35.70243
        ]
      },
      "properties": {
        "label": "Mihama Nuclear Power Plant",
        "type": "Energy generation station",
        "entity": "http://www.wikidata.org/entity/Q384685",
        "country_qid": "Q17"
      }
    },
    {
      "type": "Feature",
      "geometry": {
        "type": "Point",
        "coordinates": [
          136.68722222,
          35.89225
        ]
      },
      "properties": {
        "label": "Nagano hydro power station",
        "type": "Energy generation station",
        "entity": "http://www.wikidata.org/entity/Q65196182",
        "country_qid": "Q17"
      }
    },
    {
      "type": "Feature",
      "geometry": {
        "type": "Point",
        "coordinates": [
          140.76241667,
          35.83491667
        ]
      },
      "properties": {
        "label": "Hasaki Wind Farm",
        "type": "Energy generation station",
        "entity": "http://www.wikidata.org/entity/Q11555520",
        "country_qid": "Q17"
      }
    },
    {
      "type": "Feature",
      "geometry": {
        "type": "Point",
        "coordinates": [
          140.970555555,
          42.412222222
        ]
      },
      "properties": {
        "label": "Q41958363",
        "type": "Energy generation station",
        "entity": "http://www.wikidata.org/entity/Q41958363",
        "country_qid": "Q17"
      }
    },
    {
      "type": "Feature",
      "geometry": {
        "type": "Point",
        "coordinates": [
          138.92972222,
          35.71861111
        ]
      },
      "properties": {
        "label": "Kazunogawa Pumped Storage Power Station",
        "type": "Energy generation station",
        "entity": "http://www.wikidata.org/entity/Q4563495",
        "country_qid": "Q17"
      }
    },
    {
      "type": "Feature",
      "geometry": {
        "type": "Point",
        "coordinates": [
          135.1055,
          35.082416666
        ]
      },
      "properties": {
        "label": "Kamitaki Power Station",
        "type": "Energy generation station",
        "entity": "http://www.wikidata.org/entity/Q93427692",
        "country_qid": "Q17"
      }
    },
    {
      "type": "Feature",
      "geometry": {
        "type": "Point",
        "coordinates": [
          133.71911111,
          34.48975
        ]
      },
      "properties": {
        "label": "Kurashiki Joint Power Station",
        "type": "Energy generation station",
        "entity": "http://www.wikidata.org/entity/Q11386683",
        "country_qid": "Q17"
      }
    },
    {
      "type": "Feature",
      "geometry": {
        "type": "Point",
        "coordinates": [
          133.340833333,
          33.765
        ]
      },
      "properties": {
        "label": "Honkawa hydro power station",
        "type": "Energy generation station",
        "entity": "http://www.wikidata.org/entity/Q84761700",
        "country_qid": "Q17"
      }
    },
    {
      "type": "Feature",
      "geometry": {
        "type": "Point",
        "coordinates": [
          140.614056,
          36.436306
        ]
      },
      "properties": {
        "label": "Hitachinaka Thermal Power Station",
        "type": "Energy generation station",
        "entity": "http://www.wikidata.org/entity/Q11481720",
        "country_qid": "Q17"
      }
    },
    {
      "type": "Feature",
      "geometry": {
        "type": "Point",
        "coordinates": [
          137.128,
          36.76508333
        ]
      },
      "properties": {
        "label": "Toyama Shinko Thermal Power Plant",
        "type": "Energy generation station",
        "entity": "http://www.wikidata.org/entity/Q11456426",
        "country_qid": "Q17"
      }
    },
    {
      "type": "Feature",
      "geometry": {
        "type": "Point",
        "coordinates": [
          141.538194444,
          43.119888888
        ]
      },
      "properties": {
        "label": "Q11550641",
        "type": "Energy generation station",
        "entity": "http://www.wikidata.org/entity/Q11550641",
        "country_qid": "Q17"
      }
    },
    {
      "type": "Feature",
      "geometry": {
        "type": "Point",
        "coordinates": [
          133.168611,
          33.931389
        ]
      },
      "properties": {
        "label": "Saijo Power Station",
        "type": "Energy generation station",
        "entity": "http://www.wikidata.org/entity/Q11628727",
        "country_qid": "Q17"
      }
    },
    {
      "type": "Feature",
      "geometry": {
        "type": "Point",
        "coordinates": [
          127.87527778,
          26.38036111
        ]
      },
      "properties": {
        "label": "Gushikawa Thermal Power Plant",
        "type": "Energy generation station",
        "entity": "http://www.wikidata.org/entity/Q11393739",
        "country_qid": "Q17"
      }
    },
    {
      "type": "Feature",
      "geometry": {
        "type": "Point",
        "coordinates": [
          137.006111,
          37.065833
        ]
      },
      "properties": {
        "label": "Nanao-Ohta Thermal Power Plant",
        "type": "Energy generation station",
        "entity": "http://www.wikidata.org/entity/Q11353482",
        "country_qid": "Q17"
      }
    },
    {
      "type": "Feature",
      "geometry": {
        "type": "Point",
        "coordinates": [
          140.945556,
          37.843056
        ]
      },
      "properties": {
        "label": "Shinchi Power Station",
        "type": "Energy generation station",
        "entity": "http://www.wikidata.org/entity/Q11501532",
        "country_qid": "Q17"
      }
    },
    {
      "type": "Feature",
      "geometry": {
        "type": "Point",
        "coordinates": [
          133.746353,
          34.508186
        ]
      },
      "properties": {
        "label": "Mizushima Power Station",
        "type": "Energy generation station",
        "entity": "http://www.wikidata.org/entity/Q11548505",
        "country_qid": "Q17"
      }
    },
    {
      "type": "Feature",
      "geometry": {
        "type": "Point",
        "coordinates": [
          141.843583,
          43.421778
        ]
      },
      "properties": {
        "label": "Naie Power Station",
        "type": "Energy generation station",
        "entity": "http://www.wikidata.org/entity/Q11444936",
        "country_qid": "Q17"
      }
    },
    {
      "type": "Feature",
      "geometry": {
        "type": "Point",
        "coordinates": [
          141.805889,
          42.61275
        ]
      },
      "properties": {
        "label": "Tomatō-Atsuma Power Plant",
        "type": "Energy generation station",
        "entity": "http://www.wikidata.org/entity/Q11616843",
        "country_qid": "Q17"
      }
    },
    {
      "type": "Feature",
      "geometry": {
        "type": "Point",
        "coordinates": [
          140.81416667,
          36.91083333
        ]
      },
      "properties": {
        "label": "Nakoso Thermal Power Station",
        "type": "Energy generation station",
        "entity": "http://www.wikidata.org/entity/Q11400648",
        "country_qid": "Q17"
      }
    },
    {
      "type": "Feature",
      "geometry": {
        "type": "Point",
        "coordinates": [
          134.65525,
          33.86608333
        ]
      },
      "properties": {
        "label": "Tachibanawan Power Station",
        "type": "Energy generation station",
        "entity": "http://www.wikidata.org/entity/Q11544323",
        "country_qid": "Q17"
      }
    },
    {
      "type": "Feature",
      "geometry": {
        "type": "Point",
        "coordinates": [
          136.962194,
          34.835278
        ]
      },
      "properties": {
        "label": "Hekinan Thermal Power Station",
        "type": "Energy generation station",
        "entity": "http://www.wikidata.org/entity/Q11587776",
        "country_qid": "Q17"
      }
    },
    {
      "type": "Feature",
      "geometry": {
        "type": "Point",
        "coordinates": [
          131.920689,
          34.779442
        ]
      },
      "properties": {
        "label": "Misumi Power Station",
        "type": "Energy generation station",
        "entity": "http://www.wikidata.org/entity/Q11358287",
        "country_qid": "Q17"
      }
    },
    {
      "type": "Feature",
      "geometry": {
        "type": "Point",
        "coordinates": [
          129.683917,
          33.349778
        ]
      },
      "properties": {
        "label": "Matsuura Power Station",
        "type": "Energy generation station",
        "entity": "http://www.wikidata.org/entity/Q11531849",
        "country_qid": "Q17"
      }
    },
    {
      "type": "Feature",
      "geometry": {
        "type": "Point",
        "coordinates": [
          139.833056,
          38.969444
        ]
      },
      "properties": {
        "label": "Sakata Kyodo Thermal Power Station",
        "type": "Energy generation station",
        "entity": "http://www.wikidata.org/entity/Q11644345",
        "country_qid": "Q17"
      }
    },
    {
      "type": "Feature",
      "geometry": {
        "type": "Point",
        "coordinates": [
          129.597528,
          32.939995
        ]
      },
      "properties": {
        "label": "Matsushima Thermal Power Station",
        "type": "Energy generation station",
        "entity": "http://www.wikidata.org/entity/Q11530157",
        "country_qid": "Q17"
      }
    },
    {
      "type": "Feature",
      "geometry": {
        "type": "Point",
        "coordinates": [
          136.926647,
          34.844047
        ]
      },
      "properties": {
        "label": "Q11364104",
        "type": "Energy generation station",
        "entity": "http://www.wikidata.org/entity/Q11364104",
        "country_qid": "Q17"
      }
    },
    {
      "type": "Feature",
      "geometry": {
        "type": "Point",
        "coordinates": [
          140.68986111,
          35.94761111
        ]
      },
      "properties": {
        "label": "Nippon Steel Kashima Power Plant",
        "type": "Energy generation station",
        "entity": "http://www.wikidata.org/entity/Q11502450",
        "country_qid": "Q17"
      }
    },
    {
      "type": "Feature",
      "geometry": {
        "type": "Point",
        "coordinates": [
          131.164194,
          33.969278
        ]
      },
      "properties": {
        "label": "Shin Onoda Power Station",
        "type": "Energy generation station",
        "entity": "http://www.wikidata.org/entity/Q11501915",
        "country_qid": "Q17"
      }
    },
    {
      "type": "Feature",
      "geometry": {
        "type": "Point",
        "coordinates": [
          139.641583,
          35.40325
        ]
      },
      "properties": {
        "label": "Isogo Thermal Power Station",
        "type": "Energy generation station",
        "entity": "http://www.wikidata.org/entity/Q11587960",
        "country_qid": "Q17"
      }
    },
    {
      "type": "Feature",
      "geometry": {
        "type": "Point",
        "coordinates": [
          130.741444,
          33.92725
        ]
      },
      "properties": {
        "label": "Wakamatsu Thermal Power Station",
        "type": "Energy generation station",
        "entity": "http://www.wikidata.org/entity/Q11616420",
        "country_qid": "Q17"
      }
    },
    {
      "type": "Feature",
      "geometry": {
        "type": "Point",
        "coordinates": [
          130.041972,
          32.485944
        ]
      },
      "properties": {
        "label": "Reihoku Power Station",
        "type": "Energy generation station",
        "entity": "http://www.wikidata.org/entity/Q11616103",
        "country_qid": "Q17"
      }
    },
    {
      "type": "Feature",
      "geometry": {
        "type": "Point",
        "coordinates": [
          132.960306,
          34.337611
        ]
      },
      "properties": {
        "label": "Takehara Thermal Power Station",
        "type": "Energy generation station",
        "entity": "http://www.wikidata.org/entity/Q11599035",
        "country_qid": "Q17"
      }
    },
    {
      "type": "Feature",
      "geometry": {
        "type": "Point",
        "coordinates": [
          135.342417,
          35.526
        ]
      },
      "properties": {
        "label": "Maizuru Power Station",
        "type": "Energy generation station",
        "entity": "http://www.wikidata.org/entity/Q11613727",
        "country_qid": "Q17"
      }
    },
    {
      "type": "Feature",
      "geometry": {
        "type": "Point",
        "coordinates": [
          135.240917,
          34.703222
        ]
      },
      "properties": {
        "label": "Kobelco Power Kobe",
        "type": "Energy generation station",
        "entity": "http://www.wikidata.org/entity/Q11591002",
        "country_qid": "Q17"
      }
    },
    {
      "type": "Feature",
      "geometry": {
        "type": "Point",
        "coordinates": [
          129.691472,
          33.355
        ]
      },
      "properties": {
        "label": "Matsuura Thermal Power Station",
        "type": "Energy generation station",
        "entity": "http://www.wikidata.org/entity/Q11531844",
        "country_qid": "Q17"
      }
    },
    {
      "type": "Feature",
      "geometry": {
        "type": "Point",
        "coordinates": [
          130.42472222,
          33.64444444
        ]
      },
      "properties": {
        "label": "Q11415405",
        "type": "Energy generation station",
        "entity": "http://www.wikidata.org/entity/Q11415405",
        "country_qid": "Q17"
      }
    },
    {
      "type": "Feature",
      "geometry": {
        "type": "Point",
        "coordinates": [
          141.890889,
          43.463889
        ]
      },
      "properties": {
        "label": "Sunagawa Power Station",
        "type": "Energy generation station",
        "entity": "http://www.wikidata.org/entity/Q11587433",
        "country_qid": "Q17"
      }
    },
    {
      "type": "Feature",
      "geometry": {
        "type": "Point",
        "coordinates": [
          134.766333,
          34.754194
        ]
      },
      "properties": {
        "label": "Takasago Thermal Power Station",
        "type": "Energy generation station",
        "entity": "http://www.wikidata.org/entity/Q11672631",
        "country_qid": "Q17"
      }
    },
    {
      "type": "Feature",
      "geometry": {
        "type": "Point",
        "coordinates": [
          139.716,
          35.2156
        ]
      },
      "properties": {
        "label": "Yokosuka Thermal Power Station",
        "type": "Energy generation station",
        "entity": "http://www.wikidata.org/entity/Q8054676",
        "country_qid": "Q17"
      }
    },
    {
      "type": "Feature",
      "geometry": {
        "type": "Point",
        "coordinates": [
          127.841194,
          26.431333
        ]
      },
      "properties": {
        "label": "Ishikawa Coal Thermal Power Station",
        "type": "Energy generation station",
        "entity": "http://www.wikidata.org/entity/Q11586290",
        "country_qid": "Q17"
      }
    },
    {
      "type": "Feature",
      "geometry": {
        "type": "Point",
        "coordinates": [
          130.847583,
          33.926833
        ]
      },
      "properties": {
        "label": "Tobata Kyodo Thermal Power Station",
        "type": "Energy generation station",
        "entity": "http://www.wikidata.org/entity/Q11496579",
        "country_qid": "Q17"
      }
    },
    {
      "type": "Feature",
      "geometry": {
        "type": "Point",
        "coordinates": [
          134.651444,
          33.856278
        ]
      },
      "properties": {
        "label": "Tachibanawan Thermal Power Station",
        "type": "Energy generation station",
        "entity": "http://www.wikidata.org/entity/Q11544322",
        "country_qid": "Q17"
      }
    },
    {
      "type": "Feature",
      "geometry": {
        "type": "Point",
        "coordinates": [
          130.99733333,
          33.7865
        ]
      },
      "properties": {
        "label": "Kanda Power Station",
        "type": "Energy generation station",
        "entity": "http://www.wikidata.org/entity/Q11616079",
        "country_qid": "Q17"
      }
    },
    {
      "type": "Feature",
      "geometry": {
        "type": "Point",
        "coordinates": [
          131.209444,
          33.954417
        ]
      },
      "properties": {
        "label": "Q11501709",
        "type": "Energy generation station",
        "entity": "http://www.wikidata.org/entity/Q11501709",
        "country_qid": "Q17"
      }
    },
    {
      "type": "Feature",
      "geometry": {
        "type": "Point",
        "coordinates": [
          141.018333,
          37.666111
        ]
      },
      "properties": {
        "label": "Haramachi Thermal Power Station",
        "type": "Energy generation station",
        "entity": "http://www.wikidata.org/entity/Q11409986",
        "country_qid": "Q17"
      }
    },
    {
      "type": "Feature",
      "geometry": {
        "type": "Point",
        "coordinates": [
          127.92094421,
          26.44524956
        ]
      },
      "properties": {
        "label": "Kin Thermal Power Plant",
        "type": "Energy generation station",
        "entity": "http://www.wikidata.org/entity/Q11647327",
        "country_qid": "Q17"
      }
    },
    {
      "type": "Feature",
      "geometry": {
        "type": "Point",
        "coordinates": [
          132.871203,
          34.260461
        ]
      },
      "properties": {
        "label": "Osaki Power Station",
        "type": "Energy generation station",
        "entity": "http://www.wikidata.org/entity/Q11435058",
        "country_qid": "Q17"
      }
    },
    {
      "type": "Feature",
      "geometry": {
        "type": "Point",
        "coordinates": [
          136.078528,
          35.672917
        ]
      },
      "properties": {
        "label": "Tsuruga Thermal Power Plant",
        "type": "Energy generation station",
        "entity": "http://www.wikidata.org/entity/Q11499552",
        "country_qid": "Q17"
      }
    },
    {
      "type": "Feature",
      "geometry": {
        "type": "Point",
        "coordinates": [
          137.850985,
          37.0281449
        ]
      },
      "properties": {
        "label": "Q11604889",
        "type": "Energy generation station",
        "entity": "http://www.wikidata.org/entity/Q11604889",
        "country_qid": "Q17"
      }
    },
    {
      "type": "Feature",
      "geometry": {
        "type": "Point",
        "coordinates": [
          139.993611,
          40.191389
        ]
      },
      "properties": {
        "label": "Noshiro Thermal Power Station",
        "type": "Energy generation station",
        "entity": "http://www.wikidata.org/entity/Q11611899",
        "country_qid": "Q17"
      }
    },
    {
      "type": "Feature",
      "geometry": {
        "type": "Point",
        "coordinates": [
          136.83036111,
          35.03302778
        ]
      },
      "properties": {
        "label": "Nishi-Nagoya Thermal Power Station",
        "type": "Energy generation station",
        "entity": "http://www.wikidata.org/entity/Q11627411",
        "country_qid": "Q17"
      }
    },
    {
      "type": "Feature",
      "geometry": {
        "type": "Point",
        "coordinates": [
          141.073444,
          38.317139
        ]
      },
      "properties": {
        "label": "Sendai Thermal Power Station",
        "type": "Energy generation station",
        "entity": "http://www.wikidata.org/entity/Q11378031",
        "country_qid": "Q17"
      }
    },
    {
      "type": "Feature",
      "geometry": {
        "type": "Point",
        "coordinates": [
          139.74524,
          35.49567
        ]
      },
      "properties": {
        "label": "Higashi-Ohgishima Thermal Power Station",
        "type": "Energy generation station",
        "entity": "http://www.wikidata.org/entity/Q11527051",
        "country_qid": "Q17"
      }
    },
    {
      "type": "Feature",
      "geometry": {
        "type": "Point",
        "coordinates": [
          140.705955,
          39.688308
        ]
      },
      "properties": {
        "label": "Obonai Power Station",
        "type": "Energy generation station",
        "entity": "http://www.wikidata.org/entity/Q20042959",
        "country_qid": "Q17"
      }
    },
    {
      "type": "Feature",
      "geometry": {
        "type": "Point",
        "coordinates": [
          139.83388889,
          35.34305556
        ]
      },
      "properties": {
        "label": "Futtsu Power Station",
        "type": "Energy generation station",
        "entity": "http://www.wikidata.org/entity/Q2944667",
        "country_qid": "Q17"
      }
    },
    {
      "type": "Feature",
      "geometry": {
        "type": "Point",
        "coordinates": [
          140.01666667,
          35.485
        ]
      },
      "properties": {
        "label": "Anegasaki Power Station",
        "type": "Energy generation station",
        "entity": "http://www.wikidata.org/entity/Q575395",
        "country_qid": "Q17"
      }
    },
    {
      "type": "Feature",
      "geometry": {
        "type": "Point",
        "coordinates": [
          140.67944444,
          36.7775
        ]
      },
      "properties": {
        "label": "Ishioka Daiichi Power Plant",
        "type": "Energy generation station",
        "entity": "http://www.wikidata.org/entity/Q21655258",
        "country_qid": "Q17"
      }
    },
    {
      "type": "Feature",
      "geometry": {
        "type": "Point",
        "coordinates": [
          135.404861,
          34.617694
        ]
      },
      "properties": {
        "label": "Nanko Power Station",
        "type": "Energy generation station",
        "entity": "http://www.wikidata.org/entity/Q11408221",
        "country_qid": "Q17"
      }
    },
    {
      "type": "Feature",
      "geometry": {
        "type": "Point",
        "coordinates": [
          136.68888889,
          35.00694444
        ]
      },
      "properties": {
        "label": "Kawagoe Power Station",
        "type": "Energy generation station",
        "entity": "http://www.wikidata.org/entity/Q2944681",
        "country_qid": "Q17"
      }
    },
    {
      "type": "Feature",
      "geometry": {
        "type": "Point",
        "coordinates": [
          140.072209803,
          35.546668279
        ]
      },
      "properties": {
        "label": "Goi Thermal Power Station",
        "type": "Energy generation station",
        "entity": "http://www.wikidata.org/entity/Q11371991",
        "country_qid": "Q17"
      }
    },
    {
      "type": "Feature",
      "geometry": {
        "type": "Point",
        "coordinates": [
          139.679,
          35.4739
        ]
      },
      "properties": {
        "label": "Yokohama Power Station",
        "type": "Energy generation station",
        "entity": "http://www.wikidata.org/entity/Q11543225",
        "country_qid": "Q17"
      }
    },
    {
      "type": "Feature",
      "geometry": {
        "type": "Point",
        "coordinates": [
          135.440444,
          34.567722
        ]
      },
      "properties": {
        "label": "Sakaiko Power Station",
        "type": "Energy generation station",
        "entity": "http://www.wikidata.org/entity/Q11428311",
        "country_qid": "Q17"
      }
    },
    {
      "type": "Feature",
      "geometry": {
        "type": "Point",
        "coordinates": [
          136.877353,
          35.066421
        ]
      },
      "properties": {
        "label": "Shin-Nagoya Thermal Power Station",
        "type": "Energy generation station",
        "entity": "http://www.wikidata.org/entity/Q11501484",
        "country_qid": "Q17"
      }
    },
    {
      "type": "Feature",
      "geometry": {
        "type": "Point",
        "coordinates": [
          139.75577778,
          35.62058333
        ]
      },
      "properties": {
        "label": "Shinagawa Thermal Power Station",
        "type": "Energy generation station",
        "entity": "http://www.wikidata.org/entity/Q11418415",
        "country_qid": "Q17"
      }
    },
    {
      "type": "Feature",
      "geometry": {
        "type": "Point",
        "coordinates": [
          139.081389,
          37.945833
        ]
      },
      "properties": {
        "label": "Niigata Thermal Power Station",
        "type": "Energy generation station",
        "entity": "http://www.wikidata.org/entity/Q445757",
        "country_qid": "Q17"
      }
    },
    {
      "type": "Feature",
      "geometry": {
        "type": "Point",
        "coordinates": [
          135.23573,
          34.432511
        ]
      },
      "properties": {
        "label": "Kansai International Airport Energy Center",
        "type": "Energy generation station",
        "entity": "http://www.wikidata.org/entity/Q10564605",
        "country_qid": "Q17"
      }
    },
    {
      "type": "Feature",
      "geometry": {
        "type": "Point",
        "coordinates": [
          132.1235,
          33.95333333
        ]
      },
      "properties": {
        "label": "Yanai Power Station",
        "type": "Energy generation station",
        "entity": "http://www.wikidata.org/entity/Q11534085",
        "country_qid": "Q17"
      }
    },
    {
      "type": "Feature",
      "geometry": {
        "type": "Point",
        "coordinates": [
          140.10561111,
          35.5645
        ]
      },
      "properties": {
        "label": "Chiba Thermal Power Station",
        "type": "Energy generation station",
        "entity": "http://www.wikidata.org/entity/Q11406109",
        "country_qid": "Q17"
      }
    },
    {
      "type": "Feature",
      "geometry": {
        "type": "Point",
        "coordinates": [
          141.506389,
          40.534444
        ]
      },
      "properties": {
        "label": "Hachinohe Thermal Power Station",
        "type": "Energy generation station",
        "entity": "http://www.wikidata.org/entity/Q11391206",
        "country_qid": "Q17"
      }
    },
    {
      "type": "Feature",
      "geometry": {
        "type": "Point",
        "coordinates": [
          136.864133,
          35.00655
        ]
      },
      "properties": {
        "label": "Chita Daini Thermal Power Station",
        "type": "Energy generation station",
        "entity": "http://www.wikidata.org/entity/Q11584554",
        "country_qid": "Q17"
      }
    },
    {
      "type": "Feature",
      "geometry": {
        "type": "Point",
        "coordinates": [
          139.637,
          35.4043
        ]
      },
      "properties": {
        "label": "Minami-Yokohama Thermal Power Station",
        "type": "Energy generation station",
        "entity": "http://www.wikidata.org/entity/Q11408020",
        "country_qid": "Q17"
      }
    },
    {
      "type": "Feature",
      "geometry": {
        "type": "Point",
        "coordinates": [
          141.17041667,
          42.96911111
        ]
      },
      "properties": {
        "label": "Jozankei hydro power station",
        "type": "Energy generation station",
        "entity": "http://www.wikidata.org/entity/Q22120955",
        "country_qid": "Q17"
      }
    },
    {
      "type": "Feature",
      "geometry": {
        "type": "Point",
        "coordinates": [
          139.2875,
          37.311388888
        ]
      },
      "properties": {
        "label": "Tagokura hydro power station",
        "type": "Energy generation station",
        "entity": "http://www.wikidata.org/entity/Q19391852",
        "country_qid": "Q17"
      }
    },
    {
      "type": "Feature",
      "geometry": {
        "type": "Point",
        "coordinates": [
          141.039306,
          38.276778
        ]
      },
      "properties": {
        "label": "Shin-Sendai Thermal Power Station",
        "type": "Energy generation station",
        "entity": "http://www.wikidata.org/entity/Q11501327",
        "country_qid": "Q17"
      }
    },
    {
      "type": "Feature",
      "geometry": {
        "type": "Point",
        "coordinates": [
          127.81266667,
          26.27655556
        ]
      },
      "properties": {
        "label": "Yoshinoura Thermal Power Plant",
        "type": "Energy generation station",
        "entity": "http://www.wikidata.org/entity/Q11412559",
        "country_qid": "Q17"
      }
    },
    {
      "type": "Feature",
      "geometry": {
        "type": "Point",
        "coordinates": [
          134.694,
          34.77344444
        ]
      },
      "properties": {
        "label": "Himeji No. 2 Power Station",
        "type": "Energy generation station",
        "entity": "http://www.wikidata.org/entity/Q11447568",
        "country_qid": "Q17"
      }
    },
    {
      "type": "Feature",
      "geometry": {
        "type": "Point",
        "coordinates": [
          134.66697222,
          34.77375
        ]
      },
      "properties": {
        "label": "Himeji No. 1 Power Station",
        "type": "Energy generation station",
        "entity": "http://www.wikidata.org/entity/Q11447567",
        "country_qid": "Q17"
      }
    },
    {
      "type": "Feature",
      "geometry": {
        "type": "Point",
        "coordinates": [
          130.860083,
          33.906722
        ]
      },
      "properties": {
        "label": "Shin-Kokura Power Station",
        "type": "Energy generation station",
        "entity": "http://www.wikidata.org/entity/Q11501905",
        "country_qid": "Q17"
      }
    },
    {
      "type": "Feature",
      "geometry": {
        "type": "Point",
        "coordinates": [
          139.72477778,
          35.49897222
        ]
      },
      "properties": {
        "label": "Kawasaki Natural Gas Power Generation",
        "type": "Energy generation station",
        "entity": "http://www.wikidata.org/entity/Q11478381",
        "country_qid": "Q17"
      }
    },
    {
      "type": "Feature",
      "geometry": {
        "type": "Point",
        "coordinates": [
          139.97694444,
          35.4625
        ]
      },
      "properties": {
        "label": "Sodegaura Power Station",
        "type": "Energy generation station",
        "entity": "http://www.wikidata.org/entity/Q2944712",
        "country_qid": "Q17"
      }
    },
    {
      "type": "Feature",
      "geometry": {
        "type": "Point",
        "coordinates": [
          139.7625,
          35.51208333
        ]
      },
      "properties": {
        "label": "Kawasaki Power Station",
        "type": "Energy generation station",
        "entity": "http://www.wikidata.org/entity/Q11478532",
        "country_qid": "Q17"
      }
    },
    {
      "type": "Feature",
      "geometry": {
        "type": "Point",
        "coordinates": [
          136.6462,
          34.9734
        ]
      },
      "properties": {
        "label": "Yokkaichi Power Station",
        "type": "Energy generation station",
        "entity": "http://www.wikidata.org/entity/Q11419964",
        "country_qid": "Q17"
      }
    },
    {
      "type": "Feature",
      "geometry": {
        "type": "Point",
        "coordinates": [
          136.84361111,
          34.98666667
        ]
      },
      "properties": {
        "label": "Chita Power Station",
        "type": "Energy generation station",
        "entity": "http://www.wikidata.org/entity/Q2944665",
        "country_qid": "Q17"
      }
    },
    {
      "type": "Feature",
      "geometry": {
        "type": "Point",
        "coordinates": [
          138.27691667,
          37.20508333
        ]
      },
      "properties": {
        "label": "Jōetsu Thermal Power Station",
        "type": "Energy generation station",
        "entity": "http://www.wikidata.org/entity/Q11360175",
        "country_qid": "Q17"
      }
    },
    {
      "type": "Feature",
      "geometry": {
        "type": "Point",
        "coordinates": [
          137.24336111,
          36.45905556
        ]
      },
      "properties": {
        "label": "Kanidera Power Station",
        "type": "Energy generation station",
        "entity": "http://www.wikidata.org/entity/Q65195491",
        "country_qid": "Q17"
      }
    },
    {
      "type": "Feature",
      "geometry": {
        "type": "Point",
        "coordinates": [
          136.64172222,
          35.94308333
        ]
      },
      "properties": {
        "label": "Yukami hydro power station",
        "type": "Energy generation station",
        "entity": "http://www.wikidata.org/entity/Q65196289",
        "country_qid": "Q17"
      }
    },
    {
      "type": "Feature",
      "geometry": {
        "type": "Point",
        "coordinates": [
          136.99716667,
          36.56386111
        ]
      },
      "properties": {
        "label": "Komaki hydro power station",
        "type": "Energy generation station",
        "entity": "http://www.wikidata.org/entity/Q65195500",
        "country_qid": "Q17"
      }
    },
    {
      "type": "Feature",
      "geometry": {
        "type": "Point",
        "coordinates": [
          135.82613889,
          34.88116667
        ]
      },
      "properties": {
        "label": "Amagase hydro power station",
        "type": "Energy generation station",
        "entity": "http://www.wikidata.org/entity/Q65198543",
        "country_qid": "Q17"
      }
    },
    {
      "type": "Feature",
      "geometry": {
        "type": "Point",
        "coordinates": [
          137.12472222,
          35.53986111
        ]
      },