{
  "type": "FeatureCollection",
  "features": [
    {
      "type": "Feature",
      "geometry": {
        "type": "Point",
        "coordinates": [
          36.143024,
          32.1424241
        ]
      },
      "properties": {
        "label": "Samra Power Plant",
        "type": "Energy generation station",
        "entity": "http://www.wikidata.org/entity/Q19387520",
        "country_qid": "Q810"
      }
    },
    {
      "type": "Feature",
      "geometry": {
        "type": "Point",
        "coordinates": [
          35.798055555,
          32.19
        ]
      },
      "properties": {
        "label": "King Talal Dam",
        "type": "Energy generation station",
        "entity": "http://www.wikidata.org/entity/Q2898401",
        "country_qid": "Q810"
      }
    },
    {
      "type": "Feature",
      "geometry": {
        "type": "Point",
        "coordinates": [
          36.0508132,
          32.3297857
        ]
      },
      "properties": {
        "label": "Rehab Power Station",
        "type": "Energy generation station",
        "entity": "http://www.wikidata.org/entity/Q11997414",
        "country_qid": "Q810"
      }
    },
    {
      "type": "Feature",
      "geometry": {
        "type": "Point",
        "coordinates": [
          35.3610983,
          29.7365007
        ]
      },
      "properties": {
        "label": "Quweira Solar Power Plant",
        "type": "Energy generation station",
        "entity": "http://www.wikidata.org/entity/Q55390714",
        "country_qid": "Q810"
      }
    },
    {
      "type": "Feature",
      "geometry": {
        "type": "Point",
        "coordinates": [
          35.5687,
          32.6334
        ]
      },
      "properties": {
        "label": "First Jordan Hydro-Electric Power House",
        "type": "Energy generation station",
        "entity": "http://www.wikidata.org/entity/Q90052545",
        "country_qid": "Q810"
      }
    },
    {
      "type": "Feature",
      "geometry": {
        "type": "Point",
        "coordinates": [
          36.01861111,
          31.22222222
        ]
      },
      "properties": {
        "label": "Al Qatrana Power Plant",
        "type": "Energy generation station",
        "entity": "http://www.wikidata.org/entity/Q4704648",
        "country_qid": "Q810"
      }
    },
    {
      "type": "Feature",
      "geometry": {
        "type": "Point",
        "coordinates": [
          34.9768424,
          29.3779681
        ]
      },
      "properties": {
        "label": "Aqaba Thermal Power Plant",
        "type": "Energy generation station",
        "entity": "http://www.wikidata.org/entity/Q2944645",
        "country_qid": "Q810"
      }
    },
    {
      "type": "Feature",
      "geometry": {
        "type": "Point",
        "coordinates": [
          36.07977778,
          31.89905556
        ]
      },
      "properties": {
        "label": "Amman East Power Plant",
        "type": "Energy generation station",
        "entity": "http://www.wikidata.org/entity/Q4747132",
        "country_qid": "Q810"
      }
    },
    {
      "type": "Feature",
      "geometry": {
        "type": "Point",
        "coordinates": [
          36.2140154,
          31.8764985
        ]
      },
      "properties": {
        "label": "Baynouna Solar Power Plant",
        "type": "Energy generation station",
        "entity": "http://www.wikidata.org/entity/Q125497396",
        "country_qid": "Q810"
      }
    },
    {
      "type": "Feature",
      "geometry": {
        "type": "Point",
        "coordinates": [
          39.0112683,
          32.5724377
        ]
      },
      "properties": {
        "label": "Risha Gas Power Station",
        "type": "Energy generation station",
        "entity": "http://www.wikidata.org/entity/Q105083372",
        "country_qid": "Q810"
      }
    },
    {
      "type": "Feature",
      "geometry": {
        "type": "Point",
        "coordinates": [
          35.82455556,
          30.151
        ]
      },
      "properties": {
        "label": "Shams Ma'an Power Plant",
        "type": "Energy generation station",
        "entity": "http://www.wikidata.org/entity/Q27536726",
        "country_qid": "Q810"
      }
    },
    {
      "type": "Feature",
      "geometry": {
        "type": "Point",
        "coordinates": [
          36.4477336,
          31.2688904
        ]
      },
      "properties": {
        "label": "Attarat Power Plant",
        "type": "Energy generation station",
        "entity": "http://www.wikidata.org/entity/Q4818129",
        "country_qid": "Q810"
      }
    },
    {
      "type": "Feature",
      "geometry": {
        "type": "Point",
        "coordinates": [
          35.6783,
          30.7005
        ]
      },
      "properties": {
        "label": "Tafila Wind Farm",
        "type": "Energy generation station",
        "entity": "http://www.wikidata.org/entity/Q21775908",
        "country_qid": "Q810"
      }
    }
  ]
}