{
  "type": "FeatureCollection",
  "features": [
    {
      "type": "Feature",
      "geometry": {
        "type": "Point",
        "coordinates": [
          108.331333333,
          47.79125
        ]
      },
      "properties": {
        "label": "Baganuur 50 MW Battery Storage Power Station",
        "type": "Energy generation station",
        "entity": "http://www.wikidata.org/entity/Q131831035",
        "country_qid": "Q711"
      }
    },
    {
      "type": "Feature",
      "geometry": {
        "type": "Point",
        "coordinates": [
          107.2065,
          47.565
        ]
      },
      "properties": {
        "label": "Salkhit Wind Farm",
        "type": "Energy generation station",
        "entity": "http://www.wikidata.org/entity/Q121105462",
        "country_qid": "Q711"
      }
    },
    {
      "type": "Feature",
      "geometry": {
        "type": "Point",
        "coordinates": [
          105.958027777,
          49.436916666
        ]
      },
      "properties": {
        "label": "Darkhan Thermal Power Plant",
        "type": "Energy generation station",
        "entity": "http://www.wikidata.org/entity/Q121733995",
        "country_qid": "Q711"
      }
    },
    {
      "type": "Feature",
      "geometry": {
        "type": "Point",
        "coordinates": [
          96.664944444,
          46.693833333
        ]
      },
      "properties": {
        "label": "Taishir hydroelectric power plant",
        "type": "Energy generation station",
        "entity": "http://www.wikidata.org/entity/Q12005076",
        "country_qid": "Q711"
      }
    },
    {
      "type": "Feature",
      "geometry": {
        "type": "Point",
        "coordinates": [
          105.940944444,
          49.400416666
        ]
      },
      "properties": {
        "label": "Darkhan Solar Power Plant",
        "type": "Energy generation station",
        "entity": "http://www.wikidata.org/entity/Q121734065",
        "country_qid": "Q711"
      }
    },
    {
      "type": "Feature",
      "geometry": {
        "type": "Point",
        "coordinates": [
          106.807361111,
          47.905083333
        ]
      },
      "properties": {
        "label": "Thermal Power Plant No. 2",
        "type": "Energy generation station",
        "entity": "http://www.wikidata.org/entity/Q131453957",
        "country_qid": "Q711"
      }
    },
    {
      "type": "Feature",
      "geometry": {
        "type": "Point",
        "coordinates": [
          111.826722222,
          43.725111111
        ]
      },
      "properties": {
        "label": "Gegeen Solar Power Plant",
        "type": "Energy generation station",
        "entity": "http://www.wikidata.org/entity/Q123125240",
        "country_qid": "Q711"
      }
    },
    {
      "type": "Feature",
      "geometry": {
        "type": "Point",
        "coordinates": [
          92.807305555,
          48.326138888
        ]
      },
      "properties": {
        "label": "Dorgon hydroelectric power plant",
        "type": "Energy generation station",
        "entity": "http://www.wikidata.org/entity/Q61448321",
        "country_qid": "Q711"
      }
    },
    {
      "type": "Feature",
      "geometry": {
        "type": "Point",
        "coordinates": [
          100.210444444,
          49.610416666
        ]
      },
      "properties": {
        "label": "Murun 10MW Solar Power Plant",
        "type": "Energy generation station",
        "entity": "http://www.wikidata.org/entity/Q123347136",
        "country_qid": "Q711"
      }
    },
    {
      "type": "Feature",
      "geometry": {
        "type": "Point",
        "coordinates": [
          107.004666666,
          47.916583333
        ]
      },
      "properties": {
        "label": "Amgalan Thermal Power Plant",
        "type": "Energy generation station",
        "entity": "http://www.wikidata.org/entity/Q121754414",
        "country_qid": "Q711"
      }
    },
    {
      "type": "Feature",
      "geometry": {
        "type": "Point",
        "coordinates": [
          110.237611111,
          44.915777777
        ]
      },
      "properties": {
        "label": "Sainshand Wind Farm",
        "type": "Energy generation station",
        "entity": "http://www.wikidata.org/entity/Q121590632",
        "country_qid": "Q711"
      }
    },
    {
      "type": "Feature",
      "geometry": {
        "type": "Point",
        "coordinates": [
          106.726972222,
          47.620166666
        ]
      },
      "properties": {
        "label": "Bukhug Solar Power Plant",
        "type": "Energy generation station",
        "entity": "http://www.wikidata.org/entity/Q121608554",
        "country_qid": "Q711"
      }
    },
    {
      "type": "Feature",
      "geometry": {
        "type": "Point",
        "coordinates": [
          107.890361111,
          47.272305555
        ]
      },
      "properties": {
        "label": "Buuruljuut Power Plant",
        "type": "Energy generation station",
        "entity": "http://www.wikidata.org/entity/Q131387897",
        "country_qid": "Q711"
      }
    },
    {
      "type": "Feature",
      "geometry": {
        "type": "Point",
        "coordinates": [
          97.2743,
          46.5931
        ]
      },
      "properties": {
        "label": "Guulin Hydro Power Station",
        "type": "Energy generation station",
        "entity": "http://www.wikidata.org/entity/Q133190139",
        "country_qid": "Q711"
      }
    },
    {
      "type": "Feature",
      "geometry": {
        "type": "Point",
        "coordinates": [
          106.864083333,
          47.896055555
        ]
      },
      "properties": {
        "label": "Thermal Power Plant No. 3 (Ulaanbaatar)",
        "type": "Energy generation station",
        "entity": "http://www.wikidata.org/entity/Q121283205",
        "country_qid": "Q711"
      }
    },
    {
      "type": "Feature",
      "geometry": {
        "type": "Point",
        "coordinates": [
          104.435277777,
          43.569722222
        ]
      },
      "properties": {
        "label": "Dalanzadgad Thermal Power Plant",
        "type": "Energy generation station",
        "entity": "http://www.wikidata.org/entity/Q131620607",
        "country_qid": "Q711"
      }
    },
    {
      "type": "Feature",
      "geometry": {
        "type": "Point",
        "coordinates": [
          108.355027777,
          47.745666666
        ]
      },
      "properties": {
        "label": "Baganuur Power Plant",
        "type": "Energy generation station",
        "entity": "http://www.wikidata.org/entity/Q131831004",
        "country_qid": "Q711"
      }
    },
    {
      "type": "Feature",
      "geometry": {
        "type": "Point",
        "coordinates": [
          110.197833333,
          44.910416666
        ]
      },
      "properties": {
        "label": "Gobi Solar Power Plant",
        "type": "Energy generation station",
        "entity": "http://www.wikidata.org/entity/Q131562028",
        "country_qid": "Q711"
      }
    },
    {
      "type": "Feature",
      "geometry": {
        "type": "Point",
        "coordinates": [
          104.097444444,
          49.04075
        ]
      },
      "properties": {
        "label": "Erdenet Thermal Power Plant",
        "type": "Energy generation station",
        "entity": "http://www.wikidata.org/entity/Q121734003",
        "country_qid": "Q711"
      }
    },
    {
      "type": "Feature",
      "geometry": {
        "type": "Point",
        "coordinates": [
          105.6135,
          43.559833333
        ]
      },
      "properties": {
        "label": "Tsetsii Wind Farm",
        "type": "Energy generation station",
        "entity": "http://www.wikidata.org/entity/Q121306441",
        "country_qid": "Q711"
      }
    },
    {
      "type": "Feature",
      "geometry": {
        "type": "Point",
        "coordinates": [
          105.539638888,
          43.672277777
        ]
      },
      "properties": {
        "label": "Ukhaa Khudag Power Plant",
        "type": "Energy generation station",
        "entity": "http://www.wikidata.org/entity/Q123746419",
        "country_qid": "Q711"
      }
    },
    {
      "type": "Feature",
      "geometry": {
        "type": "Point",
        "coordinates": [
          106.803722222,
          47.894083333
        ]
      },
      "properties": {
        "label": "Thermal Power Plant No. 4",
        "type": "Energy generation station",
        "entity": "http://www.wikidata.org/entity/Q121536502",
        "country_qid": "Q711"
      }
    }
  ]
}