{
  "type": "FeatureCollection",
  "features": [
    {
      "type": "Feature",
      "geometry": {
        "type": "Point",
        "coordinates": [
          103.825,
          1.2647
        ]
      },
      "properties": {
        "label": "St James Power Station",
        "type": "Energy generation station",
        "entity": "http://www.wikidata.org/entity/Q7593503",
        "country_qid": "Q334"
      }
    },
    {
      "type": "Feature",
      "geometry": {
        "type": "Point",
        "coordinates": [
          103.6210915,
          1.2977376
        ]
      },
      "properties": {
        "label": "Keppel Seghers Tuas Waste-To-Energy Plant",
        "type": "Energy generation station",
        "entity": "http://www.wikidata.org/entity/Q116740943",
        "country_qid": "Q334"
      }
    },
    {
      "type": "Feature",
      "geometry": {
        "type": "Point",
        "coordinates": [
          103.634752,
          1.3248235
        ]
      },
      "properties": {
        "label": "Tuas Incineration Plant",
        "type": "Energy generation station",
        "entity": "http://www.wikidata.org/entity/Q116740837",
        "country_qid": "Q334"
      }
    },
    {
      "type": "Feature",
      "geometry": {
        "type": "Point",
        "coordinates": [
          103.7107497,
          1.3113141
        ]
      },
      "properties": {
        "label": "Jurong Power Station",
        "type": "Energy generation station",
        "entity": "http://www.wikidata.org/entity/Q116734820",
        "country_qid": "Q334"
      }
    },
    {
      "type": "Feature",
      "geometry": {
        "type": "Point",
        "coordinates": [
          103.6223763,
          1.3023793
        ]
      },
      "properties": {
        "label": "Tuaspring Power Plant",
        "type": "Energy generation station",
        "entity": "http://www.wikidata.org/entity/Q116740906",
        "country_qid": "Q334"
      }
    },
    {
      "type": "Feature",
      "geometry": {
        "type": "Point",
        "coordinates": [
          103.7027246,
          1.254326
        ]
      },
      "properties": {
        "label": "Sembcorp Cogen Sakra Power Station",
        "type": "Energy generation station",
        "entity": "http://www.wikidata.org/entity/Q11996467",
        "country_qid": "Q334"
      }
    },
    {
      "type": "Feature",
      "geometry": {
        "type": "Point",
        "coordinates": [
          103.727,
          1.28
        ]
      },
      "properties": {
        "label": "Pulau Seraya Power Station",
        "type": "Energy generation station",
        "entity": "http://www.wikidata.org/entity/Q11996469",
        "country_qid": "Q334"
      }
    },
    {
      "type": "Feature",
      "geometry": {
        "type": "Point",
        "coordinates": [
          103.8,
          1.46666667
        ]
      },
      "properties": {
        "label": "Senoko Power Station",
        "type": "Energy generation station",
        "entity": "http://www.wikidata.org/entity/Q2944699",
        "country_qid": "Q334"
      }
    },
    {
      "type": "Feature",
      "geometry": {
        "type": "Point",
        "coordinates": [
          103.6205,
          1.2965
        ]
      },
      "properties": {
        "label": "Tuas South Incineration Plant",
        "type": "Energy generation station",
        "entity": "http://www.wikidata.org/entity/Q113630077",
        "country_qid": "Q334"
      }
    },
    {
      "type": "Feature",
      "geometry": {
        "type": "Point",
        "coordinates": [
          103.6677057,
          1.2763845
        ]
      },
      "properties": {
        "label": "Tembusu Multi-Utilities Complex",
        "type": "Energy generation station",
        "entity": "http://www.wikidata.org/entity/Q116735026",
        "country_qid": "Q334"
      }
    },
    {
      "type": "Feature",
      "geometry": {
        "type": "Point",
        "coordinates": [
          103.7947512,
          1.462305
        ]
      },
      "properties": {
        "label": "Senoko Incineration Plant",
        "type": "Energy generation station",
        "entity": "http://www.wikidata.org/entity/Q116740932",
        "country_qid": "Q334"
      }
    },
    {
      "type": "Feature",
      "geometry": {
        "type": "Point",
        "coordinates": [
          103.6697549,
          1.2592387
        ]
      },
      "properties": {
        "label": "Sembcorp Cogen Banyan Power Station",
        "type": "Energy generation station",
        "entity": "http://www.wikidata.org/entity/Q116734933",
        "country_qid": "Q334"
      }
    },
    {
      "type": "Feature",
      "geometry": {
        "type": "Point",
        "coordinates": [
          103.6747537,
          1.2821169
        ]
      },
      "properties": {
        "label": "Keppel Merlimau Cogen Plant",
        "type": "Energy generation station",
        "entity": "http://www.wikidata.org/entity/Q116740818",
        "country_qid": "Q334"
      }
    },
    {
      "type": "Feature",
      "geometry": {
        "type": "Point",
        "coordinates": [
          103.621738,
          1.2990917
        ]
      },
      "properties": {
        "label": "TuasOne Waste-to-energy Plant",
        "type": "Energy generation station",
        "entity": "http://www.wikidata.org/entity/Q116740854",
        "country_qid": "Q334"
      }
    },
    {
      "type": "Feature",
      "geometry": {
        "type": "Point",
        "coordinates": [
          103.6414,
          1.28876
        ]
      },
      "properties": {
        "label": "Tuas Power Plant",
        "type": "Energy generation station",
        "entity": "http://www.wikidata.org/entity/Q18022429",
        "country_qid": "Q334"
      }
    },
    {
      "type": "Feature",
      "geometry": {
        "type": "Point",
        "coordinates": [
          103.722626795,
          1.283543295
        ]
      },
      "properties": {
        "label": "PacificLight",
        "type": "Energy generation station",
        "entity": "http://www.wikidata.org/entity/Q28401590",
        "country_qid": "Q334"
      }
    }
  ]
}