{
  "type": "FeatureCollection",
  "features": [
    {
      "type": "Feature",
      "geometry": {
        "type": "Point",
        "coordinates": [
          27.88106,
          -33.0286
        ]
      },
      "properties": {
        "label": "Port Rex Power Station",
        "type": "Energy generation station",
        "entity": "http://www.wikidata.org/entity/Q21037298",
        "country_qid": "Q258"
      }
    },
    {
      "type": "Feature",
      "geometry": {
        "type": "Point",
        "coordinates": [
          28.02688,
          -26.20711
        ]
      },
      "properties": {
        "label": "John Ware Gas Turbine Power Station",
        "type": "Energy generation station",
        "entity": "http://www.wikidata.org/entity/Q125535155",
        "country_qid": "Q258"
      }
    },
    {
      "type": "Feature",
      "geometry": {
        "type": "Point",
        "coordinates": [
          24.629722222,
          -34.111111111
        ]
      },
      "properties": {
        "label": "Oyster Bay Wind Power Station",
        "type": "Energy generation station",
        "entity": "http://www.wikidata.org/entity/Q108101890",
        "country_qid": "Q258"
      }
    },
    {
      "type": "Feature",
      "geometry": {
        "type": "Point",
        "coordinates": [
          25.9209939,
          -28.9204413
        ]
      },
      "properties": {
        "label": "Letsatsi Solar Park",
        "type": "Energy generation station",
        "entity": "http://www.wikidata.org/entity/Q19597710",
        "country_qid": "Q258"
      }
    },
    {
      "type": "Feature",
      "geometry": {
        "type": "Point",
        "coordinates": [
          24.53,
          -34.101111111
        ]
      },
      "properties": {
        "label": "Impofu Wind Power Farms Complex",
        "type": "Energy generation station",
        "entity": "http://www.wikidata.org/entity/Q125314769",
        "country_qid": "Q258"
      }
    },
    {
      "type": "Feature",
      "geometry": {
        "type": "Point",
        "coordinates": [
          21.9606,
          -34.1666
        ]
      },
      "properties": {
        "label": "Gourikwa Power Station",
        "type": "Energy generation station",
        "entity": "http://www.wikidata.org/entity/Q11972408",
        "country_qid": "Q258"
      }
    },
    {
      "type": "Feature",
      "geometry": {
        "type": "Point",
        "coordinates": [
          19.589,
          -30.404
        ]
      },
      "properties": {
        "label": "Loeriesfontein Wind Farm",
        "type": "Energy generation station",
        "entity": "http://www.wikidata.org/entity/Q113696295",
        "country_qid": "Q258"
      }
    },
    {
      "type": "Feature",
      "geometry": {
        "type": "Point",
        "coordinates": [
          29.6,
          -26.03333333
        ]
      },
      "properties": {
        "label": "Hendrina Power Station",
        "type": "Energy generation station",
        "entity": "http://www.wikidata.org/entity/Q11974989",
        "country_qid": "Q258"
      }
    },
    {
      "type": "Feature",
      "geometry": {
        "type": "Point",
        "coordinates": [
          24.7317,
          -29.9922
        ]
      },
      "properties": {
        "label": "Vanderkloof Dam",
        "type": "Energy generation station",
        "entity": "http://www.wikidata.org/entity/Q3445636",
        "country_qid": "Q258"
      }
    },
    {
      "type": "Feature",
      "geometry": {
        "type": "Point",
        "coordinates": [
          29.3075,
          -26.985555555
        ]
      },
      "properties": {
        "label": "Seriti Wind Power Station",
        "type": "Energy generation station",
        "entity": "http://www.wikidata.org/entity/Q124655651",
        "country_qid": "Q258"
      }
    },
    {
      "type": "Feature",
      "geometry": {
        "type": "Point",
        "coordinates": [
          19.531,
          -30.437
        ]
      },
      "properties": {
        "label": "Khobab Wind Farm",
        "type": "Energy generation station",
        "entity": "http://www.wikidata.org/entity/Q113800694",
        "country_qid": "Q258"
      }
    },
    {
      "type": "Feature",
      "geometry": {
        "type": "Point",
        "coordinates": [
          29.587986111,
          -28.280163888
        ]
      },
      "properties": {
        "label": "Ingula Pumped Storage Scheme",
        "type": "Energy generation station",
        "entity": "http://www.wikidata.org/entity/Q1663455",
        "country_qid": "Q258"
      }
    },
    {
      "type": "Feature",
      "geometry": {
        "type": "Point",
        "coordinates": [
          21.159166666,
          -29.319166666
        ]
      },
      "properties": {
        "label": "Kenhardt Solar Power Complex Station",
        "type": "Energy generation station",
        "entity": "http://www.wikidata.org/entity/Q124040234",
        "country_qid": "Q258"
      }
    },
    {
      "type": "Feature",
      "geometry": {
        "type": "Point",
        "coordinates": [
          30.342222222,
          -23.616111111
        ]
      },
      "properties": {
        "label": "Bolobedu Solar Power Station",
        "type": "Energy generation station",
        "entity": "http://www.wikidata.org/entity/Q115517831",
        "country_qid": "Q258"
      }
    },
    {
      "type": "Feature",
      "geometry": {
        "type": "Point",
        "coordinates": [
          27.9317226,
          -25.6377674
        ]
      },
      "properties": {
        "label": "De Wildt Solar Power Station",
        "type": "Energy generation station",
        "entity": "http://www.wikidata.org/entity/Q113144508",
        "country_qid": "Q258"
      }
    },
    {
      "type": "Feature",
      "geometry": {
        "type": "Point",
        "coordinates": [
          26.072222222,
          -25.571111111
        ]
      },
      "properties": {
        "label": "Zeerust Solar Power Station",
        "type": "Energy generation station",
        "entity": "http://www.wikidata.org/entity/Q105561865",
        "country_qid": "Q258"
      }
    },
    {
      "type": "Feature",
      "geometry": {
        "type": "Point",
        "coordinates": [
          27.9775,
          -26.74194444
        ]
      },
      "properties": {
        "label": "Lethabo Power Station",
        "type": "Energy generation station",
        "entity": "http://www.wikidata.org/entity/Q2944677",
        "country_qid": "Q258"
      }
    },
    {
      "type": "Feature",
      "geometry": {
        "type": "Point",
        "coordinates": [
          25.91091,
          -32.72014
        ]
      },
      "properties": {
        "label": "Cookhouse Wind Farm",
        "type": "Energy generation station",
        "entity": "http://www.wikidata.org/entity/Q130456136",
        "country_qid": "Q258"
      }
    },
    {
      "type": "Feature",
      "geometry": {
        "type": "Point",
        "coordinates": [
          27.370555555,
          -33.3025
        ]
      },
      "properties": {
        "label": "Wesley–Ciskei Wind Power Station",
        "type": "Energy generation station",
        "entity": "http://www.wikidata.org/entity/Q108113376",
        "country_qid": "Q258"
      }
    },
    {
      "type": "Feature",
      "geometry": {
        "type": "Point",
        "coordinates": [
          24.093333333,
          -30.596111111
        ]
      },
      "properties": {
        "label": "De Aar 1 Solar Power Station",
        "type": "Energy generation station",
        "entity": "http://www.wikidata.org/entity/Q114257983",
        "country_qid": "Q258"
      }
    },
    {
      "type": "Feature",
      "geometry": {
        "type": "Point",
        "coordinates": [
          18.898333333,
          -34.152222222
        ]
      },
      "properties": {
        "label": "Steenbras Power Station",
        "type": "Energy generation station",
        "entity": "http://www.wikidata.org/entity/Q113114958",
        "country_qid": "Q258"
      }
    },
    {
      "type": "Feature",
      "geometry": {
        "type": "Point",
        "coordinates": [
          18.9741,
          -34.1978
        ]
      },
      "properties": {
        "label": "Palmiet Pumped Storage Scheme",
        "type": "Energy generation station",
        "entity": "http://www.wikidata.org/entity/Q7128394",
        "country_qid": "Q258"
      }
    },
    {
      "type": "Feature",
      "geometry": {
        "type": "Point",
        "coordinates": [
          18.46027778,
          -33.59222222
        ]
      },
      "properties": {
        "label": "Ankerlig Power Station",
        "type": "Energy generation station",
        "entity": "http://www.wikidata.org/entity/Q4766031",
        "country_qid": "Q258"
      }
    },
    {
      "type": "Feature",
      "geometry": {
        "type": "Point",
        "coordinates": [
          29.350305555,
          -26.775944444
        ]
      },
      "properties": {
        "label": "Tutuka Power Station",
        "type": "Energy generation station",
        "entity": "http://www.wikidata.org/entity/Q2944716",
        "country_qid": "Q258"
      }
    },
    {
      "type": "Feature",
      "geometry": {
        "type": "Point",
        "coordinates": [
          23.3625,
          -28.313
        ]
      },
      "properties": {
        "label": "Lesedi Solar Park",
        "type": "Energy generation station",
        "entity": "http://www.wikidata.org/entity/Q20981675",
        "country_qid": "Q258"
      }
    },
    {
      "type": "Feature",
      "geometry": {
        "type": "Point",
        "coordinates": [
          20.109,
          -33.056
        ]
      },
      "properties": {
        "label": "Perdekraal East Wind Farm",
        "type": "Energy generation station",
        "entity": "http://www.wikidata.org/entity/Q113757580",
        "country_qid": "Q258"
      }
    },
    {
      "type": "Feature",
      "geometry": {
        "type": "Point",
        "coordinates": [
          18.604166666,
          -33.750833333
        ]
      },
      "properties": {
        "label": "Bio2Watt Malmesbury Thermal Power Station",
        "type": "Energy generation station",
        "entity": "http://www.wikidata.org/entity/Q111946009",
        "country_qid": "Q258"
      }
    },
    {
      "type": "Feature",
      "geometry": {
        "type": "Point",
        "coordinates": [
          23.365,
          -28.298
        ]
      },
      "properties": {
        "label": "Redstone Solar Thermal Power",
        "type": "Energy generation station",
        "entity": "http://www.wikidata.org/entity/Q20981890",
        "country_qid": "Q258"
      }
    },
    {
      "type": "Feature",
      "geometry": {
        "type": "Point",
        "coordinates": [
          19.3807002,
          -34.2301006
        ]
      },
      "properties": {
        "label": "Dassieklip Wind Energy Facility",
        "type": "Energy generation station",
        "entity": "http://www.wikidata.org/entity/Q19160467",
        "country_qid": "Q258"
      }
    },
    {
      "type": "Feature",
      "geometry": {
        "type": "Point",
        "coordinates": [
          29.150055555,
          -26.559
        ]
      },
      "properties": {
        "label": "Sasol Secunda power plant",
        "type": "Energy generation station",
        "entity": "http://www.wikidata.org/entity/Q56374086",
        "country_qid": "Q258"
      }
    },
    {
      "type": "Feature",
      "geometry": {
        "type": "Point",
        "coordinates": [
          28.91722222,
          -25.91638889
        ]
      },
      "properties": {
        "label": "Kusile Power Station",
        "type": "Energy generation station",
        "entity": "http://www.wikidata.org/entity/Q15240889",
        "country_qid": "Q258"
      }
    },
    {
      "type": "Feature",
      "geometry": {
        "type": "Point",
        "coordinates": [
          18.412,
          -33.9385
        ]
      },
      "properties": {
        "label": "Graaff Electric Lighting Works",
        "type": "Energy generation station",
        "entity": "http://www.wikidata.org/entity/Q55992712",
        "country_qid": "Q258"
      }
    },
    {
      "type": "Feature",
      "geometry": {
        "type": "Point",
        "coordinates": [
          29.77138889,
          -27.10055556
        ]
      },
      "properties": {
        "label": "Majuba Power Station",
        "type": "Energy generation station",
        "entity": "http://www.wikidata.org/entity/Q2944680",
        "country_qid": "Q258"
      }
    },
    {
      "type": "Feature",
      "geometry": {
        "type": "Point",
        "coordinates": [
          20.656388888,
          -32.885833333
        ]
      },
      "properties": {
        "label": "Karusa Wind Power Station",
        "type": "Energy generation station",
        "entity": "http://www.wikidata.org/entity/Q113158900",
        "country_qid": "Q258"
      }
    },
    {
      "type": "Feature",
      "geometry": {
        "type": "Point",
        "coordinates": [
          27.56355,
          -23.7044068
        ]
      },
      "properties": {
        "label": "Medupi Power Station",
        "type": "Energy generation station",
        "entity": "http://www.wikidata.org/entity/Q2944693",
        "country_qid": "Q258"
      }
    },
    {
      "type": "Feature",
      "geometry": {
        "type": "Point",
        "coordinates": [
          19.92638889,
          -33.41055556
        ]
      },
      "properties": {
        "label": "Touwsrivier CPV Solar Project",
        "type": "Energy generation station",
        "entity": "http://www.wikidata.org/entity/Q60764491",
        "country_qid": "Q258"
      }
    },
    {
      "type": "Feature",
      "geometry": {
        "type": "Point",
        "coordinates": [
          25.93185,
          -32.78915
        ]
      },
      "properties": {
        "label": "Nojoli Wind Farm",
        "type": "Energy generation station",
        "entity": "http://www.wikidata.org/entity/Q130456144",
        "country_qid": "Q258"
      }
    },
    {
      "type": "Feature",
      "geometry": {
        "type": "Point",
        "coordinates": [
          18.3664691,
          -29.6228906
        ]
      },
      "properties": {
        "label": "Kangnas Wind Power Station",
        "type": "Energy generation station",
        "entity": "http://www.wikidata.org/entity/Q108830710",
        "country_qid": "Q258"
      }
    },
    {
      "type": "Feature",
      "geometry": {
        "type": "Point",
        "coordinates": [
          27.083611111,
          -27.987222222
        ]
      },
      "properties": {
        "label": "Grootspruit Solar Power Station",
        "type": "Energy generation station",
        "entity": "http://www.wikidata.org/entity/Q129744507",
        "country_qid": "Q258"
      }
    },
    {
      "type": "Feature",
      "geometry": {
        "type": "Point",
        "coordinates": [
          25.998611111,
          -32.875
        ]
      },
      "properties": {
        "label": "Msenge Emoyeni Wind Power Station",
        "type": "Energy generation station",
        "entity": "http://www.wikidata.org/entity/Q131152342",
        "country_qid": "Q258"
      }
    },
    {
      "type": "Feature",
      "geometry": {
        "type": "Point",
        "coordinates": [
          25.946388888,
          -32.741666666
        ]
      },
      "properties": {
        "label": "Nxuba Wind Power Station",
        "type": "Energy generation station",
        "entity": "http://www.wikidata.org/entity/Q109237166",
        "country_qid": "Q258"
      }
    },
    {
      "type": "Feature",
      "geometry": {
        "type": "Point",
        "coordinates": [
          25.672861111,
          -33.743805555
        ]
      },
      "properties": {
        "label": "Dedisa Peaking Power Plant",
        "type": "Energy generation station",
        "entity": "http://www.wikidata.org/entity/Q56374120",
        "country_qid": "Q258"
      }
    },
    {
      "type": "Feature",
      "geometry": {
        "type": "Point",
        "coordinates": [
          28.146887,
          -25.757356
        ]
      },
      "properties": {
        "label": "Pretoria West Power Station",
        "type": "Energy generation station",
        "entity": "http://www.wikidata.org/entity/Q56374107",
        "country_qid": "Q258"
      }
    },
    {
      "type": "Feature",
      "geometry": {
        "type": "Point",
        "coordinates": [
          24.051666666,
          -30.726666666
        ]
      },
      "properties": {
        "label": "Castle Wind Farm, South Africa",
        "type": "Energy generation station",
        "entity": "http://www.wikidata.org/entity/Q120024865",
        "country_qid": "Q258"
      }
    },
    {
      "type": "Feature",
      "geometry": {
        "type": "Point",
        "coordinates": [
          27.848333333,
          -26.822305555
        ]
      },
      "properties": {
        "label": "Sasol One power station",
        "type": "Energy generation station",
        "entity": "http://www.wikidata.org/entity/Q56374084",
        "country_qid": "Q258"
      }
    },
    {
      "type": "Feature",
      "geometry": {
        "type": "Point",
        "coordinates": [
          30.09388889,
          -26.62027778
        ]
      },
      "properties": {
        "label": "Camden Power Station",
        "type": "Energy generation station",
        "entity": "http://www.wikidata.org/entity/Q5025804",
        "country_qid": "Q258"
      }
    },
    {
      "type": "Feature",
      "geometry": {
        "type": "Point",
        "coordinates": [
          21.064444444,
          -28.570833333
        ]
      },
      "properties": {
        "label": "Dyason's Klip 1 Solar Power Station",
        "type": "Energy generation station",
        "entity": "http://www.wikidata.org/entity/Q112428684",
        "country_qid": "Q258"
      }
    },
    {
      "type": "Feature",
      "geometry": {
        "type": "Point",
        "coordinates": [
          21.104444444,
          -28.545833333
        ]
      },
      "properties": {
        "label": "Sirius 1 Solar Power Station",
        "type": "Energy generation station",
        "entity": "http://www.wikidata.org/entity/Q113168919",
        "country_qid": "Q258"
      }
    },
    {
      "type": "Feature",
      "geometry": {
        "type": "Point",
        "coordinates": [
          25.50638889,
          -30.62277778
        ]
      },
      "properties": {
        "label": "Gariep Dam",
        "type": "Energy generation station",
        "entity": "http://www.wikidata.org/entity/Q1494266",
        "country_qid": "Q258"
      }
    },
    {
      "type": "Feature",
      "geometry": {
        "type": "Point",
        "coordinates": [
          25.5536,
          -33.1538
        ]
      },
      "properties": {
        "label": "Wolf Wind Farm",
        "type": "Energy generation station",
        "entity": "http://www.wikidata.org/entity/Q125988414",
        "country_qid": "Q258"
      }
    },
    {
      "type": "Feature",
      "geometry": {
        "type": "Point",
        "coordinates": [
          25.2465,
          -33.9615
        ]
      },
      "properties": {
        "label": "Van Stadens Wind Farm",
        "type": "Energy generation station",
        "entity": "http://www.wikidata.org/entity/Q7913671",
        "country_qid": "Q258"
      }
    },
    {
      "type": "Feature",
      "geometry": {
        "type": "Point",
        "coordinates": [
          27.573055555,
          -23.683888888
        ]
      },
      "properties": {
        "label": "Exxaro Solar Power Station",
        "type": "Energy generation station",
        "entity": "http://www.wikidata.org/entity/Q108913642",
        "country_qid": "Q258"
      }
    },
    {
      "type": "Feature",
      "geometry": {
        "type": "Point",
        "coordinates": [
          19.589722222,
          -28.889166666
        ]
      },
      "properties": {
        "label": "Xina Solar One Power Station",
        "type": "Energy generation station",
        "entity": "http://www.wikidata.org/entity/Q112039684",
        "country_qid": "Q258"
      }
    },
    {
      "type": "Feature",
      "geometry": {
        "type": "Point",
        "coordinates": [
          20.548611111,
          -32.951388888
        ]
      },
      "properties": {
        "label": "Roggeveld Wind Farm",
        "type": "Energy generation station",
        "entity": "http://www.wikidata.org/entity/Q113696298",
        "country_qid": "Q258"
      }
    },
    {
      "type": "Feature",
      "geometry": {
        "type": "Point",
        "coordinates": [
          29.14083333,
          -26.2825
        ]
      },
      "properties": {
        "label": "Matla Power Station",
        "type": "Energy generation station",
        "entity": "http://www.wikidata.org/entity/Q2944684",
        "country_qid": "Q258"
      }
    },
    {
      "type": "Feature",
      "geometry": {
        "type": "Point",
        "coordinates": [
          19.62083333,
          -28.90166667
        ]
      },
      "properties": {
        "label": "KaXu Solar One",
        "type": "Energy generation station",
        "entity": "http://www.wikidata.org/entity/Q15231917",
        "country_qid": "Q258"
      }
    },
    {
      "type": "Feature",
      "geometry": {
        "type": "Point",
        "coordinates": [
          23.862,
          -30.751
        ]
      },
      "properties": {
        "label": "De Aar Wind Farm",
        "type": "Energy generation station",
        "entity": "http://www.wikidata.org/entity/Q113696333",
        "country_qid": "Q258"
      }
    },
    {
      "type": "Feature",
      "geometry": {
        "type": "Point",
        "coordinates": [
          28.194527777,
          -26.115666666
        ]
      },
      "properties": {
        "label": "Kelvin Power Station",
        "type": "Energy generation station",
        "entity": "http://www.wikidata.org/entity/Q6386725",
        "country_qid": "Q258"
      }
    },
    {
      "type": "Feature",
      "geometry": {
        "type": "Point",
        "coordinates": [
          28.97138889,
          -26.09
        ]
      },
      "properties": {
        "label": "Kendal Power Station",
        "type": "Energy generation station",
        "entity": "http://www.wikidata.org/entity/Q1478192",
        "country_qid": "Q258"
      }
    },
    {
      "type": "Feature",
      "geometry": {
        "type": "Point",
        "coordinates": [
          27.925,
          -26.25388889
        ]
      },
      "properties": {
        "label": "Orlando Power Station",
        "type": "Energy generation station",
        "entity": "http://www.wikidata.org/entity/Q15264334",
        "country_qid": "Q258"
      }
    },
    {
      "type": "Feature",
      "geometry": {
        "type": "Point",
        "coordinates": [
          28.063333333,
          -26.43
        ]
      },
      "properties": {
        "label": "Sedibeng Solar Power Station",
        "type": "Energy generation station",
        "entity": "http://www.wikidata.org/entity/Q115805475",
        "country_qid": "Q258"
      }
    },
    {
      "type": "Feature",
      "geometry": {
        "type": "Point",
        "coordinates": [
          18.06333333,
          -31.49694444
        ]
      },
      "properties": {
        "label": "Sere Wind Farm",
        "type": "Energy generation station",
        "entity": "http://www.wikidata.org/entity/Q7453052",
        "country_qid": "Q258"
      }
    },
    {
      "type": "Feature",
      "geometry": {
        "type": "Point",
        "coordinates": [
          29.984635,
          -27.844207
        ]
      },
      "properties": {
        "label": "Newcastle Cogeneration Plant",
        "type": "Energy generation station",
        "entity": "http://www.wikidata.org/entity/Q73041825",
        "country_qid": "Q258"
      }
    },
    {
      "type": "Feature",
      "geometry": {
        "type": "Point",
        "coordinates": [
          30.664722222,
          -25.575555555
        ]
      },
      "properties": {
        "label": "Ngodwana Biomass Power Station",
        "type": "Energy generation station",
        "entity": "http://www.wikidata.org/entity/Q107241996",
        "country_qid": "Q258"
      }
    },
    {
      "type": "Feature",
      "geometry": {
        "type": "Point",
        "coordinates": [
          26.0073638,
          -32.8759109
        ]
      },
      "properties": {
        "label": "Amakhala Emoyeni Wind Farm",
        "type": "Energy generation station",
        "entity": "http://www.wikidata.org/entity/Q27584662",
        "country_qid": "Q258"
      }
    },
    {
      "type": "Feature",
      "geometry": {
        "type": "Point",
        "coordinates": [
          21.0775,
          -28.53722222
        ]
      },
      "properties": {
        "label": "Khi Solar One",
        "type": "Energy generation station",
        "entity": "http://www.wikidata.org/entity/Q15237479",
        "country_qid": "Q258"
      }
    },
    {
      "type": "Feature",
      "geometry": {
        "type": "Point",
        "coordinates": [
          29.0869,
          -28.5731
        ]
      },
      "properties": {
        "label": "Drakensberg Pumped Storage Scheme",
        "type": "Energy generation station",
        "entity": "http://www.wikidata.org/entity/Q5305652",
        "country_qid": "Q258"
      }
    },
    {
      "type": "Feature",
      "geometry": {
        "type": "Point",
        "coordinates": [
          23.3136539,
          -29.3835894
        ]
      },
      "properties": {
        "label": "Boikanyo Solar Power Station",
        "type": "Energy generation station",
        "entity": "http://www.wikidata.org/entity/Q108366002",
        "country_qid": "Q258"
      }
    },
    {
      "type": "Feature",
      "geometry": {
        "type": "Point",
        "coordinates": [
          25.4,
          -33.45
        ]
      },
      "properties": {
        "label": "Coega Wind Farm",
        "type": "Energy generation station",
        "entity": "http://www.wikidata.org/entity/Q16890482",
        "country_qid": "Q258"
      }
    },
    {
      "type": "Feature",
      "geometry": {
        "type": "Point",
        "coordinates": [
          22.314722222,
          -30.034722222
        ]
      },
      "properties": {
        "label": "Prieska–Total Solar Power Station",
        "type": "Energy generation station",
        "entity": "http://www.wikidata.org/entity/Q113023368",
        "country_qid": "Q258"
      }
    },
    {
      "type": "Feature",
      "geometry": {
        "type": "Point",
        "coordinates": [
          23.0426,
          -27.6135
        ]
      },
      "properties": {
        "label": "Kathu Solar Park",
        "type": "Energy generation station",
        "entity": "http://www.wikidata.org/entity/Q48815929",
        "country_qid": "Q258"
      }
    },
    {
      "type": "Feature",
      "geometry": {
        "type": "Point",
        "coordinates": [
          19.0305184,
          -33.2580615
        ]
      },
      "properties": {
        "label": "Gouda Wind Facility",
        "type": "Energy generation station",
        "entity": "http://www.wikidata.org/entity/Q20981573",
        "country_qid": "Q258"
      }
    },
    {
      "type": "Feature",
      "geometry": {
        "type": "Point",
        "coordinates": [
          28.94,
          -23.975555555
        ]
      },
      "properties": {
        "label": "Mogalakwena Solar Power Station",
        "type": "Energy generation station",
        "entity": "http://www.wikidata.org/entity/Q109171230",
        "country_qid": "Q258"
      }
    },
    {
      "type": "Feature",
      "geometry": {
        "type": "Point",
        "coordinates": [
          29.33722222,
          -25.96388889
        ]
      },
      "properties": {
        "label": "Duvha Power Station",
        "type": "Energy generation station",
        "entity": "http://www.wikidata.org/entity/Q2320823",
        "country_qid": "Q258"
      }
    },
    {
      "type": "Feature",
      "geometry": {
        "type": "Point",
        "coordinates": [
          29.969638888,
          -27.784888888
        ]
      },
      "properties": {
        "label": "SACC power plant",
        "type": "Energy generation station",
        "entity": "http://www.wikidata.org/entity/Q56374087",
        "country_qid": "Q258"
      }
    },
    {
      "type": "Feature",
      "geometry": {
        "type": "Point",
        "coordinates": [
          29.17944444,
          -26.25416667
        ]
      },
      "properties": {
        "label": "Kriel Power Station",
        "type": "Energy generation station",
        "entity": "http://www.wikidata.org/entity/Q6437002",
        "country_qid": "Q258"
      }
    },
    {
      "type": "Feature",
      "geometry": {
        "type": "Point",
        "coordinates": [
          22.412222222,
          -29.961944444
        ]
      },
      "properties": {
        "label": "Garob Wind Power Station",
        "type": "Energy generation station",
        "entity": "http://www.wikidata.org/entity/Q111169497",
        "country_qid": "Q258"
      }
    },
    {
      "type": "Feature",
      "geometry": {
        "type": "Point",
        "coordinates": [
          18.25944444,
          -33.31694444
        ]
      },
      "properties": {
        "label": "Darling Wind Farm",
        "type": "Energy generation station",
        "entity": "http://www.wikidata.org/entity/Q5223942",
        "country_qid": "Q258"
      }
    },
    {
      "type": "Feature",
      "geometry": {
        "type": "Point",
        "coordinates": [
          21.545833333,
          -28.480555555
        ]
      },
      "properties": {
        "label": "Karoshoek Solar Power Station",
        "type": "Energy generation station",
        "entity": "http://www.wikidata.org/entity/Q112136644",
        "country_qid": "Q258"
      }
    },
    {
      "type": "Feature",
      "geometry": {
        "type": "Point",
        "coordinates": [
          27.6541367,
          -26.411709
        ]
      },
      "properties": {
        "label": "South Deep Solar Plant",
        "type": "Energy generation station",
        "entity": "http://www.wikidata.org/entity/Q130327140",
        "country_qid": "Q258"
      }
    },
    {
      "type": "Feature",
      "geometry": {
        "type": "Point",
        "coordinates": [
          31.158833333,
          -29.417916666
        ]
      },
      "properties": {
        "label": "Avon Peaking Power Plant",
        "type": "Energy generation station",
        "entity": "http://www.wikidata.org/entity/Q56374119",
        "country_qid": "Q258"
      }
    },
    {
      "type": "Feature",
      "geometry": {
        "type": "Point",
        "coordinates": [
          28.497111111,
          -26.769666666
        ]
      },
      "properties": {
        "label": "Grootvlei Power Station",
        "type": "Energy generation station",
        "entity": "http://www.wikidata.org/entity/Q5610295",
        "country_qid": "Q258"
      }
    },
    {
      "type": "Feature",
      "geometry": {
        "type": "Point",
        "coordinates": [
          29.82666667,
          -28.73083333
        ]
      },
      "properties": {
        "label": "Colenso Power Station",
        "type": "Energy generation station",
        "entity": "http://www.wikidata.org/entity/Q5143054",
        "country_qid": "Q258"
      }
    },
    {
      "type": "Feature",
      "geometry": {
        "type": "Point",
        "coordinates": [
          20.645277777,
          -32.753888888
        ]
      },
      "properties": {
        "label": "Soetwater Wind Power Station",
        "type": "Energy generation station",
        "entity": "http://www.wikidata.org/entity/Q113493287",
        "country_qid": "Q258"
      }
    },
    {
      "type": "Feature",
      "geometry": {
        "type": "Point",
        "coordinates": [
          26.440555555,
          -31.480277777
        ]
      },
      "properties": {
        "label": "Dorper Wind Farm",
        "type": "Energy generation station",
        "entity": "http://www.wikidata.org/entity/Q27584626",
        "country_qid": "Q258"
      }
    },
    {
      "type": "Feature",
      "geometry": {
        "type": "Point",
        "coordinates": [
          24.02944444,
          -30.625
        ]
      },
      "properties": {
        "label": "De Aar Solar Power",
        "type": "Energy generation station",
        "entity": "http://www.wikidata.org/entity/Q28223120",
        "country_qid": "Q258"
      }
    },
    {
      "type": "Feature",
      "geometry": {
        "type": "Point",
        "coordinates": [
          20.231,
          -34.242
        ]
      },
      "properties": {
        "label": "Excelsior Wind Farm",
        "type": "Energy generation station",
        "entity": "http://www.wikidata.org/entity/Q113800595",
        "country_qid": "Q258"
      }
    },
    {
      "type": "Feature",
      "geometry": {
        "type": "Point",
        "coordinates": [
          18.53546,
          -33.88328
        ]
      },
      "properties": {
        "label": "Acacia Power Station",
        "type": "Energy generation station",
        "entity": "http://www.wikidata.org/entity/Q21037265",
        "country_qid": "Q258"
      }
    },
    {
      "type": "Feature",
      "geometry": {
        "type": "Point",
        "coordinates": [
          27.61055556,
          -23.66833333
        ]
      },
      "properties": {
        "label": "Matimba Power Station",
        "type": "Energy generation station",
        "entity": "http://www.wikidata.org/entity/Q2944683",
        "country_qid": "Q258"
      }
    },
    {
      "type": "Feature",
      "geometry": {
        "type": "Point",
        "coordinates": [
          29.78956,
          -25.94384
        ]
      },
      "properties": {
        "label": "Arnot Power Station",
        "type": "Energy generation station",
        "entity": "http://www.wikidata.org/entity/Q3434255",
        "country_qid": "Q258"
      }
    },
    {
      "type": "Feature",
      "geometry": {
        "type": "Point",
        "coordinates": [
          22.3621076,
          -30.0216736
        ]
      },
      "properties": {
        "label": "Mulilo Sonnedix Prieska Solar farm",
        "type": "Energy generation station",
        "entity": "http://www.wikidata.org/entity/Q27914625",
        "country_qid": "Q258"
      }
    },
    {
      "type": "Feature",
      "geometry": {
        "type": "Point",
        "coordinates": [
          23.825555555,
          -31.848888888
        ]
      },
      "properties": {
        "label": "Khangela Emoyeni Wind Power Station",
        "type": "Energy generation station",
        "entity": "http://www.wikidata.org/entity/Q132451809",
        "country_qid": "Q258"
      }
    },
    {
      "type": "Feature",
      "geometry": {
        "type": "Point",
        "coordinates": [
          28.385163,
          -28.43031
        ]
      },
      "properties": {
        "label": "Stortemelk Hydro power plant",
        "type": "Energy generation station",
        "entity": "http://www.wikidata.org/entity/Q31736338",
        "country_qid": "Q258"
      }
    },
    {
      "type": "Feature",
      "geometry": {
        "type": "Point",
        "coordinates": [
          26.691666666,
          -26.895
        ]
      },
      "properties": {
        "label": "Doornhoek Solar Power Station",
        "type": "Energy generation station",
        "entity": "http://www.wikidata.org/entity/Q125966087",
        "country_qid": "Q258"
      }
    },
    {
      "type": "Feature",
      "geometry": {
        "type": "Point",
        "coordinates": [
          18.51361111,
          -33.94888889
        ]
      },
      "properties": {
        "label": "Athlone Power Station",
        "type": "Energy generation station",
        "entity": "http://www.wikidata.org/entity/Q2330023",
        "country_qid": "Q258"
      }
    },
    {
      "type": "Feature",
      "geometry": {
        "type": "Point",
        "coordinates": [
          28.5783604,
          -32.0114546
        ]
      },
      "properties": {
        "label": "Colley Wobbles Power Station",
        "type": "Energy generation station",
        "entity": "http://www.wikidata.org/entity/Q62640323",
        "country_qid": "Q258"
      }
    },
    {
      "type": "Feature",
      "geometry": {
        "type": "Point",
        "coordinates": [
          29.47194444,
          -26.09
        ]
      },
      "properties": {
        "label": "Komati Power Station",
        "type": "Energy generation station",
        "entity": "http://www.wikidata.org/entity/Q6428195",
        "country_qid": "Q258"
      }
    },
    {
      "type": "Feature",
      "geometry": {
        "type": "Point",
        "coordinates": [
          23.38,
          -28.309
        ]
      },
      "properties": {
        "label": "Jasper Solar Energy Project",
        "type": "Energy generation station",
        "entity": "http://www.wikidata.org/entity/Q17058793",
        "country_qid": "Q258"
      }
    },
    {
      "type": "Feature",
      "geometry": {
        "type": "Point",
        "coordinates": [
          20.299166666,
          -32.823055555
        ]
      },
      "properties": {
        "label": "Oya Hybrid Power Station",
        "type": "Energy generation station",
        "entity": "http://www.wikidata.org/entity/Q124739835",
        "country_qid": "Q258"
      }
    },
    {
      "type": "Feature",
      "geometry": {
        "type": "Point",
        "coordinates": [
          24.84,
          -34.0
        ]
      },
      "properties": {
        "label": "Jeffreys Bay Wind Farm",
        "type": "Energy generation station",
        "entity": "http://www.wikidata.org/entity/Q113696435",
        "country_qid": "Q258"
      }
    },
    {
      "type": "Feature",
      "geometry": {
        "type": "Point",
        "coordinates": [
          28.237799,
          -25.5553
        ]
      },
      "properties": {
        "label": "Rooiwal Power Station",
        "type": "Energy generation station",
        "entity": "http://www.wikidata.org/entity/Q56374108",
        "country_qid": "Q258"
      }
    },
    {
      "type": "Feature",
      "geometry": {
        "type": "Point",
        "coordinates": [
          25.941866022,
          -32.887409993
        ]
      },
      "properties": {
        "label": "Golden Valley Wind Energy Facility",
        "type": "Energy generation station",
        "entity": "http://www.wikidata.org/entity/Q105044166",
        "country_qid": "Q258"
      }
    },
    {
      "type": "Feature",
      "geometry": {
        "type": "Point",
        "coordinates": [
          21.997193,
          -28.73775
        ]
      },
      "properties": {
        "label": "Bokpoort CSP",
        "type": "Energy generation station",
        "entity": "http://www.wikidata.org/entity/Q20981391",
        "country_qid": "Q258"
      }
    },
    {
      "type": "Feature",
      "geometry": {
        "type": "Point",
        "coordinates": [
          18.43194444,
          -33.67666667
        ]
      },
      "properties": {
        "label": "Koeberg Nuclear Power Station",
        "type": "Energy generation station",
        "entity": "http://www.wikidata.org/entity/Q941797",
        "country_qid": "Q258"
      }
    },
    {
      "type": "Feature",
      "geometry": {
        "type": "Point",
        "coordinates": [
          25.045,
          -31.18
        ]
      },
      "properties": {
        "label": "Noupoort Wind Farm",
        "type": "Energy generation station",
        "entity": "http://www.wikidata.org/entity/Q113696346",
        "country_qid": "Q258"
      }
    },
    {
      "type": "Feature",
      "geometry": {
        "type": "Point",
        "coordinates": [
          23.825555555,
          -31.848888888
        ]
      },
      "properties": {
        "label": "Umsinde Emoyeni Wind Power Station",
        "type": "Energy generation station",
        "entity": "http://www.wikidata.org/entity/Q126811284",
        "country_qid": "Q258"
      }
    }
  ]
}