{
  "type": "FeatureCollection",
  "features": [
    {
      "type": "Feature",
      "geometry": {
        "type": "Point",
        "coordinates": [
          26.02126,
          -15.75987
        ]
      },
      "properties": {
        "label": "Itezhi-Tezhi Dam",
        "type": "Energy generation station",
        "entity": "http://www.wikidata.org/entity/Q1461688",
        "country_qid": "Q953"
      }
    },
    {
      "type": "Feature",
      "geometry": {
        "type": "Point",
        "coordinates": [
          25.8603,
          -17.9308
        ]
      },
      "properties": {
        "label": "Victoria Falls Power Station",
        "type": "Energy generation station",
        "entity": "http://www.wikidata.org/entity/Q859752",
        "country_qid": "Q953"
      }
    },
    {
      "type": "Feature",
      "geometry": {
        "type": "Point",
        "coordinates": [
          26.13083333,
          -17.91972222
        ]
      },
      "properties": {
        "label": "Batoka Gorge Hydroelectric Power Station",
        "type": "Energy generation station",
        "entity": "http://www.wikidata.org/entity/Q17002870",
        "country_qid": "Q953"
      }
    },
    {
      "type": "Feature",
      "geometry": {
        "type": "Point",
        "coordinates": [
          28.431666666,
          -15.511666666
        ]
      },
      "properties": {
        "label": "Bangweulu Solar Power Station",
        "type": "Energy generation station",
        "entity": "http://www.wikidata.org/entity/Q108673091",
        "country_qid": "Q953"
      }
    },
    {
      "type": "Feature",
      "geometry": {
        "type": "Point",
        "coordinates": [
          28.236388888,
          -12.807222222
        ]
      },
      "properties": {
        "label": "Zambia Riverside Solar Power Station",
        "type": "Energy generation station",
        "entity": "http://www.wikidata.org/entity/Q111941340",
        "country_qid": "Q953"
      }
    },
    {
      "type": "Feature",
      "geometry": {
        "type": "Point",
        "coordinates": [
          28.094722222,
          -12.724166666
        ]
      },
      "properties": {
        "label": "Kalulushi Concentrated Solar Power Station",
        "type": "Energy generation station",
        "entity": "http://www.wikidata.org/entity/Q109255287",
        "country_qid": "Q953"
      }
    },
    {
      "type": "Feature",
      "geometry": {
        "type": "Point",
        "coordinates": [
          23.5075,
          -16.599722222
        ]
      },
      "properties": {
        "label": "Ngonye Hydroelectric Power Station",
        "type": "Energy generation station",
        "entity": "http://www.wikidata.org/entity/Q108559457",
        "country_qid": "Q953"
      }
    },
    {
      "type": "Feature",
      "geometry": {
        "type": "Point",
        "coordinates": [
          27.03,
          -16.775
        ]
      },
      "properties": {
        "label": "Choma Solar Power Station",
        "type": "Energy generation station",
        "entity": "http://www.wikidata.org/entity/Q126052714",
        "country_qid": "Q953"
      }
    },
    {
      "type": "Feature",
      "geometry": {
        "type": "Point",
        "coordinates": [
          29.118055555,
          -14.646111111
        ]
      },
      "properties": {
        "label": "Lunsemfwa Lower Hydroelectric Power Station",
        "type": "Energy generation station",
        "entity": "http://www.wikidata.org/entity/Q113641772",
        "country_qid": "Q953"
      }
    },
    {
      "type": "Feature",
      "geometry": {
        "type": "Point",
        "coordinates": [
          28.42083333,
          -15.80833333
        ]
      },
      "properties": {
        "label": "Kafue Gorge Dam",
        "type": "Energy generation station",
        "entity": "http://www.wikidata.org/entity/Q1462385",
        "country_qid": "Q953"
      }
    },
    {
      "type": "Feature",
      "geometry": {
        "type": "Point",
        "coordinates": [
          30.577222222,
          -12.758055555
        ]
      },
      "properties": {
        "label": "Serenje Solar Power Station",
        "type": "Energy generation station",
        "entity": "http://www.wikidata.org/entity/Q107694663",
        "country_qid": "Q953"
      }
    },
    {
      "type": "Feature",
      "geometry": {
        "type": "Point",
        "coordinates": [
          24.1922,
          -11.1239
        ]
      },
      "properties": {
        "label": "Zengamina",
        "type": "Energy generation station",
        "entity": "http://www.wikidata.org/entity/Q8069072",
        "country_qid": "Q953"
      }
    },
    {
      "type": "Feature",
      "geometry": {
        "type": "Point",
        "coordinates": [
          30.914444444,
          -10.118888888
        ]
      },
      "properties": {
        "label": "Chishimba Hydroelectric Power Station",
        "type": "Energy generation station",
        "entity": "http://www.wikidata.org/entity/Q112182696",
        "country_qid": "Q953"
      }
    },
    {
      "type": "Feature",
      "geometry": {
        "type": "Point",
        "coordinates": [
          28.7614,
          -16.5217
        ]
      },
      "properties": {
        "label": "Kariba Dam",
        "type": "Energy generation station",
        "entity": "http://www.wikidata.org/entity/Q1367609",
        "country_qid": "Q953"
      }
    },
    {
      "type": "Feature",
      "geometry": {
        "type": "Point",
        "coordinates": [
          28.5591504,
          -15.896147
        ]
      },
      "properties": {
        "label": "Kafue Gorge Lower Power Station",
        "type": "Energy generation station",
        "entity": "http://www.wikidata.org/entity/Q56373922",
        "country_qid": "Q953"
      }
    },
    {
      "type": "Feature",
      "geometry": {
        "type": "Point",
        "coordinates": [
          28.428888888,
          -15.5175
        ]
      },
      "properties": {
        "label": "Ngonye Solar Power Station",
        "type": "Energy generation station",
        "entity": "http://www.wikidata.org/entity/Q108770726",
        "country_qid": "Q953"
      }
    },
    {
      "type": "Feature",
      "geometry": {
        "type": "Point",
        "coordinates": [
          28.180833333,
          -12.695
        ]
      },
      "properties": {
        "label": "Itimpi Solar Power Station",
        "type": "Energy generation station",
        "entity": "http://www.wikidata.org/entity/Q125843745",
        "country_qid": "Q953"
      }
    },
    {
      "type": "Feature",
      "geometry": {
        "type": "Point",
        "coordinates": [
          27.18575,
          -17.352861111
        ]
      },
      "properties": {
        "label": "Maamba Power Plant",
        "type": "Energy generation station",
        "entity": "http://www.wikidata.org/entity/Q56373911",
        "country_qid": "Q953"
      }
    }
  ]
}