{
  "type": "FeatureCollection",
  "features": [
    {
      "type": "Feature",
      "geometry": {
        "type": "Point",
        "coordinates": [
          -7.298762798,
          53.027496863
        ]
      },
      "properties": {
        "label": "Portlaoise 110 kV electrical substation",
        "type": "electrical substation",
        "substation": "http://www.wikidata.org/entity/Q113332711",
        "country_qid": "Q27"
      }
    },
    {
      "type": "Feature",
      "geometry": {
        "type": "Point",
        "coordinates": [
          -8.616714477,
          52.705047009
        ]
      },
      "properties": {
        "label": "Ardnacrusha - 110 kV switchyard",
        "type": "electrical substation",
        "substation": "http://www.wikidata.org/entity/Q113332608",
        "country_qid": "Q27"
      }
    },
    {
      "type": "Feature",
      "geometry": {
        "type": "Point",
        "coordinates": [
          -8.853333333,
          53.308055555
        ]
      },
      "properties": {
        "label": "Cashla substation",
        "type": "electrical substation",
        "substation": "http://www.wikidata.org/entity/Q57610027",
        "country_qid": "Q27"
      }
    },
    {
      "type": "Feature",
      "geometry": {
        "type": "Point",
        "coordinates": [
          -7.124429941,
          52.263219699
        ]
      },
      "properties": {
        "label": "Waterford 110 kV electrical substation",
        "type": "electrical substation",
        "substation": "http://www.wikidata.org/entity/Q113332862",
        "country_qid": "Q27"
      }
    },
    {
      "type": "Feature",
      "geometry": {
        "type": "Point",
        "coordinates": [
          -8.2302,
          51.9158
        ]
      },
      "properties": {
        "label": "Ballyadam Converter Station",
        "type": "HVDC converter station",
        "substation": "http://www.wikidata.org/entity/Q122969878",
        "country_qid": "Q27"
      }
    },
    {
      "type": "Feature",
      "geometry": {
        "type": "Point",
        "coordinates": [
          -8.476762175,
          51.922795459
        ]
      },
      "properties": {
        "label": "Kilbarry 110 kV electrical substation",
        "type": "electrical substation",
        "substation": "http://www.wikidata.org/entity/Q113332683",
        "country_qid": "Q27"
      }
    },
    {
      "type": "Feature",
      "geometry": {
        "type": "Point",
        "coordinates": [
          -8.621134757,
          52.143128339
        ]
      },
      "properties": {
        "label": "Mallow 110 kV substation",
        "type": "electrical substation",
        "substation": "http://www.wikidata.org/entity/Q113332674",
        "country_qid": "Q27"
      }
    },
    {
      "type": "Feature",
      "geometry": {
        "type": "Point",
        "coordinates": [
          -6.229375,
          53.364447
        ]
      },
      "properties": {
        "label": "Electricity substation, Clontarf Road",
        "type": "electrical substation",
        "substation": "http://www.wikidata.org/entity/Q110820139",
        "country_qid": "Q27"
      }
    }
  ]
}