{
  "type": "FeatureCollection",
  "features": [
    {
      "type": "Feature",
      "geometry": {
        "type": "Point",
        "coordinates": [
          22.308490276,
          48.5932856
        ]
      },
      "properties": {
        "label": "Uzhhorod-1 electrical substation",
        "type": "electrical substation",
        "substation": "http://www.wikidata.org/entity/Q113322346",
        "country_qid": "Q212"
      }
    },
    {
      "type": "Feature",
      "geometry": {
        "type": "Point",
        "coordinates": [
          30.386961111,
          46.4538
        ]
      },
      "properties": {
        "label": "Novoodeska 330 kV substation",
        "type": "electrical substation",
        "substation": "http://www.wikidata.org/entity/Q109920282",
        "country_qid": "Q212"
      }
    },
    {
      "type": "Feature",
      "geometry": {
        "type": "Point",
        "coordinates": [
          23.018288612,
          48.135348991
        ]
      },
      "properties": {
        "label": "Vynohradiv electrical substation",
        "type": "electrical substation",
        "substation": "http://www.wikidata.org/entity/Q113322225",
        "country_qid": "Q212"
      }
    },
    {
      "type": "Feature",
      "geometry": {
        "type": "Point",
        "coordinates": [
          23.281702995,
          48.173555582
        ]
      },
      "properties": {
        "label": "Khust electric substation",
        "type": "electrical substation",
        "substation": "http://www.wikidata.org/entity/Q113322253",
        "country_qid": "Q212"
      }
    },
    {
      "type": "Feature",
      "geometry": {
        "type": "Point",
        "coordinates": [
          31.0702,
          46.9155
        ]
      },
      "properties": {
        "label": "Prohresivka substation",
        "type": "electrical substation",
        "substation": "http://www.wikidata.org/entity/Q111132463",
        "country_qid": "Q212"
      }
    },
    {
      "type": "Feature",
      "geometry": {
        "type": "Point",
        "coordinates": [
          29.44692,
          45.9925
        ]
      },
      "properties": {
        "label": "Artsyz 330 kV substation",
        "type": "electrical substation",
        "substation": "http://www.wikidata.org/entity/Q109923302",
        "country_qid": "Q212"
      }
    },
    {
      "type": "Feature",
      "geometry": {
        "type": "Point",
        "coordinates": [
          22.657719254,
          48.212187716
        ]
      },
      "properties": {
        "label": "Berehove electrical substation",
        "type": "electrical substation",
        "substation": "http://www.wikidata.org/entity/Q113322396",
        "country_qid": "Q212"
      }
    },
    {
      "type": "Feature",
      "geometry": {
        "type": "Point",
        "coordinates": [
          22.705435752,
          48.424715346
        ]
      },
      "properties": {
        "label": "Mukachevo-1 electric substation",
        "type": "electrical substation",
        "substation": "http://www.wikidata.org/entity/Q113322288",
        "country_qid": "Q212"
      }
    }
  ]
}