{
  "type": "FeatureCollection",
  "features": [
    {
      "type": "Feature",
      "geometry": {
        "type": "Point",
        "coordinates": [
          5.3366,
          50.9389
        ]
      },
      "properties": {
        "label": "Fryns",
        "type": "Factory",
        "entity": "http://www.wikidata.org/entity/Q116694332",
        "country_qid": "Q31"
      }
    },
    {
      "type": "Feature",
      "geometry": {
        "type": "Point",
        "coordinates": [
          3.737242947,
          51.070895611
        ]
      },
      "properties": {
        "label": "La Zibeline",
        "type": "Factory",
        "entity": "http://www.wikidata.org/entity/Q113661107",
        "country_qid": "Q31"
      }
    },
    {
      "type": "Feature",
      "geometry": {
        "type": "Point",
        "coordinates": [
          3.7303,
          51.0387
        ]
      },
      "properties": {
        "label": "Le Dragon",
        "type": "Factory",
        "entity": "http://www.wikidata.org/entity/Q116694351",
        "country_qid": "Q31"
      }
    },
    {
      "type": "Feature",
      "geometry": {
        "type": "Point",
        "coordinates": [
          4.327254438,
          50.827249338
        ]
      },
      "properties": {
        "label": "Dumont Frères & Cie",
        "type": "Factory",
        "entity": "http://www.wikidata.org/entity/Q116694832",
        "country_qid": "Q31"
      }
    },
    {
      "type": "Feature",
      "geometry": {
        "type": "Point",
        "coordinates": [
          5.328444444,
          50.934638888
        ]
      },
      "properties": {
        "label": "Lecocq",
        "type": "Factory",
        "entity": "http://www.wikidata.org/entity/Q116694353",
        "country_qid": "Q31"
      }
    },
    {
      "type": "Feature",
      "geometry": {
        "type": "Point",
        "coordinates": [
          4.45217729,
          51.238541
        ]
      },
      "properties": {
        "label": "Q122730744",
        "type": "Factory",
        "entity": "http://www.wikidata.org/entity/Q122730744",
        "country_qid": "Q31"
      }
    },
    {
      "type": "Feature",
      "geometry": {
        "type": "Point",
        "coordinates": [
          4.408611111,
          50.709777777
        ]
      },
      "properties": {
        "label": "Waterloo sugar factory",
        "type": "Factory",
        "entity": "http://www.wikidata.org/entity/Q113553480",
        "country_qid": "Q31"
      }
    },
    {
      "type": "Feature",
      "geometry": {
        "type": "Point",
        "coordinates": [
          4.0412,
          50.9528
        ]
      },
      "properties": {
        "label": "Le Lion D'or",
        "type": "Factory",
        "entity": "http://www.wikidata.org/entity/Q116694352",
        "country_qid": "Q31"
      }
    },
    {
      "type": "Feature",
      "geometry": {
        "type": "Point",
        "coordinates": [
          3.71726,
          51.05959
        ]
      },
      "properties": {
        "label": "Pol Madou Usines SA",
        "type": "Factory",
        "entity": "http://www.wikidata.org/entity/Q113661284",
        "country_qid": "Q31"
      }
    },
    {
      "type": "Feature",
      "geometry": {
        "type": "Point",
        "coordinates": [
          5.774722222,
          51.110472222
        ]
      },
      "properties": {
        "label": "Malico",
        "type": "Factory",
        "entity": "http://www.wikidata.org/entity/Q116694365",
        "country_qid": "Q31"
      }
    },
    {
      "type": "Feature",
      "geometry": {
        "type": "Point",
        "coordinates": [
          5.337111111,
          50.928833333
        ]
      },
      "properties": {
        "label": "Croonenberghs",
        "type": "Factory",
        "entity": "http://www.wikidata.org/entity/Q116694296",
        "country_qid": "Q31"
      }
    },
    {
      "type": "Feature",
      "geometry": {
        "type": "Point",
        "coordinates": [
          4.29744,
          50.72884
        ]
      },
      "properties": {
        "label": "Geuzestekerij Hanssens Artisanaal",
        "type": "Factory",
        "entity": "http://www.wikidata.org/entity/Q5110604",
        "country_qid": "Q31"
      }
    },
    {
      "type": "Feature",
      "geometry": {
        "type": "Point",
        "coordinates": [
          4.431935918,
          51.211142145
        ]
      },
      "properties": {
        "label": "Den Bougie",
        "type": "Factory",
        "entity": "http://www.wikidata.org/entity/Q117196800",
        "country_qid": "Q31"
      }
    },
    {
      "type": "Feature",
      "geometry": {
        "type": "Point",
        "coordinates": [
          3.73985,
          51.04016
        ]
      },
      "properties": {
        "label": "Laroche-Lechat",
        "type": "Factory",
        "entity": "http://www.wikidata.org/entity/Q113644473",
        "country_qid": "Q31"
      }
    },
    {
      "type": "Feature",
      "geometry": {
        "type": "Point",
        "coordinates": [
          5.339416666,
          50.929361111
        ]
      },
      "properties": {
        "label": "Vanschoonbeek, Arthur",
        "type": "Factory",
        "entity": "http://www.wikidata.org/entity/Q116694434",
        "country_qid": "Q31"
      }
    },
    {
      "type": "Feature",
      "geometry": {
        "type": "Point",
        "coordinates": [
          4.1143,
          50.7959
        ]
      },
      "properties": {
        "label": "Geuzestekerij De Cam",
        "type": "Factory",
        "entity": "http://www.wikidata.org/entity/Q5612812",
        "country_qid": "Q31"
      }
    },
    {
      "type": "Feature",
      "geometry": {
        "type": "Point",
        "coordinates": [
          4.27561,
          50.75392
        ]
      },
      "properties": {
        "label": "Het Boerenerf",
        "type": "Factory",
        "entity": "http://www.wikidata.org/entity/Q110243684",
        "country_qid": "Q31"
      }
    },
    {
      "type": "Feature",
      "geometry": {
        "type": "Point",
        "coordinates": [
          4.165212,
          51.038055
        ]
      },
      "properties": {
        "label": "Brouwerij van Baasrode",
        "type": "Factory",
        "entity": "http://www.wikidata.org/entity/Q2865215",
        "country_qid": "Q31"
      }
    },
    {
      "type": "Feature",
      "geometry": {
        "type": "Point",
        "coordinates": [
          4.245933333,
          50.850258333
        ]
      },
      "properties": {
        "label": "Brewery Angerik",
        "type": "Factory",
        "entity": "http://www.wikidata.org/entity/Q2780761",
        "country_qid": "Q31"
      }
    },
    {
      "type": "Feature",
      "geometry": {
        "type": "Point",
        "coordinates": [
          4.664411111,
          50.9503
        ]
      },
      "properties": {
        "label": "Hof ten Dormaal brewery",
        "type": "Factory",
        "entity": "http://www.wikidata.org/entity/Q3095874",
        "country_qid": "Q31"
      }
    },
    {
      "type": "Feature",
      "geometry": {
        "type": "Point",
        "coordinates": [
          4.71152,
          50.950404
        ]
      },
      "properties": {
        "label": "Q2924014",
        "type": "Factory",
        "entity": "http://www.wikidata.org/entity/Q2924014",
        "country_qid": "Q31"
      }
    },
    {
      "type": "Feature",
      "geometry": {
        "type": "Point",
        "coordinates": [
          3.873297022,
          50.767490078
        ]
      },
      "properties": {
        "label": "Q3059290",
        "type": "Factory",
        "entity": "http://www.wikidata.org/entity/Q3059290",
        "country_qid": "Q31"
      }
    },
    {
      "type": "Feature",
      "geometry": {
        "type": "Point",
        "coordinates": [
          3.8917,
          50.8877
        ]
      },
      "properties": {
        "label": "De Ryck brewery",
        "type": "Factory",
        "entity": "http://www.wikidata.org/entity/Q2996856",
        "country_qid": "Q31"
      }
    },
    {
      "type": "Feature",
      "geometry": {
        "type": "Point",
        "coordinates": [
          3.64245,
          50.95688
        ]
      },
      "properties": {
        "label": "Brouwerij Ide",
        "type": "Factory",
        "entity": "http://www.wikidata.org/entity/Q4777177",
        "country_qid": "Q31"
      }
    },
    {
      "type": "Feature",
      "geometry": {
        "type": "Point",
        "coordinates": [
          3.1853873,
          50.8096584
        ]
      },
      "properties": {
        "label": "De Ranke Brewery",
        "type": "Factory",
        "entity": "http://www.wikidata.org/entity/Q2751525",
        "country_qid": "Q31"
      }
    },
    {
      "type": "Feature",
      "geometry": {
        "type": "Point",
        "coordinates": [
          4.47639,
          51.02583
        ]
      },
      "properties": {
        "label": "brewery Lamot",
        "type": "Factory",
        "entity": "http://www.wikidata.org/entity/Q5923927",
        "country_qid": "Q31"
      }
    },
    {
      "type": "Feature",
      "geometry": {
        "type": "Point",
        "coordinates": [
          4.13176596,
          51.09784
        ]
      },
      "properties": {
        "label": "Brouwerij Van Bogaert",
        "type": "Factory",
        "entity": "http://www.wikidata.org/entity/Q2940236",
        "country_qid": "Q31"
      }
    },
    {
      "type": "Feature",
      "geometry": {
        "type": "Point",
        "coordinates": [
          3.79136682,
          50.924485
        ]
      },
      "properties": {
        "label": "Brouwerij De Fontein",
        "type": "Factory",
        "entity": "http://www.wikidata.org/entity/Q3918486",
        "country_qid": "Q31"
      }
    },
    {
      "type": "Feature",
      "geometry": {
        "type": "Point",
        "coordinates": [
          3.85014,
          51.0294
        ]
      },
      "properties": {
        "label": "Brouwerij De Hoprank",
        "type": "Factory",
        "entity": "http://www.wikidata.org/entity/Q4508005",
        "country_qid": "Q31"
      }
    },
    {
      "type": "Feature",
      "geometry": {
        "type": "Point",
        "coordinates": [
          3.81638889,
          51.11583333
        ]
      },
      "properties": {
        "label": "De Proefbrouwerij",
        "type": "Factory",
        "entity": "http://www.wikidata.org/entity/Q5244695",
        "country_qid": "Q31"
      }
    },
    {
      "type": "Feature",
      "geometry": {
        "type": "Point",
        "coordinates": [
          5.054223,
          50.987812
        ]
      },
      "properties": {
        "label": "Brouwerij Loterbol",
        "type": "Factory",
        "entity": "http://www.wikidata.org/entity/Q2685662",
        "country_qid": "Q31"
      }
    },
    {
      "type": "Feature",
      "geometry": {
        "type": "Point",
        "coordinates": [
          3.008399773,
          51.092122781
        ]
      },
      "properties": {
        "label": "Brewery Strubbe",
        "type": "Factory",
        "entity": "http://www.wikidata.org/entity/Q2732852",
        "country_qid": "Q31"
      }
    },
    {
      "type": "Feature",
      "geometry": {
        "type": "Point",
        "coordinates": [
          4.936472,
          51.356339
        ]
      },
      "properties": {
        "label": "Klein Engelandhoeve",
        "type": "Factory",
        "entity": "http://www.wikidata.org/entity/Q33100390",
        "country_qid": "Q31"
      }
    },
    {
      "type": "Feature",
      "geometry": {
        "type": "Point",
        "coordinates": [
          4.200697222,
          51.013577777
        ]
      },
      "properties": {
        "label": "Bosteels brewery",
        "type": "Factory",
        "entity": "http://www.wikidata.org/entity/Q2791168",
        "country_qid": "Q31"
      }
    },
    {
      "type": "Feature",
      "geometry": {
        "type": "Point",
        "coordinates": [
          2.8583,
          50.895
        ]
      },
      "properties": {
        "label": "Q4367956",
        "type": "Factory",
        "entity": "http://www.wikidata.org/entity/Q4367956",
        "country_qid": "Q31"
      }
    },
    {
      "type": "Feature",
      "geometry": {
        "type": "Point",
        "coordinates": [
          4.71142888,
          50.950493
        ]
      },
      "properties": {
        "label": "Brouwerij Mena",
        "type": "Factory",
        "entity": "http://www.wikidata.org/entity/Q3916550",
        "country_qid": "Q31"
      }
    },
    {
      "type": "Feature",
      "geometry": {
        "type": "Point",
        "coordinates": [
          5.11988908,
          50.948605
        ]
      },
      "properties": {
        "label": "Brouwerij De Goudster",
        "type": "Factory",
        "entity": "http://www.wikidata.org/entity/Q4329139",
        "country_qid": "Q31"
      }
    },
    {
      "type": "Feature",
      "geometry": {
        "type": "Point",
        "coordinates": [
          3.46519,
          50.93682
        ]
      },
      "properties": {
        "label": "Brouwerij Het Damberd",
        "type": "Factory",
        "entity": "http://www.wikidata.org/entity/Q3545227",
        "country_qid": "Q31"
      }
    },
    {
      "type": "Feature",
      "geometry": {
        "type": "Point",
        "coordinates": [
          3.728013,
          51.039663
        ]
      },
      "properties": {
        "label": "Cruyplants",
        "type": "Factory",
        "entity": "http://www.wikidata.org/entity/Q19974046",
        "country_qid": "Q31"
      }
    },
    {
      "type": "Feature",
      "geometry": {
        "type": "Point",
        "coordinates": [
          3.5094586,
          50.790925
        ]
      },
      "properties": {
        "label": "Brouwerij Foulon",
        "type": "Factory",
        "entity": "http://www.wikidata.org/entity/Q4602069",
        "country_qid": "Q31"
      }
    },
    {
      "type": "Feature",
      "geometry": {
        "type": "Point",
        "coordinates": [
          4.500641666,
          50.731277777
        ]
      },
      "properties": {
        "label": "John Martin",
        "type": "Factory",
        "entity": "http://www.wikidata.org/entity/Q3182007",
        "country_qid": "Q31"
      }
    },
    {
      "type": "Feature",
      "geometry": {
        "type": "Point",
        "coordinates": [
          3.884,
          50.8564
        ]
      },
      "properties": {
        "label": "Van Den Bossche brewery",
        "type": "Factory",
        "entity": "http://www.wikidata.org/entity/Q4921226",
        "country_qid": "Q31"
      }
    },
    {
      "type": "Feature",
      "geometry": {
        "type": "Point",
        "coordinates": [
          3.65263224,
          50.91229
        ]
      },
      "properties": {
        "label": "Brouwerij Ceuterick",
        "type": "Factory",
        "entity": "http://www.wikidata.org/entity/Q3021446",
        "country_qid": "Q31"
      }
    },
    {
      "type": "Feature",
      "geometry": {
        "type": "Point",
        "coordinates": [
          3.75506312,
          51.227003
        ]
      },
      "properties": {
        "label": "Brouwerij Van Hoorebeke",
        "type": "Factory",
        "entity": "http://www.wikidata.org/entity/Q4346588",
        "country_qid": "Q31"
      }
    },
    {
      "type": "Feature",
      "geometry": {
        "type": "Point",
        "coordinates": [
          3.3876,
          50.51
        ]
      },
      "properties": {
        "label": "Brewery Brunehaut",
        "type": "Factory",
        "entity": "http://www.wikidata.org/entity/Q2682652",
        "country_qid": "Q31"
      }
    },
    {
      "type": "Feature",
      "geometry": {
        "type": "Point",
        "coordinates": [
          4.414933333,
          51.199666666
        ]
      },
      "properties": {
        "label": "De Koninck Brewery",
        "type": "Factory",
        "entity": "http://www.wikidata.org/entity/Q2684279",
        "country_qid": "Q31"
      }
    },
    {
      "type": "Feature",
      "geometry": {
        "type": "Point",
        "coordinates": [
          4.923646,
          50.838702
        ]
      },
      "properties": {
        "label": "Brewery Vissenaken",
        "type": "Factory",
        "entity": "http://www.wikidata.org/entity/Q3206604",
        "country_qid": "Q31"
      }
    },
    {
      "type": "Feature",
      "geometry": {
        "type": "Point",
        "coordinates": [
          4.06291634,
          51.028113
        ]
      },
      "properties": {
        "label": "Brouwerij Sint-Jozef",
        "type": "Factory",
        "entity": "http://www.wikidata.org/entity/Q4026257",
        "country_qid": "Q31"
      }
    },
    {
      "type": "Feature",
      "geometry": {
        "type": "Point",
        "coordinates": [
          3.675852777,
          50.830891666
        ]
      },
      "properties": {
        "label": "Roman brewery",
        "type": "Factory",
        "entity": "http://www.wikidata.org/entity/Q2918775",
        "country_qid": "Q31"
      }
    },
    {
      "type": "Feature",
      "geometry": {
        "type": "Point",
        "coordinates": [
          3.229491666,
          50.850233333
        ]
      },
      "properties": {
        "label": "Pico brewery Alvinne",
        "type": "Factory",
        "entity": "http://www.wikidata.org/entity/Q2689313",
        "country_qid": "Q31"
      }
    },
    {
      "type": "Feature",
      "geometry": {
        "type": "Point",
        "coordinates": [
          3.8939774,
          50.782966
        ]
      },
      "properties": {
        "label": "Q2991341",
        "type": "Factory",
        "entity": "http://www.wikidata.org/entity/Q2991341",
        "country_qid": "Q31"
      }
    },
    {
      "type": "Feature",
      "geometry": {
        "type": "Point",
        "coordinates": [
          3.65100682,
          50.913504
        ]
      },
      "properties": {
        "label": "Brouwerij Boeykens",
        "type": "Factory",
        "entity": "http://www.wikidata.org/entity/Q3289564",
        "country_qid": "Q31"
      }
    },
    {
      "type": "Feature",
      "geometry": {
        "type": "Point",
        "coordinates": [
          4.09577608,
          51.028609
        ]
      },
      "properties": {
        "label": "Brouwerij Baillon",
        "type": "Factory",
        "entity": "http://www.wikidata.org/entity/Q4363897",
        "country_qid": "Q31"
      }
    },
    {
      "type": "Feature",
      "geometry": {
        "type": "Point",
        "coordinates": [
          4.17482078,
          51.112542
        ]
      },
      "properties": {
        "label": "Brouwerij De Brabander",
        "type": "Factory",
        "entity": "http://www.wikidata.org/entity/Q3233973",
        "country_qid": "Q31"
      }
    },
    {
      "type": "Feature",
      "geometry": {
        "type": "Point",
        "coordinates": [
          3.71311,
          51.07236
        ]
      },
      "properties": {
        "label": "Union Cotonnière",
        "type": "Factory",
        "entity": "http://www.wikidata.org/entity/Q19915295",
        "country_qid": "Q31"
      }
    },
    {
      "type": "Feature",
      "geometry": {
        "type": "Point",
        "coordinates": [
          4.411068,
          51.23341
        ]
      },
      "properties": {
        "label": "Q24932804",
        "type": "Factory",
        "entity": "http://www.wikidata.org/entity/Q24932804",
        "country_qid": "Q31"
      }
    },
    {
      "type": "Feature",
      "geometry": {
        "type": "Point",
        "coordinates": [
          5.335171,
          50.937577
        ]
      },
      "properties": {
        "label": "Gelatinefabriek",
        "type": "Factory",
        "entity": "http://www.wikidata.org/entity/Q2055962",
        "country_qid": "Q31"
      }
    },
    {
      "type": "Feature",
      "geometry": {
        "type": "Point",
        "coordinates": [
          3.933333333,
          51.173055555
        ]
      },
      "properties": {
        "label": "Suikersite Moerbeke",
        "type": "Factory",
        "entity": "http://www.wikidata.org/entity/Q111699045",
        "country_qid": "Q31"
      }
    },
    {
      "type": "Feature",
      "geometry": {
        "type": "Point",
        "coordinates": [
          5.070588888,
          50.931727777
        ]
      },
      "properties": {
        "label": "Panoven",
        "type": "Factory",
        "entity": "http://www.wikidata.org/entity/Q20987010",
        "country_qid": "Q31"
      }
    },
    {
      "type": "Feature",
      "geometry": {
        "type": "Point",
        "coordinates": [
          4.450046918,
          51.241896895
        ]
      },
      "properties": {
        "label": "Q56194989",
        "type": "Factory",
        "entity": "http://www.wikidata.org/entity/Q56194989",
        "country_qid": "Q31"
      }
    },
    {
      "type": "Feature",
      "geometry": {
        "type": "Point",
        "coordinates": [
          5.8513,
          50.595792
        ]
      },
      "properties": {
        "label": "Q51358352",
        "type": "Factory",
        "entity": "http://www.wikidata.org/entity/Q51358352",
        "country_qid": "Q31"
      }
    },
    {
      "type": "Feature",
      "geometry": {
        "type": "Point",
        "coordinates": [
          5.50722,
          50.92167
        ]
      },
      "properties": {
        "label": "Genk Body & Assembly",
        "type": "Factory",
        "entity": "http://www.wikidata.org/entity/Q2217352",
        "country_qid": "Q31"
      }
    },
    {
      "type": "Feature",
      "geometry": {
        "type": "Point",
        "coordinates": [
          5.3444,
          50.8107
        ]
      },
      "properties": {
        "label": "Q2288572",
        "type": "Factory",
        "entity": "http://www.wikidata.org/entity/Q2288572",
        "country_qid": "Q31"
      }
    },
    {
      "type": "Feature",
      "geometry": {
        "type": "Point",
        "coordinates": [
          3.696706,
          51.055217
        ]
      },
      "properties": {
        "label": "UCO Rooigem",
        "type": "Factory",
        "entity": "http://www.wikidata.org/entity/Q19839078",
        "country_qid": "Q31"
      }
    },
    {
      "type": "Feature",
      "geometry": {
        "type": "Point",
        "coordinates": [
          3.618939,
          51.154439
        ]
      },
      "properties": {
        "label": "Textilia",
        "type": "Factory",
        "entity": "http://www.wikidata.org/entity/Q97393582",
        "country_qid": "Q31"
      }
    },
    {
      "type": "Feature",
      "geometry": {
        "type": "Point",
        "coordinates": [
          3.74789,
          51.04395
        ]
      },
      "properties": {
        "label": "Tréfil Arbed",
        "type": "Factory",
        "entity": "http://www.wikidata.org/entity/Q2250305",
        "country_qid": "Q31"
      }
    },
    {
      "type": "Feature",
      "geometry": {
        "type": "Point",
        "coordinates": [
          3.278888888,
          50.830277777
        ]
      },
      "properties": {
        "label": "Vetex",
        "type": "Factory",
        "entity": "http://www.wikidata.org/entity/Q124306468",
        "country_qid": "Q31"
      }
    },
    {
      "type": "Feature",
      "geometry": {
        "type": "Point",
        "coordinates": [
          3.72811,
          51.040655
        ]
      },
      "properties": {
        "label": "Cotonnière de Gand",
        "type": "Factory",
        "entity": "http://www.wikidata.org/entity/Q19838311",
        "country_qid": "Q31"
      }
    },
    {
      "type": "Feature",
      "geometry": {
        "type": "Point",
        "coordinates": [
          5.126674226,
          50.737072964
        ]
      },
      "properties": {
        "label": "Q56234287",
        "type": "Factory",
        "entity": "http://www.wikidata.org/entity/Q56234287",
        "country_qid": "Q31"
      }
    },
    {
      "type": "Feature",
      "geometry": {
        "type": "Point",
        "coordinates": [
          3.7696,
          51.1349
        ]
      },
      "properties": {
        "label": "Bruggeman",
        "type": "Factory",
        "entity": "http://www.wikidata.org/entity/Q13445770",
        "country_qid": "Q31"
      }
    },
    {
      "type": "Feature",
      "geometry": {
        "type": "Point",
        "coordinates": [
          3.690816,
          51.067934
        ]
      },
      "properties": {
        "label": "Cotonnière des Flandres",
        "type": "Factory",
        "entity": "http://www.wikidata.org/entity/Q108219788",
        "country_qid": "Q31"
      }
    },
    {
      "type": "Feature",
      "geometry": {
        "type": "Point",
        "coordinates": [
          3.729161,
          51.059405
        ]
      },
      "properties": {
        "label": "Filature Desmet-Guéquier",
        "type": "Factory",
        "entity": "http://www.wikidata.org/entity/Q19913412",
        "country_qid": "Q31"
      }
    },
    {
      "type": "Feature",
      "geometry": {
        "type": "Point",
        "coordinates": [
          4.4129,
          51.223
        ]
      },
      "properties": {
        "label": "Louis Meeus",
        "type": "Factory",
        "entity": "http://www.wikidata.org/entity/Q18435088",
        "country_qid": "Q31"
      }
    },
    {
      "type": "Feature",
      "geometry": {
        "type": "Point",
        "coordinates": [
          3.429142,
          50.908614
        ]
      },
      "properties": {
        "label": "Lederfabriek Atlan",
        "type": "Factory",
        "entity": "http://www.wikidata.org/entity/Q101625569",
        "country_qid": "Q31"
      }
    },
    {
      "type": "Feature",
      "geometry": {
        "type": "Point",
        "coordinates": [
          5.578935023,
          51.171390917
        ]
      },
      "properties": {
        "label": "Brasserie Martens",
        "type": "Factory",
        "entity": "http://www.wikidata.org/entity/Q900314",
        "country_qid": "Q31"
      }
    },
    {
      "type": "Feature",
      "geometry": {
        "type": "Point",
        "coordinates": [
          4.385638888,
          50.875555555
        ]
      },
      "properties": {
        "label": "Manufacture Hauterman",
        "type": "Factory",
        "entity": "http://www.wikidata.org/entity/Q124805688",
        "country_qid": "Q31"
      }
    },
    {
      "type": "Feature",
      "geometry": {
        "type": "Point",
        "coordinates": [
          3.781722222,
          51.087936111
        ]
      },
      "properties": {
        "label": "Volvo Europa Truck",
        "type": "Factory",
        "entity": "http://www.wikidata.org/entity/Q2779048",
        "country_qid": "Q31"
      }
    },
    {
      "type": "Feature",
      "geometry": {
        "type": "Point",
        "coordinates": [
          3.54385,
          50.99051
        ]
      },
      "properties": {
        "label": "Filliers",
        "type": "Factory",
        "entity": "http://www.wikidata.org/entity/Q116694330",
        "country_qid": "Q31"
      }
    },
    {
      "type": "Feature",
      "geometry": {
        "type": "Point",
        "coordinates": [
          4.328635,
          50.848245
        ]
      },
      "properties": {
        "label": "La Raffinerie",
        "type": "Factory",
        "entity": "http://www.wikidata.org/entity/Q33100169",
        "country_qid": "Q31"
      }
    },
    {
      "type": "Feature",
      "geometry": {
        "type": "Point",
        "coordinates": [
          5.67445993,
          50.764821
        ]
      },
      "properties": {
        "label": "CBR Lixhe",
        "type": "Factory",
        "entity": "http://www.wikidata.org/entity/Q109310247",
        "country_qid": "Q31"
      }
    },
    {
      "type": "Feature",
      "geometry": {
        "type": "Point",
        "coordinates": [
          4.367725,
          51.13145
        ]
      },
      "properties": {
        "label": "Q4019125",
        "type": "Factory",
        "entity": "http://www.wikidata.org/entity/Q4019125",
        "country_qid": "Q31"
      }
    },
    {
      "type": "Feature",
      "geometry": {
        "type": "Point",
        "coordinates": [
          3.717263,
          51.062918
        ]
      },
      "properties": {
        "label": "Spinnerij-weverij Florida",
        "type": "Factory",
        "entity": "http://www.wikidata.org/entity/Q19839080",
        "country_qid": "Q31"
      }
    },
    {
      "type": "Feature",
      "geometry": {
        "type": "Point",
        "coordinates": [
          4.321627777,
          50.856705555
        ]
      },
      "properties": {
        "label": "Q42431862",
        "type": "Factory",
        "entity": "http://www.wikidata.org/entity/Q42431862",
        "country_qid": "Q31"
      }
    },
    {
      "type": "Feature",
      "geometry": {
        "type": "Point",
        "coordinates": [
          3.72218,
          51.06575
        ]
      },
      "properties": {
        "label": "Texas",
        "type": "Factory",
        "entity": "http://www.wikidata.org/entity/Q108219834",
        "country_qid": "Q31"
      }
    },
    {
      "type": "Feature",
      "geometry": {
        "type": "Point",
        "coordinates": [
          3.730137,
          51.061246
        ]
      },
      "properties": {
        "label": "Q19913415",
        "type": "Factory",
        "entity": "http://www.wikidata.org/entity/Q19913415",
        "country_qid": "Q31"
      }
    },
    {
      "type": "Feature",
      "geometry": {
        "type": "Point",
        "coordinates": [
          4.318852777,
          50.839652777
        ]
      },
      "properties": {
        "label": "Meunerie Moulart",
        "type": "Factory",
        "entity": "http://www.wikidata.org/entity/Q42414293",
        "country_qid": "Q31"
      }
    },
    {
      "type": "Feature",
      "geometry": {
        "type": "Point",
        "coordinates": [
          3.725706,
          51.071123
        ]
      },
      "properties": {
        "label": "Eskimofabriek",
        "type": "Factory",
        "entity": "http://www.wikidata.org/entity/Q33100635",
        "country_qid": "Q31"
      }
    },
    {
      "type": "Feature",
      "geometry": {
        "type": "Point",
        "coordinates": [
          3.76856,
          51.0515
        ]
      },
      "properties": {
        "label": "Teintures et Apprêts de l'Escaut",
        "type": "Factory",
        "entity": "http://www.wikidata.org/entity/Q111815148",
        "country_qid": "Q31"
      }
    },
    {
      "type": "Feature",
      "geometry": {
        "type": "Point",
        "coordinates": [
          4.152413888,
          51.059
        ]
      },
      "properties": {
        "label": "Olieslagerij D'Hollander",
        "type": "Factory",
        "entity": "http://www.wikidata.org/entity/Q22912214",
        "country_qid": "Q31"
      }
    },
    {
      "type": "Feature",
      "geometry": {
        "type": "Point",
        "coordinates": [
          3.706398,
          51.060758
        ]
      },
      "properties": {
        "label": "La Louisiana",
        "type": "Factory",
        "entity": "http://www.wikidata.org/entity/Q108219817",
        "country_qid": "Q31"
      }
    },
    {
      "type": "Feature",
      "geometry": {
        "type": "Point",
        "coordinates": [
          5.890047,
          50.602831
        ]
      },
      "properties": {
        "label": "Solvent",
        "type": "Factory",
        "entity": "http://www.wikidata.org/entity/Q51332969",
        "country_qid": "Q31"
      }
    },
    {
      "type": "Feature",
      "geometry": {
        "type": "Point",
        "coordinates": [
          3.693259,
          51.064755
        ]
      },
      "properties": {
        "label": "Filature et Tissage l'Avenir",
        "type": "Factory",
        "entity": "http://www.wikidata.org/entity/Q108219806",
        "country_qid": "Q31"
      }
    },
    {
      "type": "Feature",
      "geometry": {
        "type": "Point",
        "coordinates": [
          4.348544444,
          50.870980555
        ]
      },
      "properties": {
        "label": "Q42417420",
        "type": "Factory",
        "entity": "http://www.wikidata.org/entity/Q42417420",
        "country_qid": "Q31"
      }
    },
    {
      "type": "Feature",
      "geometry": {
        "type": "Point",
        "coordinates": [
          2.721262,
          50.895942
        ]
      },
      "properties": {
        "label": "Westvleteren Abbey",
        "type": "Factory",
        "entity": "http://www.wikidata.org/entity/Q650340",
        "country_qid": "Q31"
      }
    },
    {
      "type": "Feature",
      "geometry": {
        "type": "Point",
        "coordinates": [
          4.256111,
          51.127222
        ]
      },
      "properties": {
        "label": "Fort van Steendorp",
        "type": "Factory",
        "entity": "http://www.wikidata.org/entity/Q2443453",
        "country_qid": "Q31"
      }
    },
    {
      "type": "Feature",
      "geometry": {
        "type": "Point",
        "coordinates": [
          4.31167,
          50.80944
        ]
      },
      "properties": {
        "label": "Audi Brussels",
        "type": "Factory",
        "entity": "http://www.wikidata.org/entity/Q758757",
        "country_qid": "Q31"
      }
    },
    {
      "type": "Feature",
      "geometry": {
        "type": "Point",
        "coordinates": [
          3.215356,
          50.921262
        ]
      },
      "properties": {
        "label": "Eperon d'Or",
        "type": "Factory",
        "entity": "http://www.wikidata.org/entity/Q27897937",
        "country_qid": "Q31"
      }
    },
    {
      "type": "Feature",
      "geometry": {
        "type": "Point",
        "coordinates": [
          4.366672222,
          50.869636111
        ]
      },
      "properties": {
        "label": "Q42417478",
        "type": "Factory",
        "entity": "http://www.wikidata.org/entity/Q42417478",
        "country_qid": "Q31"
      }
    },
    {
      "type": "Feature",
      "geometry": {
        "type": "Point",
        "coordinates": [
          3.44237924,
          50.575447
        ]
      },
      "properties": {
        "label": "Cement Factory Antoing",
        "type": "Factory",
        "entity": "http://www.wikidata.org/entity/Q125758318",
        "country_qid": "Q31"
      }
    },
    {
      "type": "Feature",
      "geometry": {
        "type": "Point",
        "coordinates": [
          4.38805103,
          51.150101
        ]
      },
      "properties": {
        "label": "Nijverheidsgebouwen",
        "type": "Factory",
        "entity": "http://www.wikidata.org/entity/Q56558271",
        "country_qid": "Q31"
      }
    },
    {
      "type": "Feature",
      "geometry": {
        "type": "Point",
        "coordinates": [
          4.18311,
          50.4793
        ]
      },
      "properties": {
        "label": "Royal Boch",
        "type": "Factory",
        "entity": "http://www.wikidata.org/entity/Q2742271",
        "country_qid": "Q31"
      }
    },
    {
      "type": "Feature",
      "geometry": {
        "type": "Point",
        "coordinates": [
          3.354969444,
          50.859266666
        ]
      },
      "properties": {
        "label": "Q18011870",
        "type": "Factory",
        "entity": "http://www.wikidata.org/entity/Q18011870",
        "country_qid": "Q31"
      }
    },
    {
      "type": "Feature",
      "geometry": {
        "type": "Point",
        "coordinates": [
          4.369338888,
          50.835491666
        ]
      },
      "properties": {
        "label": "Former porcelain factory Vermeren-Coché (present house Demeuldre-Coché)",
        "type": "Factory",
        "entity": "http://www.wikidata.org/entity/Q42418713",
        "country_qid": "Q31"
      }
    },
    {
      "type": "Feature",
      "geometry": {
        "type": "Point",
        "coordinates": [
          3.44386,
          50.575335
        ]
      },
      "properties": {
        "label": "Heidelberg Materials Antoing",
        "type": "Factory",
        "entity": "http://www.wikidata.org/entity/Q124750406",
        "country_qid": "Q31"
      }
    },
    {
      "type": "Feature",
      "geometry": {
        "type": "Point",
        "coordinates": [
          3.70765,
          51.053163
        ]
      },
      "properties": {
        "label": "Rasphuis",
        "type": "Factory",
        "entity": "http://www.wikidata.org/entity/Q14252608",
        "country_qid": "Q31"
      }
    },
    {
      "type": "Feature",
      "geometry": {
        "type": "Point",
        "coordinates": [
          5.7415244,
          50.1529139
        ]
      },
      "properties": {
        "label": "Brasserie d'Achouffe",
        "type": "Factory",
        "entity": "http://www.wikidata.org/entity/Q899484",
        "country_qid": "Q31"
      }
    },
    {
      "type": "Feature",
      "geometry": {
        "type": "Point",
        "coordinates": [
          3.72331381,
          51.075208
        ]
      },
      "properties": {
        "label": "La Liève",
        "type": "Factory",
        "entity": "http://www.wikidata.org/entity/Q108219814",
        "country_qid": "Q31"
      }
    },
    {
      "type": "Feature",
      "geometry": {
        "type": "Point",
        "coordinates": [
          4.343169444,
          50.854091666
        ]
      },
      "properties": {
        "label": "Q42417441",
        "type": "Factory",
        "entity": "http://www.wikidata.org/entity/Q42417441",
        "country_qid": "Q31"
      }
    },
    {
      "type": "Feature",
      "geometry": {
        "type": "Point",
        "coordinates": [
          5.51498,
          50.7692
        ]
      },
      "properties": {
        "label": "Chocoladefabriek Nerem",
        "type": "Factory",
        "entity": "http://www.wikidata.org/entity/Q16068933",
        "country_qid": "Q31"
      }
    },
    {
      "type": "Feature",
      "geometry": {
        "type": "Point",
        "coordinates": [
          3.703967,
          51.055356
        ]
      },
      "properties": {
        "label": "La Lys",
        "type": "Factory",
        "entity": "http://www.wikidata.org/entity/Q1982576",
        "country_qid": "Q31"
      }
    },
    {
      "type": "Feature",
      "geometry": {
        "type": "Point",
        "coordinates": [
          3.615322,
          51.154708
        ]
      },
      "properties": {
        "label": "Textielfabriek S.A.W.",
        "type": "Factory",
        "entity": "http://www.wikidata.org/entity/Q97484162",
        "country_qid": "Q31"
      }
    },
    {
      "type": "Feature",
      "geometry": {
        "type": "Point",
        "coordinates": [
          4.752177,
          50.829919
        ]
      },
      "properties": {
        "label": "Filmfabriek",
        "type": "Factory",
        "entity": "http://www.wikidata.org/entity/Q33100152",
        "country_qid": "Q31"
      }
    },
    {
      "type": "Feature",
      "geometry": {
        "type": "Point",
        "coordinates": [
          4.56624,
          50.6498
        ]
      },
      "properties": {
        "label": "Usines Émile Henricot",
        "type": "Factory",
        "entity": "http://www.wikidata.org/entity/Q3552687",
        "country_qid": "Q31"
      }
    },
    {
      "type": "Feature",
      "geometry": {
        "type": "Point",
        "coordinates": [
          3.870599,
          51.03042
        ]
      },
      "properties": {
        "label": "Q19839070",
        "type": "Factory",
        "entity": "http://www.wikidata.org/entity/Q19839070",
        "country_qid": "Q31"
      }
    },
    {
      "type": "Feature",
      "geometry": {
        "type": "Point",
        "coordinates": [
          3.7546,
          51.102747222
        ]
      },
      "properties": {
        "label": "Volvo Cars gent",
        "type": "Factory",
        "entity": "http://www.wikidata.org/entity/Q383097",
        "country_qid": "Q31"
      }
    },
    {
      "type": "Feature",
      "geometry": {
        "type": "Point",
        "coordinates": [
          3.710686,
          51.068764
        ]
      },
      "properties": {
        "label": "Cotonnière Nouvelle Orléans",
        "type": "Factory",
        "entity": "http://www.wikidata.org/entity/Q108219789",
        "country_qid": "Q31"
      }
    },
    {
      "type": "Feature",
      "geometry": {
        "type": "Point",
        "coordinates": [
          3.6166,
          50.84569
        ]
      },
      "properties": {
        "label": "Liefmans Brewery",
        "type": "Factory",
        "entity": "http://www.wikidata.org/entity/Q633720",
        "country_qid": "Q31"
      }
    },
    {
      "type": "Feature",
      "geometry": {
        "type": "Point",
        "coordinates": [
          4.41175,
          50.41
        ]
      },
      "properties": {
        "label": "Q3063976",
        "type": "Factory",
        "entity": "http://www.wikidata.org/entity/Q3063976",
        "country_qid": "Q31"
      }
    },
    {
      "type": "Feature",
      "geometry": {
        "type": "Point",
        "coordinates": [
          3.723013,
          51.074901
        ]
      },
      "properties": {
        "label": "Cotonnière Galveston",
        "type": "Factory",
        "entity": "http://www.wikidata.org/entity/Q19838307",
        "country_qid": "Q31"
      }
    },
    {
      "type": "Feature",
      "geometry": {
        "type": "Point",
        "coordinates": [
          3.714682,
          51.060981
        ]
      },
      "properties": {
        "label": "Filature Jules de Hemptinne",
        "type": "Factory",
        "entity": "http://www.wikidata.org/entity/Q19839065",
        "country_qid": "Q31"
      }
    },
    {
      "type": "Feature",
      "geometry": {
        "type": "Point",
        "coordinates": [
          3.71012,
          51.05996
        ]
      },
      "properties": {
        "label": "N.V. Texas",
        "type": "Factory",
        "entity": "http://www.wikidata.org/entity/Q49580589",
        "country_qid": "Q31"
      }
    },
    {
      "type": "Feature",
      "geometry": {
        "type": "Point",
        "coordinates": [
          3.606289,
          50.849975
        ]
      },
      "properties": {
        "label": "Saffre Frères",
        "type": "Factory",
        "entity": "http://www.wikidata.org/entity/Q62070119",
        "country_qid": "Q31"
      }
    },
    {
      "type": "Feature",
      "geometry": {
        "type": "Point",
        "coordinates": [
          4.13825,
          50.9235
        ]
      },
      "properties": {
        "label": "Q127698743",
        "type": "Factory",
        "entity": "http://www.wikidata.org/entity/Q127698743",
        "country_qid": "Q31"
      }
    },
    {
      "type": "Feature",
      "geometry": {
        "type": "Point",
        "coordinates": [
          4.004361,
          50.902194
        ]
      },
      "properties": {
        "label": "Q134732597",
        "type": "Factory",
        "entity": "http://www.wikidata.org/entity/Q134732597",
        "country_qid": "Q31"
      }
    },
    {
      "type": "Feature",
      "geometry": {
        "type": "Point",
        "coordinates": [
          3.916611,
          50.912194
        ]
      },
      "properties": {
        "label": "Q134732546",
        "type": "Factory",
        "entity": "http://www.wikidata.org/entity/Q134732546",
        "country_qid": "Q31"
      }
    },
    {
      "type": "Feature",
      "geometry": {
        "type": "Point",
        "coordinates": [
          3.895667,
          50.959583
        ]
      },
      "properties": {
        "label": "Q134732565",
        "type": "Factory",
        "entity": "http://www.wikidata.org/entity/Q134732565",
        "country_qid": "Q31"
      }
    },
    {
      "type": "Feature",
      "geometry": {
        "type": "Point",
        "coordinates": [
          3.992778,
          50.942306
        ]
      },
      "properties": {
        "label": "Q134732554",
        "type": "Factory",
        "entity": "http://www.wikidata.org/entity/Q134732554",
        "country_qid": "Q31"
      }
    },
    {
      "type": "Feature",
      "geometry": {
        "type": "Point",
        "coordinates": [
          3.978861,
          50.93525
        ]
      },
      "properties": {
        "label": "Q134732553",
        "type": "Factory",
        "entity": "http://www.wikidata.org/entity/Q134732553",
        "country_qid": "Q31"
      }
    },
    {
      "type": "Feature",
      "geometry": {
        "type": "Point",
        "coordinates": [
          4.098327414,
          50.948590094
        ]
      },
      "properties": {
        "label": "Q127698779",
        "type": "Factory",
        "entity": "http://www.wikidata.org/entity/Q127698779",
        "country_qid": "Q31"
      }
    },
    {
      "type": "Feature",
      "geometry": {
        "type": "Point",
        "coordinates": [
          3.960694,
          50.945639
        ]
      },
      "properties": {
        "label": "Q134732548",
        "type": "Factory",
        "entity": "http://www.wikidata.org/entity/Q134732548",
        "country_qid": "Q31"
      }
    },
    {
      "type": "Feature",
      "geometry": {
        "type": "Point",
        "coordinates": [
          4.346883333,
          51.094491666
        ]
      },
      "properties": {
        "label": "Steenbakkerij Frateur",
        "type": "Factory",
        "entity": "http://www.wikidata.org/entity/Q1894818",
        "country_qid": "Q31"
      }
    },
    {
      "type": "Feature",
      "geometry": {
        "type": "Point",
        "coordinates": [
          4.070111,
          50.925694
        ]
      },
      "properties": {
        "label": "Q134732626",
        "type": "Factory",
        "entity": "http://www.wikidata.org/entity/Q134732626",
        "country_qid": "Q31"
      }
    },
    {
      "type": "Feature",
      "geometry": {
        "type": "Point",
        "coordinates": [
          4.098162452,
          50.947998879
        ]
      },
      "properties": {
        "label": "Q127698768",
        "type": "Factory",
        "entity": "http://www.wikidata.org/entity/Q127698768",
        "country_qid": "Q31"
      }
    },
    {
      "type": "Feature",
      "geometry": {
        "type": "Point",
        "coordinates": [
          3.934139,
          50.966528
        ]
      },
      "properties": {
        "label": "Q134732567",
        "type": "Factory",
        "entity": "http://www.wikidata.org/entity/Q134732567",
        "country_qid": "Q31"
      }
    },
    {
      "type": "Feature",
      "geometry": {
        "type": "Point",
        "coordinates": [
          3.229230555,
          51.008294444
        ]
      },
      "properties": {
        "label": "Q2664861",
        "type": "Factory",
        "entity": "http://www.wikidata.org/entity/Q2664861",
        "country_qid": "Q31"
      }
    },
    {
      "type": "Feature",
      "geometry": {
        "type": "Point",
        "coordinates": [
          4.135888888,
          50.959361111
        ]
      },
      "properties": {
        "label": "Q127698539",
        "type": "Factory",
        "entity": "http://www.wikidata.org/entity/Q127698539",
        "country_qid": "Q31"
      }
    },
    {
      "type": "Feature",
      "geometry": {
        "type": "Point",
        "coordinates": [
          3.908444,
          50.960556
        ]
      },
      "properties": {
        "label": "Q134732566",
        "type": "Factory",
        "entity": "http://www.wikidata.org/entity/Q134732566",
        "country_qid": "Q31"
      }
    },
    {
      "type": "Feature",
      "geometry": {
        "type": "Point",
        "coordinates": [
          4.065666666,
          50.974222222
        ]
      },
      "properties": {
        "label": "Q127698639",
        "type": "Factory",
        "entity": "http://www.wikidata.org/entity/Q127698639",
        "country_qid": "Q31"
      }
    },
    {
      "type": "Feature",
      "geometry": {
        "type": "Point",
        "coordinates": [
          4.056306,
          50.919472
        ]
      },
      "properties": {
        "label": "Q134732623",
        "type": "Factory",
        "entity": "http://www.wikidata.org/entity/Q134732623",
        "country_qid": "Q31"
      }
    },
    {
      "type": "Feature",
      "geometry": {
        "type": "Point",
        "coordinates": [
          3.994,
          50.942667
        ]
      },
      "properties": {
        "label": "Q134732556",
        "type": "Factory",
        "entity": "http://www.wikidata.org/entity/Q134732556",
        "country_qid": "Q31"
      }
    },
    {
      "type": "Feature",
      "geometry": {
        "type": "Point",
        "coordinates": [
          4.070222,
          50.9205
        ]
      },
      "properties": {
        "label": "Q134732624",
        "type": "Factory",
        "entity": "http://www.wikidata.org/entity/Q134732624",
        "country_qid": "Q31"
      }
    },
    {
      "type": "Feature",
      "geometry": {
        "type": "Point",
        "coordinates": [
          3.942972,
          50.905555
        ]
      },
      "properties": {
        "label": "Q135001528",
        "type": "Factory",
        "entity": "http://www.wikidata.org/entity/Q135001528",
        "country_qid": "Q31"
      }
    },
    {
      "type": "Feature",
      "geometry": {
        "type": "Point",
        "coordinates": [
          3.98425,
          50.966472
        ]
      },
      "properties": {
        "label": "Q134732560",
        "type": "Factory",
        "entity": "http://www.wikidata.org/entity/Q134732560",
        "country_qid": "Q31"
      }
    },
    {
      "type": "Feature",
      "geometry": {
        "type": "Point",
        "coordinates": [
          4.107553567,
          50.959832868
        ]
      },
      "properties": {
        "label": "Q127698796",
        "type": "Factory",
        "entity": "http://www.wikidata.org/entity/Q127698796",
        "country_qid": "Q31"
      }
    },
    {
      "type": "Feature",
      "geometry": {
        "type": "Point",
        "coordinates": [
          4.13508362,
          50.931690708
        ]
      },
      "properties": {
        "label": "Q127698758",
        "type": "Factory",
        "entity": "http://www.wikidata.org/entity/Q127698758",
        "country_qid": "Q31"
      }
    },
    {
      "type": "Feature",
      "geometry": {
        "type": "Point",
        "coordinates": [
          4.098639105,
          50.947488168
        ]
      },
      "properties": {
        "label": "Q127698787",
        "type": "Factory",
        "entity": "http://www.wikidata.org/entity/Q127698787",
        "country_qid": "Q31"
      }
    },
    {
      "type": "Feature",
      "geometry": {
        "type": "Point",
        "coordinates": [
          3.916972,
          50.915806
        ]
      },
      "properties": {
        "label": "Q134732547",
        "type": "Factory",
        "entity": "http://www.wikidata.org/entity/Q134732547",
        "country_qid": "Q31"
      }
    },
    {
      "type": "Feature",
      "geometry": {
        "type": "Point",
        "coordinates": [
          2.971446453,
          51.236189339
        ]
      },
      "properties": {
        "label": "Brewery Betsy",
        "type": "Factory",
        "entity": "http://www.wikidata.org/entity/Q134972067",
        "country_qid": "Q31"
      }
    },
    {
      "type": "Feature",
      "geometry": {
        "type": "Point",
        "coordinates": [
          4.07725,
          50.885028
        ]
      },
      "properties": {
        "label": "Q134732608",
        "type": "Factory",
        "entity": "http://www.wikidata.org/entity/Q134732608",
        "country_qid": "Q31"
      }
    },
    {
      "type": "Feature",
      "geometry": {
        "type": "Point",
        "coordinates": [
          4.06075,
          50.921056
        ]
      },
      "properties": {
        "label": "Q134732627",
        "type": "Factory",
        "entity": "http://www.wikidata.org/entity/Q134732627",
        "country_qid": "Q31"
      }
    },
    {
      "type": "Feature",
      "geometry": {
        "type": "Point",
        "coordinates": [
          4.076778,
          50.874611
        ]
      },
      "properties": {
        "label": "Q134732609",
        "type": "Factory",
        "entity": "http://www.wikidata.org/entity/Q134732609",
        "country_qid": "Q31"
      }
    },
    {
      "type": "Feature",
      "geometry": {
        "type": "Point",
        "coordinates": [
          3.996,
          50.976
        ]
      },
      "properties": {
        "label": "Q134732558",
        "type": "Factory",
        "entity": "http://www.wikidata.org/entity/Q134732558",
        "country_qid": "Q31"
      }
    },
    {
      "type": "Feature",
      "geometry": {
        "type": "Point",
        "coordinates": [
          3.984278,
          50.970278
        ]
      },
      "properties": {
        "label": "Q134732562",
        "type": "Factory",
        "entity": "http://www.wikidata.org/entity/Q134732562",
        "country_qid": "Q31"
      }
    },
    {
      "type": "Feature",
      "geometry": {
        "type": "Point",
        "coordinates": [
          3.974194,
          50.934389
        ]
      },
      "properties": {
        "label": "Q134732555",
        "type": "Factory",
        "entity": "http://www.wikidata.org/entity/Q134732555",
        "country_qid": "Q31"
      }
    },
    {
      "type": "Feature",
      "geometry": {
        "type": "Point",
        "coordinates": [
          4.132111111,
          50.937361111
        ]
      },
      "properties": {
        "label": "Q127698657",
        "type": "Factory",
        "entity": "http://www.wikidata.org/entity/Q127698657",
        "country_qid": "Q31"
      }
    },
    {
      "type": "Feature",
      "geometry": {
        "type": "Point",
        "coordinates": [
          3.962444,
          50.957861
        ]
      },
      "properties": {
        "label": "Q134732563",
        "type": "Factory",
        "entity": "http://www.wikidata.org/entity/Q134732563",
        "country_qid": "Q31"
      }
    },
    {
      "type": "Feature",
      "geometry": {
        "type": "Point",
        "coordinates": [
          3.977361,
          50.966194
        ]
      },
      "properties": {
        "label": "Q134732557",
        "type": "Factory",
        "entity": "http://www.wikidata.org/entity/Q134732557",
        "country_qid": "Q31"
      }
    },
    {
      "type": "Feature",
      "geometry": {
        "type": "Point",
        "coordinates": [
          4.060472,
          50.920389
        ]
      },
      "properties": {
        "label": "Q134732628",
        "type": "Factory",
        "entity": "http://www.wikidata.org/entity/Q134732628",
        "country_qid": "Q31"
      }
    },
    {
      "type": "Feature",
      "geometry": {
        "type": "Point",
        "coordinates": [
          4.141416666,
          50.954888888
        ]
      },
      "properties": {
        "label": "Q127698612",
        "type": "Factory",
        "entity": "http://www.wikidata.org/entity/Q127698612",
        "country_qid": "Q31"
      }
    },
    {
      "type": "Feature",
      "geometry": {
        "type": "Point",
        "coordinates": [
          4.108694968,
          50.967999675
        ]
      },
      "properties": {
        "label": "Q127698805",
        "type": "Factory",
        "entity": "http://www.wikidata.org/entity/Q127698805",
        "country_qid": "Q31"
      }
    },
    {
      "type": "Feature",
      "geometry": {
        "type": "Point",
        "coordinates": [
          3.976222,
          50.965
        ]
      },
      "properties": {
        "label": "Q134732559",
        "type": "Factory",
        "entity": "http://www.wikidata.org/entity/Q134732559",
        "country_qid": "Q31"
      }
    },
    {
      "type": "Feature",
      "geometry": {
        "type": "Point",
        "coordinates": [
          4.018083,
          50.87175
        ]
      },
      "properties": {
        "label": "Q134732605",
        "type": "Factory",
        "entity": "http://www.wikidata.org/entity/Q134732605",
        "country_qid": "Q31"
      }
    },
    {
      "type": "Feature",
      "geometry": {
        "type": "Point",
        "coordinates": [
          4.113709266,
          50.967787936
        ]
      },
      "properties": {
        "label": "Q127698814",
        "type": "Factory",
        "entity": "http://www.wikidata.org/entity/Q127698814",
        "country_qid": "Q31"
      }
    },
    {
      "type": "Feature",
      "geometry": {
        "type": "Point",
        "coordinates": [
          3.981028,
          50.936028
        ]
      },
      "properties": {
        "label": "Q134732551",
        "type": "Factory",
        "entity": "http://www.wikidata.org/entity/Q134732551",
        "country_qid": "Q31"
      }
    },
    {
      "type": "Feature",
      "geometry": {
        "type": "Point",
        "coordinates": [
          4.108832934,
          50.964313723
        ]
      },
      "properties": {
        "label": "Q127698832",
        "type": "Factory",
        "entity": "http://www.wikidata.org/entity/Q127698832",
        "country_qid": "Q31"
      }
    },
    {
      "type": "Feature",
      "geometry": {
        "type": "Point",
        "coordinates": [
          4.1326189,
          51.16078
        ]
      },
      "properties": {
        "label": "Brouwerij Verschueren",
        "type": "Factory",
        "entity": "http://www.wikidata.org/entity/Q13492598",
        "country_qid": "Q31"
      }
    },
    {
      "type": "Feature",
      "geometry": {
        "type": "Point",
        "coordinates": [
          3.89911,
          50.6956
        ]
      },
      "properties": {
        "label": "Brasserie Jean Tout Seul",
        "type": "Factory",
        "entity": "http://www.wikidata.org/entity/Q15873508",
        "country_qid": "Q31"
      }
    },
    {
      "type": "Feature",
      "geometry": {
        "type": "Point",
        "coordinates": [
          4.10000861,
          51.027034
        ]
      },
      "properties": {
        "label": "Brouwerij Ressen",
        "type": "Factory",
        "entity": "http://www.wikidata.org/entity/Q13445575",
        "country_qid": "Q31"
      }
    },
    {
      "type": "Feature",
      "geometry": {
        "type": "Point",
        "coordinates": [
          3.90148222,
          51.057363
        ]
      },
      "properties": {
        "label": "Brouwerij Verstraeten",
        "type": "Factory",
        "entity": "http://www.wikidata.org/entity/Q13492603",
        "country_qid": "Q31"
      }
    },
    {
      "type": "Feature",
      "geometry": {
        "type": "Point",
        "coordinates": [
          3.19695,
          50.978
        ]
      },
      "properties": {
        "label": "Brouwerij Van den Bussche",
        "type": "Factory",
        "entity": "http://www.wikidata.org/entity/Q15873555",
        "country_qid": "Q31"
      }
    },
    {
      "type": "Feature",
      "geometry": {
        "type": "Point",
        "coordinates": [
          3.63160372,
          50.806731
        ]
      },
      "properties": {
        "label": "Brouwerij Thienpont",
        "type": "Factory",
        "entity": "http://www.wikidata.org/entity/Q13445585",
        "country_qid": "Q31"
      }
    },
    {
      "type": "Feature",
      "geometry": {
        "type": "Point",
        "coordinates": [
          4.08378124,
          50.980536
        ]
      },
      "properties": {
        "label": "Brouwerij Wagon",
        "type": "Factory",
        "entity": "http://www.wikidata.org/entity/Q13569412",
        "country_qid": "Q31"
      }
    },
    {
      "type": "Feature",
      "geometry": {
        "type": "Point",
        "coordinates": [
          3.02453399,
          51.145698
        ]
      },
      "properties": {
        "label": "Brouwerij Bourgogne",
        "type": "Factory",
        "entity": "http://www.wikidata.org/entity/Q17381319",
        "country_qid": "Q31"
      }
    },
    {
      "type": "Feature",
      "geometry": {
        "type": "Point",
        "coordinates": [
          3.66234183,
          50.973152
        ]
      },
      "properties": {
        "label": "Brouwerij De Vuyst",
        "type": "Factory",
        "entity": "http://www.wikidata.org/entity/Q13569396",
        "country_qid": "Q31"
      }
    },
    {
      "type": "Feature",
      "geometry": {
        "type": "Point",
        "coordinates": [
          4.10863459,
          51.048406
        ]
      },
      "properties": {
        "label": "Brouwerij Vertongen",
        "type": "Factory",
        "entity": "http://www.wikidata.org/entity/Q13569408",
        "country_qid": "Q31"
      }
    },
    {
      "type": "Feature",
      "geometry": {
        "type": "Point",
        "coordinates": [
          3.675872222,
          50.802738888
        ]
      },
      "properties": {
        "label": "Q15873552",
        "type": "Factory",
        "entity": "http://www.wikidata.org/entity/Q15873552",
        "country_qid": "Q31"
      }
    },
    {
      "type": "Feature",
      "geometry": {
        "type": "Point",
        "coordinates": [
          3.687618,
          50.74295
        ]
      },
      "properties": {
        "label": "Brasserie Ellezelloise",
        "type": "Factory",
        "entity": "http://www.wikidata.org/entity/Q15156880",
        "country_qid": "Q31"
      }
    },
    {
      "type": "Feature",
      "geometry": {
        "type": "Point",
        "coordinates": [
          3.587941666,
          50.502686111
        ]
      },
      "properties": {
        "label": "Caulier brewery",
        "type": "Factory",
        "entity": "http://www.wikidata.org/entity/Q13445074",
        "country_qid": "Q31"
      }
    },
    {
      "type": "Feature",
      "geometry": {
        "type": "Point",
        "coordinates": [
          3.937889,
          50.889139
        ]
      },
      "properties": {
        "label": "Q13445587",
        "type": "Factory",
        "entity": "http://www.wikidata.org/entity/Q13445587",
        "country_qid": "Q31"
      }
    },
    {
      "type": "Feature",
      "geometry": {
        "type": "Point",
        "coordinates": [
          3.74685019,
          51.177819
        ]
      },
      "properties": {
        "label": "Brouwerij Den Engel",
        "type": "Factory",
        "entity": "http://www.wikidata.org/entity/Q13569400",
        "country_qid": "Q31"
      }
    },
    {
      "type": "Feature",
      "geometry": {
        "type": "Point",
        "coordinates": [
          5.647777777,
          50.479444444
        ]
      },
      "properties": {
        "label": "Q16533925",
        "type": "Factory",
        "entity": "http://www.wikidata.org/entity/Q16533925",
        "country_qid": "Q31"
      }
    },
    {
      "type": "Feature",
      "geometry": {
        "type": "Point",
        "coordinates": [
          3.95530075,
          50.838999
        ]
      },
      "properties": {
        "label": "Q13445574",
        "type": "Factory",
        "entity": "http://www.wikidata.org/entity/Q13445574",
        "country_qid": "Q31"
      }
    },
    {
      "type": "Feature",
      "geometry": {
        "type": "Point",
        "coordinates": [
          4.13324118,
          51.098569
        ]
      },
      "properties": {
        "label": "Brouwerij De Twee Hoefijzers",
        "type": "Factory",
        "entity": "http://www.wikidata.org/entity/Q13445560",
        "country_qid": "Q31"
      }
    },
    {
      "type": "Feature",
      "geometry": {
        "type": "Point",
        "coordinates": [
          3.1605193,
          50.840587
        ]
      },
      "properties": {
        "label": "Brouwerij De Geest",
        "type": "Factory",
        "entity": "http://www.wikidata.org/entity/Q14849587",
        "country_qid": "Q31"
      }
    },
    {
      "type": "Feature",
      "geometry": {
        "type": "Point",
        "coordinates": [
          4.13205564,
          51.09851
        ]
      },
      "properties": {
        "label": "Brouwerij Van Overstraeten",
        "type": "Factory",
        "entity": "http://www.wikidata.org/entity/Q13445590",
        "country_qid": "Q31"
      }
    },
    {
      "type": "Feature",
      "geometry": {
        "type": "Point",
        "coordinates": [
          4.11192298,
          51.076467
        ]
      },
      "properties": {
        "label": "Brouwerij Moens",
        "type": "Factory",
        "entity": "http://www.wikidata.org/entity/Q13492587",
        "country_qid": "Q31"
      }
    },
    {
      "type": "Feature",
      "geometry": {
        "type": "Point",
        "coordinates": [
          3.720202,
          51.055449
        ]
      },
      "properties": {
        "label": "Brouwerij De Vijf Helmen",
        "type": "Factory",
        "entity": "http://www.wikidata.org/entity/Q13569393",
        "country_qid": "Q31"
      }
    },
    {
      "type": "Feature",
      "geometry": {
        "type": "Point",
        "coordinates": [
          4.01719809,
          50.944523
        ]
      },
      "properties": {
        "label": "Q13445076",
        "type": "Factory",
        "entity": "http://www.wikidata.org/entity/Q13445076",
        "country_qid": "Q31"
      }
    },
    {
      "type": "Feature",
      "geometry": {
        "type": "Point",
        "coordinates": [
          4.190538888,
          50.970694444
        ]
      },
      "properties": {
        "label": "Affligem Brewery",
        "type": "Factory",
        "entity": "http://www.wikidata.org/entity/Q16010125",
        "country_qid": "Q31"
      }
    },
    {
      "type": "Feature",
      "geometry": {
        "type": "Point",
        "coordinates": [
          3.219923,
          51.101657
        ]
      },
      "properties": {
        "label": "Q13445553",
        "type": "Factory",
        "entity": "http://www.wikidata.org/entity/Q13445553",
        "country_qid": "Q31"
      }
    },
    {
      "type": "Feature",
      "geometry": {
        "type": "Point",
        "coordinates": [
          4.392222222,
          50.41
        ]
      },
      "properties": {
        "label": "Brasserie des Alliés",
        "type": "Factory",
        "entity": "http://www.wikidata.org/entity/Q16071049",
        "country_qid": "Q31"
      }
    },
    {
      "type": "Feature",
      "geometry": {
        "type": "Point",
        "coordinates": [
          3.47919,
          50.80931
        ]
      },
      "properties": {
        "label": "Brouwerij Van Cauwenberghe",
        "type": "Factory",
        "entity": "http://www.wikidata.org/entity/Q13445589",
        "country_qid": "Q31"
      }
    },
    {
      "type": "Feature",
      "geometry": {
        "type": "Point",
        "coordinates": [
          4.2569,
          51.21281
        ]
      },
      "properties": {
        "label": "Brouwerij Vermeulen",
        "type": "Factory",
        "entity": "http://www.wikidata.org/entity/Q13445583",
        "country_qid": "Q31"
      }
    },
    {
      "type": "Feature",
      "geometry": {
        "type": "Point",
        "coordinates": [
          3.710686,
          51.005157
        ]
      },
      "properties": {
        "label": "Brouwerij De Schelde",
        "type": "Factory",
        "entity": "http://www.wikidata.org/entity/Q13445556",
        "country_qid": "Q31"
      }
    },
    {
      "type": "Feature",
      "geometry": {
        "type": "Point",
        "coordinates": [
          3.967056,
          50.919333
        ]
      },
      "properties": {
        "label": "Brouwerij De Glazen Toren",
        "type": "Factory",
        "entity": "http://www.wikidata.org/entity/Q13445541",
        "country_qid": "Q31"
      }
    },
    {
      "type": "Feature",
      "geometry": {
        "type": "Point",
        "coordinates": [
          3.70699,
          51.069982
        ]
      },
      "properties": {
        "label": "Brouwerij Vooruit",
        "type": "Factory",
        "entity": "http://www.wikidata.org/entity/Q13569411",
        "country_qid": "Q31"
      }
    },
    {
      "type": "Feature",
      "geometry": {
        "type": "Point",
        "coordinates": [
          3.53491813,
          50.824602
        ]
      },
      "properties": {
        "label": "Brouwerij Vita",
        "type": "Factory",
        "entity": "http://www.wikidata.org/entity/Q13569410",
        "country_qid": "Q31"
      }
    },
    {
      "type": "Feature",
      "geometry": {
        "type": "Point",
        "coordinates": [
          3.23465,
          51.223632
        ]
      },
      "properties": {
        "label": "Q15873550",
        "type": "Factory",
        "entity": "http://www.wikidata.org/entity/Q15873550",
        "country_qid": "Q31"
      }
    },
    {
      "type": "Feature",
      "geometry": {
        "type": "Point",
        "coordinates": [
          3.670748,
          51.022608
        ]
      },
      "properties": {
        "label": "Brouwerij Roegiers",
        "type": "Factory",
        "entity": "http://www.wikidata.org/entity/Q13445578",
        "country_qid": "Q31"
      }
    },
    {
      "type": "Feature",
      "geometry": {
        "type": "Point",
        "coordinates": [
          3.75806,
          50.6205
        ]
      },
      "properties": {
        "label": "Brasserie des Géants",
        "type": "Factory",
        "entity": "http://www.wikidata.org/entity/Q16507245",
        "country_qid": "Q31"
      }
    },
    {
      "type": "Feature",
      "geometry": {
        "type": "Point",
        "coordinates": [
          3.55223,
          50.88889
        ]
      },
      "properties": {
        "label": "Q14849588",
        "type": "Factory",
        "entity": "http://www.wikidata.org/entity/Q14849588",
        "country_qid": "Q31"
      }
    },
    {
      "type": "Feature",
      "geometry": {
        "type": "Point",
        "coordinates": [
          3.81436676,
          50.872072
        ]
      },
      "properties": {
        "label": "Brouwerij De Klok, Zottegem",
        "type": "Factory",
        "entity": "http://www.wikidata.org/entity/Q13445545",
        "country_qid": "Q31"
      }
    },
    {
      "type": "Feature",
      "geometry": {
        "type": "Point",
        "coordinates": [
          4.07557368,
          50.890397
        ]
      },
      "properties": {
        "label": "Brouwerij De Leeuw",
        "type": "Factory",
        "entity": "http://www.wikidata.org/entity/Q13445552",
        "country_qid": "Q31"
      }
    },
    {
      "type": "Feature",
      "geometry": {
        "type": "Point",
        "coordinates": [
          3.6100468,
          50.841414
        ]
      },
      "properties": {
        "label": "Brouwerij Sint-Arnoldus",
        "type": "Factory",
        "entity": "http://www.wikidata.org/entity/Q13445582",
        "country_qid": "Q31"
      }
    },
    {
      "type": "Feature",
      "geometry": {
        "type": "Point",
        "coordinates": [
          3.67483824,
          51.102381
        ]
      },
      "properties": {
        "label": "Brouwerij Neyt",
        "type": "Factory",
        "entity": "http://www.wikidata.org/entity/Q13445573",
        "country_qid": "Q31"
      }
    },
    {
      "type": "Feature",
      "geometry": {
        "type": "Point",
        "coordinates": [
          4.109782,
          50.502054
        ]
      },
      "properties": {
        "label": "Saint-Feuillien beer",
        "type": "Factory",
        "entity": "http://www.wikidata.org/entity/Q14622653",
        "country_qid": "Q31"
      }
    },
    {
      "type": "Feature",
      "geometry": {
        "type": "Point",
        "coordinates": [
          5.76868,
          50.1521
        ]
      },
      "properties": {
        "label": "Brasserie Inter-Pol",
        "type": "Factory",
        "entity": "http://www.wikidata.org/entity/Q15873507",
        "country_qid": "Q31"
      }
    },
    {
      "type": "Feature",
      "geometry": {
        "type": "Point",
        "coordinates": [
          4.02318478,
          50.797688
        ]
      },
      "properties": {
        "label": "Brouwerij Sint-Pieter",
        "type": "Factory",
        "entity": "http://www.wikidata.org/entity/Q13569404",
        "country_qid": "Q31"
      }
    },
    {
      "type": "Feature",
      "geometry": {
        "type": "Point",
        "coordinates": [
          3.68575,
          51.18403
        ]
      },
      "properties": {
        "label": "Brouwerij Het Kasteel",
        "type": "Factory",
        "entity": "http://www.wikidata.org/entity/Q13445566",
        "country_qid": "Q31"
      }
    },
    {
      "type": "Feature",
      "geometry": {
        "type": "Point",
        "coordinates": [
          4.20633,
          50.6959
        ]
      },
      "properties": {
        "label": "Q13569361",
        "type": "Factory",
        "entity": "http://www.wikidata.org/entity/Q13569361",
        "country_qid": "Q31"
      }
    },
    {
      "type": "Feature",
      "geometry": {
        "type": "Point",
        "coordinates": [
          3.7216562,
          51.060445
        ]
      },
      "properties": {
        "label": "Brouwerij Ultra",
        "type": "Factory",
        "entity": "http://www.wikidata.org/entity/Q13445588",
        "country_qid": "Q31"
      }
    },
    {
      "type": "Feature",
      "geometry": {
        "type": "Point",
        "coordinates": [
          4.26934,
          51.1292
        ]
      },
      "properties": {
        "label": "Van Goethem",
        "type": "Factory",
        "entity": "http://www.wikidata.org/entity/Q15873553",
        "country_qid": "Q31"
      }
    },
    {
      "type": "Feature",
      "geometry": {
        "type": "Point",
        "coordinates": [
          3.73457,
          51.05221
        ]
      },
      "properties": {
        "label": "Brouwerij Meiresonne",
        "type": "Factory",
        "entity": "http://www.wikidata.org/entity/Q13445572",
        "country_qid": "Q31"
      }
    },
    {
      "type": "Feature",
      "geometry": {
        "type": "Point",
        "coordinates": [
          3.622307626,
          50.86891679
        ]
      },
      "properties": {
        "label": "Brouwerij Cnudde",
        "type": "Factory",
        "entity": "http://www.wikidata.org/entity/Q13445537",
        "country_qid": "Q31"
      }
    },
    {
      "type": "Feature",
      "geometry": {
        "type": "Point",
        "coordinates": [
          3.42059,
          50.96628
        ]
      },
      "properties": {
        "label": "Brouwerij Desplenter",
        "type": "Factory",
        "entity": "http://www.wikidata.org/entity/Q13445576",
        "country_qid": "Q31"
      }
    },
    {
      "type": "Feature",
      "geometry": {
        "type": "Point",
        "coordinates": [
          3.29121798,
          50.950282
        ]
      },
      "properties": {
        "label": "Brouwerij Vondel",
        "type": "Factory",
        "entity": "http://www.wikidata.org/entity/Q13445592",
        "country_qid": "Q31"
      }
    },
    {
      "type": "Feature",
      "geometry": {
        "type": "Point",
        "coordinates": [
          3.723467,
          51.059784
        ]
      },
      "properties": {
        "label": "Brouwerij Het Sleutelken",
        "type": "Factory",
        "entity": "http://www.wikidata.org/entity/Q13445567",
        "country_qid": "Q31"
      }
    },
    {
      "type": "Feature",
      "geometry": {
        "type": "Point",
        "coordinates": [
          4.11536694,
          50.991274
        ]
      },
      "properties": {
        "label": "Brouwerij Sint-Arnoldus",
        "type": "Factory",
        "entity": "http://www.wikidata.org/entity/Q13569403",
        "country_qid": "Q31"
      }
    },
    {
      "type": "Feature",
      "geometry": {
        "type": "Point",
        "coordinates": [
          4.336349,
          50.829862
        ]
      },
      "properties": {
        "label": "La Tricoterie",
        "type": "Factory",
        "entity": "http://www.wikidata.org/entity/Q130739475",
        "country_qid": "Q31"
      }
    },
    {
      "type": "Feature",
      "geometry": {
        "type": "Point",
        "coordinates": [
          3.228578,
          51.213389
        ]
      },
      "properties": {
        "label": "Brouwerij Aigle Belgica",
        "type": "Factory",
        "entity": "http://www.wikidata.org/entity/Q1875263",
        "country_qid": "Q31"
      }
    },
    {
      "type": "Feature",
      "geometry": {
        "type": "Point",
        "coordinates": [
          3.23377,
          51.21034
        ]
      },
      "properties": {
        "label": "Q2291277",
        "type": "Factory",
        "entity": "http://www.wikidata.org/entity/Q2291277",
        "country_qid": "Q31"
      }
    },
    {
      "type": "Feature",
      "geometry": {
        "type": "Point",
        "coordinates": [
          4.15205,
          50.674597222
        ]
      },
      "properties": {
        "label": "Lefebvre brewery",
        "type": "Factory",
        "entity": "http://www.wikidata.org/entity/Q1967378",
        "country_qid": "Q31"
      }
    },
    {
      "type": "Feature",
      "geometry": {
        "type": "Point",
        "coordinates": [
          3.746169444,
          51.176588888
        ]
      },
      "properties": {
        "label": "Van Steenberghe brewery",
        "type": "Factory",
        "entity": "http://www.wikidata.org/entity/Q2509884",
        "country_qid": "Q31"
      }
    },
    {
      "type": "Feature",
      "geometry": {
        "type": "Point",
        "coordinates": [
          3.6744,
          50.92353
        ]
      },
      "properties": {
        "label": "Q2357114",
        "type": "Factory",
        "entity": "http://www.wikidata.org/entity/Q2357114",
        "country_qid": "Q31"
      }
    },
    {
      "type": "Feature",
      "geometry": {
        "type": "Point",
        "coordinates": [
          2.6215,
          50.8585
        ]
      },
      "properties": {
        "label": "Van Eecke brewery",
        "type": "Factory",
        "entity": "http://www.wikidata.org/entity/Q1881997",
        "country_qid": "Q31"
      }
    },
    {
      "type": "Feature",
      "geometry": {
        "type": "Point",
        "coordinates": [
          3.85359,
          51.02981
        ]
      },
      "properties": {
        "label": "Brouwerij Walrave",
        "type": "Factory",
        "entity": "http://www.wikidata.org/entity/Q2098621",
        "country_qid": "Q31"
      }
    },
    {
      "type": "Feature",
      "geometry": {
        "type": "Point",
        "coordinates": [
          2.903452777,
          51.02795
        ]
      },
      "properties": {
        "label": "De Dolle Brouwers",
        "type": "Factory",
        "entity": "http://www.wikidata.org/entity/Q2117061",
        "country_qid": "Q31"
      }
    },
    {
      "type": "Feature",
      "geometry": {
        "type": "Point",
        "coordinates": [
          6.0296682,
          50.6309798
        ]
      },
      "properties": {
        "label": "house Paveestraße 12",
        "type": "Factory",
        "entity": "http://www.wikidata.org/entity/Q2435429",
        "country_qid": "Q31"
      }
    },
    {
      "type": "Feature",
      "geometry": {
        "type": "Point",
        "coordinates": [
          3.71696234,
          50.905777
        ]
      },
      "properties": {
        "label": "Brouwerij De Geyter",
        "type": "Factory",
        "entity": "http://www.wikidata.org/entity/Q2021756",
        "country_qid": "Q31"
      }
    },
    {
      "type": "Feature",
      "geometry": {
        "type": "Point",
        "coordinates": [
          4.473056,
          51.031944
        ]
      },
      "properties": {
        "label": "Het Anker Brewery",
        "type": "Factory",
        "entity": "http://www.wikidata.org/entity/Q2473159",
        "country_qid": "Q31"
      }
    },
    {
      "type": "Feature",
      "geometry": {
        "type": "Point",
        "coordinates": [
          4.63534,
          51.05491
        ]
      },
      "properties": {
        "label": "Q2478931",
        "type": "Factory",
        "entity": "http://www.wikidata.org/entity/Q2478931",
        "country_qid": "Q31"
      }
    },
    {
      "type": "Feature",
      "geometry": {
        "type": "Point",
        "coordinates": [
          4.342285,
          50.828871
        ]
      },
      "properties": {
        "label": "Pianofabriek",
        "type": "Factory",
        "entity": "http://www.wikidata.org/entity/Q130740193",
        "country_qid": "Q31"
      }
    },
    {
      "type": "Feature",
      "geometry": {
        "type": "Point",
        "coordinates": [
          3.2985431,
          50.862522
        ]
      },
      "properties": {
        "label": "Brouwerij De Brabandere",
        "type": "Factory",
        "entity": "http://www.wikidata.org/entity/Q2320696",
        "country_qid": "Q31"
      }
    },
    {
      "type": "Feature",
      "geometry": {
        "type": "Point",
        "coordinates": [
          3.22465,
          51.20249
        ]
      },
      "properties": {
        "label": "De Halve Maan brewery",
        "type": "Factory",
        "entity": "http://www.wikidata.org/entity/Q1179933",
        "country_qid": "Q31"
      }
    },
    {
      "type": "Feature",
      "geometry": {
        "type": "Point",
        "coordinates": [
          5.14395118,
          50.819035
        ]
      },
      "properties": {
        "label": "Brouwerij Wilderen",
        "type": "Factory",
        "entity": "http://www.wikidata.org/entity/Q2174139",
        "country_qid": "Q31"
      }
    },
    {
      "type": "Feature",
      "geometry": {
        "type": "Point",
        "coordinates": [
          2.737572222,
          50.931988888
        ]
      },
      "properties": {
        "label": "De Struise brewers",
        "type": "Factory",
        "entity": "http://www.wikidata.org/entity/Q1987425",
        "country_qid": "Q31"
      }
    },
    {
      "type": "Feature",
      "geometry": {
        "type": "Point",
        "coordinates": [
          3.7228475,
          50.3748615
        ]
      },
      "properties": {
        "label": "Brasserie des Rocs",
        "type": "Factory",
        "entity": "http://www.wikidata.org/entity/Q2185912",
        "country_qid": "Q31"
      }
    },
    {
      "type": "Feature",
      "geometry": {
        "type": "Point",
        "coordinates": [
          4.222946,
          50.985094
        ]
      },
      "properties": {
        "label": "Brewery De Block",
        "type": "Factory",
        "entity": "http://www.wikidata.org/entity/Q1179773",
        "country_qid": "Q31"
      }
    },
    {
      "type": "Feature",
      "geometry": {
        "type": "Point",
        "coordinates": [
          3.73029,
          51.05719
        ]
      },
      "properties": {
        "label": "Brouwerij Excelsior",
        "type": "Factory",
        "entity": "http://www.wikidata.org/entity/Q1882541",
        "country_qid": "Q31"
      }
    },
    {
      "type": "Feature",
      "geometry": {
        "type": "Point",
        "coordinates": [
          4.83952314,
          50.987996
        ]
      },
      "properties": {
        "label": "Brouwerij Tielemans",
        "type": "Factory",
        "entity": "http://www.wikidata.org/entity/Q2029392",
        "country_qid": "Q31"
      }
    },
    {
      "type": "Feature",
      "geometry": {
        "type": "Point",
        "coordinates": [
          2.63838,
          50.8418
        ]
      },
      "properties": {
        "label": "St. Bernardus Brewery",
        "type": "Factory",
        "entity": "http://www.wikidata.org/entity/Q2497996",
        "country_qid": "Q31"
      }
    },
    {
      "type": "Feature",
      "geometry": {
        "type": "Point",
        "coordinates": [
          3.91009,
          50.92727
        ]
      },
      "properties": {
        "label": "Brouwerij Rubbens",
        "type": "Factory",
        "entity": "http://www.wikidata.org/entity/Q2195318",
        "country_qid": "Q31"
      }
    },
    {
      "type": "Feature",
      "geometry": {
        "type": "Point",
        "coordinates": [
          4.90365,
          50.771575
        ]
      },
      "properties": {
        "label": "Hoegaarden Brewery",
        "type": "Factory",
        "entity": "http://www.wikidata.org/entity/Q1134872",
        "country_qid": "Q31"
      }
    },
    {
      "type": "Feature",
      "geometry": {
        "type": "Point",
        "coordinates": [
          6.007586111,
          50.391916666
        ]
      },
      "properties": {
        "label": "brewery of Bellevaux",
        "type": "Factory",
        "entity": "http://www.wikidata.org/entity/Q2334658",
        "country_qid": "Q31"
      }
    },
    {
      "type": "Feature",
      "geometry": {
        "type": "Point",
        "coordinates": [
          4.021451,
          50.841324
        ]
      },
      "properties": {
        "label": "Brouwerij Slaghmuylder",
        "type": "Factory",
        "entity": "http://www.wikidata.org/entity/Q2470761",
        "country_qid": "Q31"
      }
    },
    {
      "type": "Feature",
      "geometry": {
        "type": "Point",
        "coordinates": [
          5.166111111,
          50.776666666
        ]
      },
      "properties": {
        "label": "Kerkom brewery",
        "type": "Factory",
        "entity": "http://www.wikidata.org/entity/Q2268609",
        "country_qid": "Q31"
      }
    },
    {
      "type": "Feature",
      "geometry": {
        "type": "Point",
        "coordinates": [
          3.27932,
          50.77669
        ]
      },
      "properties": {
        "label": "Brouwerij Omer Vander Ghinste",
        "type": "Factory",
        "entity": "http://www.wikidata.org/entity/Q2164364",
        "country_qid": "Q31"
      }
    },
    {
      "type": "Feature",
      "geometry": {
        "type": "Point",
        "coordinates": [
          3.81192595,
          50.869885
        ]
      },
      "properties": {
        "label": "Brouwerij Crombé",
        "type": "Factory",
        "entity": "http://www.wikidata.org/entity/Q2441655",
        "country_qid": "Q31"
      }
    },
    {
      "type": "Feature",
      "geometry": {
        "type": "Point",
        "coordinates": [
          3.650758333,
          50.571988888
        ]
      },
      "properties": {
        "label": "Dupont brewery",
        "type": "Factory",
        "entity": "http://www.wikidata.org/entity/Q2421215",
        "country_qid": "Q31"
      }
    },
    {
      "type": "Feature",
      "geometry": {
        "type": "Point",
        "coordinates": [
          3.257880555,
          50.920180555
        ]
      },
      "properties": {
        "label": "Van Honsebrouck Brewery",
        "type": "Factory",
        "entity": "http://www.wikidata.org/entity/Q1342474",
        "country_qid": "Q31"
      }
    },
    {
      "type": "Feature",
      "geometry": {
        "type": "Point",
        "coordinates": [
          2.90336788,
          51.028021
        ]
      },
      "properties": {
        "label": "Brouwerij Costenoble",
        "type": "Factory",
        "entity": "http://www.wikidata.org/entity/Q21281422",
        "country_qid": "Q31"
      }
    },
    {
      "type": "Feature",
      "geometry": {
        "type": "Point",
        "coordinates": [
          5.054694444,
          50.987361111
        ]
      },
      "properties": {
        "label": "De Drie Kronen",
        "type": "Factory",
        "entity": "http://www.wikidata.org/entity/Q109687937",
        "country_qid": "Q31"
      }
    },
    {
      "type": "Feature",
      "geometry": {
        "type": "Point",
        "coordinates": [
          4.330207,
          50.853079
        ]
      },
      "properties": {
        "label": "de Bottelarij",
        "type": "Factory",
        "entity": "http://www.wikidata.org/entity/Q33100210",
        "country_qid": "Q31"
      }
    },
    {
      "type": "Feature",
      "geometry": {
        "type": "Point",
        "coordinates": [
          3.20603907,
          50.938004
        ]
      },
      "properties": {
        "label": "Brouwerij D'Oude Maalderij",
        "type": "Factory",
        "entity": "http://www.wikidata.org/entity/Q110946684",
        "country_qid": "Q31"
      }
    },
    {
      "type": "Feature",
      "geometry": {
        "type": "Point",
        "coordinates": [
          3.7949,
          50.4266
        ]
      },
      "properties": {
        "label": "Q24936873",
        "type": "Factory",
        "entity": "http://www.wikidata.org/entity/Q24936873",
        "country_qid": "Q31"
      }
    },
    {
      "type": "Feature",
      "geometry": {
        "type": "Point",
        "coordinates": [
          2.745633,
          50.98029
        ]
      },
      "properties": {
        "label": "Brouwerij Het Damberd",
        "type": "Factory",
        "entity": "http://www.wikidata.org/entity/Q109983503",
        "country_qid": "Q31"
      }
    },
    {
      "type": "Feature",
      "geometry": {
        "type": "Point",
        "coordinates": [
          4.211758,
          50.826987
        ]
      },
      "properties": {
        "label": "Brouwerij De Neve",
        "type": "Factory",
        "entity": "http://www.wikidata.org/entity/Q91786669",
        "country_qid": "Q31"
      }
    },
    {
      "type": "Feature",
      "geometry": {
        "type": "Point",
        "coordinates": [
          4.3761,
          50.83733
        ]
      },
      "properties": {
        "label": "Q96064512",
        "type": "Factory",
        "entity": "http://www.wikidata.org/entity/Q96064512",
        "country_qid": "Q31"
      }
    },
    {
      "type": "Feature",
      "geometry": {
        "type": "Point",
        "coordinates": [
          3.264169,
          50.830206
        ]
      },
      "properties": {
        "label": "Ruimtegist",
        "type": "Factory",
        "entity": "http://www.wikidata.org/entity/Q112738166",
        "country_qid": "Q31"
      }
    },
    {
      "type": "Feature",
      "geometry": {
        "type": "Point",
        "coordinates": [
          4.62386549,
          50.815389
        ]
      },
      "properties": {
        "label": "Brouwerij De Kroon",
        "type": "Factory",
        "entity": "http://www.wikidata.org/entity/Q22778356",
        "country_qid": "Q31"
      }
    },
    {
      "type": "Feature",
      "geometry": {
        "type": "Point",
        "coordinates": [
          4.69922,
          50.88084
        ]
      },
      "properties": {
        "label": "Den Grooten en Den Cleynen Cruywaeghen (Leuven)",
        "type": "Factory",
        "entity": "http://www.wikidata.org/entity/Q63350778",
        "country_qid": "Q31"
      }
    },
    {
      "type": "Feature",
      "geometry": {
        "type": "Point",
        "coordinates": [
          4.456841666,
          51.219583333
        ]
      },
      "properties": {
        "label": "Brouwerij De Ridder",
        "type": "Factory",
        "entity": "http://www.wikidata.org/entity/Q22956038",
        "country_qid": "Q31"
      }
    },
    {
      "type": "Feature",
      "geometry": {
        "type": "Point",
        "coordinates": [
          4.447267,
          51.132706
        ]
      },
      "properties": {
        "label": "Brouwerij De Sleutel",
        "type": "Factory",
        "entity": "http://www.wikidata.org/entity/Q109450837",
        "country_qid": "Q31"
      }
    },
    {
      "type": "Feature",
      "geometry": {
        "type": "Point",
        "coordinates": [
          4.839625,
          50.988586111
        ]
      },
      "properties": {
        "label": "Aarschotse Stadsbrouwerij",
        "type": "Factory",
        "entity": "http://www.wikidata.org/entity/Q48739985",
        "country_qid": "Q31"
      }
    },
    {
      "type": "Feature",
      "geometry": {
        "type": "Point",
        "coordinates": [
          3.21636021,
          50.91689
        ]
      },
      "properties": {
        "label": "Brouwerij Carpentier",
        "type": "Factory",
        "entity": "http://www.wikidata.org/entity/Q20991781",
        "country_qid": "Q31"
      }
    },
    {
      "type": "Feature",
      "geometry": {
        "type": "Point",
        "coordinates": [
          5.7654,
          50.7396
        ]
      },
      "properties": {
        "label": "Q22343069",
        "type": "Factory",
        "entity": "http://www.wikidata.org/entity/Q22343069",
        "country_qid": "Q31"
      }
    },
    {
      "type": "Feature",
      "geometry": {
        "type": "Point",
        "coordinates": [
          3.226161111,
          51.206769444
        ]
      },
      "properties": {
        "label": "Bourgogne des Flandres brewery",
        "type": "Factory",
        "entity": "http://www.wikidata.org/entity/Q101422066",
        "country_qid": "Q31"
      }
    },
    {
      "type": "Feature",
      "geometry": {
        "type": "Point",
        "coordinates": [
          4.332084,
          50.842605
        ]
      },
      "properties": {
        "label": "L'Impérial, Ilot Bosch",
        "type": "Factory",
        "entity": "http://www.wikidata.org/entity/Q33100215",
        "country_qid": "Q31"
      }
    },
    {
      "type": "Feature",
      "geometry": {
        "type": "Point",
        "coordinates": [
          5.341966,
          49.62093
        ]
      },
      "properties": {
        "label": "Brasserie Gengoulf",
        "type": "Factory",
        "entity": "http://www.wikidata.org/entity/Q26257838",
        "country_qid": "Q31"
      }
    },
    {
      "type": "Feature",
      "geometry": {
        "type": "Point",
        "coordinates": [
          2.76379,
          50.81646
        ]
      },
      "properties": {
        "label": "Brouwerij Sint-Joris",
        "type": "Factory",
        "entity": "http://www.wikidata.org/entity/Q21281419",
        "country_qid": "Q31"
      }
    },
    {
      "type": "Feature",
      "geometry": {
        "type": "Point",
        "coordinates": [
          4.342994444,
          50.848477777
        ]
      },
      "properties": {
        "label": "former brewery Van Dooren",
        "type": "Factory",
        "entity": "http://www.wikidata.org/entity/Q42417494",
        "country_qid": "Q31"
      }
    },
    {
      "type": "Feature",
      "geometry": {
        "type": "Point",
        "coordinates": [
          5.66898,
          50.61577
        ]
      },
      "properties": {
        "label": "Q30744047",
        "type": "Factory",
        "entity": "http://www.wikidata.org/entity/Q30744047",
        "country_qid": "Q31"
      }
    },
    {
      "type": "Feature",
      "geometry": {
        "type": "Point",
        "coordinates": [
          4.32871,
          51.041996
        ]
      },
      "properties": {
        "label": "Duvel Moortgat Brewery",
        "type": "Factory",
        "entity": "http://www.wikidata.org/entity/Q25387921",
        "country_qid": "Q31"
      }
    },
    {
      "type": "Feature",
      "geometry": {
        "type": "Point",
        "coordinates": [
          3.235583333,
          50.922322222
        ]
      },
      "properties": {
        "label": "Bierkasteel Van Honsebrouck Brewery",
        "type": "Factory",
        "entity": "http://www.wikidata.org/entity/Q105635811",
        "country_qid": "Q31"
      }
    },
    {
      "type": "Feature",
      "geometry": {
        "type": "Point",
        "coordinates": [
          4.702657777,
          50.88714
        ]
      },
      "properties": {
        "label": "Brouwerij Breda",
        "type": "Factory",
        "entity": "http://www.wikidata.org/entity/Q85539415",
        "country_qid": "Q31"
      }
    },
    {
      "type": "Feature",
      "geometry": {
        "type": "Point",
        "coordinates": [
          4.6417,
          50.557163888
        ]
      },
      "properties": {
        "label": "Bertinchamps brewery",
        "type": "Factory",
        "entity": "http://www.wikidata.org/entity/Q22343067",
        "country_qid": "Q31"
      }
    },
    {
      "type": "Feature",
      "geometry": {
        "type": "Point",
        "coordinates": [
          3.265553,
          50.831137
        ]
      },
      "properties": {
        "label": "Budatoren",
        "type": "Factory",
        "entity": "http://www.wikidata.org/entity/Q33100589",
        "country_qid": "Q31"
      }
    },
    {
      "type": "Feature",
      "geometry": {
        "type": "Point",
        "coordinates": [
          5.575722,
          49.976185
        ]
      },
      "properties": {
        "label": "Q67221043",
        "type": "Factory",
        "entity": "http://www.wikidata.org/entity/Q67221043",
        "country_qid": "Q31"
      }
    },
    {
      "type": "Feature",
      "geometry": {
        "type": "Point",
        "coordinates": [
          4.413611111,
          50.440555555
        ]
      },
      "properties": {
        "label": "Brasserie de l'Union",
        "type": "Factory",
        "entity": "http://www.wikidata.org/entity/Q97175450",
        "country_qid": "Q31"
      }
    },
    {
      "type": "Feature",
      "geometry": {
        "type": "Point",
        "coordinates": [
          4.37308,
          50.86587
        ]
      },
      "properties": {
        "label": "La Mule Brewery",
        "type": "Factory",
        "entity": "http://www.wikidata.org/entity/Q106695139",
        "country_qid": "Q31"
      }
    },
    {
      "type": "Feature",
      "geometry": {
        "type": "Point",
        "coordinates": [
          3.22110772,
          51.207924
        ]
      },
      "properties": {
        "label": "Brouwerij De Cop",
        "type": "Factory",
        "entity": "http://www.wikidata.org/entity/Q21281420",
        "country_qid": "Q31"
      }
    },
    {
      "type": "Feature",
      "geometry": {
        "type": "Point",
        "coordinates": [
          4.314219444,
          50.838863888
        ]
      },
      "properties": {
        "label": "Q42414307",
        "type": "Factory",
        "entity": "http://www.wikidata.org/entity/Q42414307",
        "country_qid": "Q31"
      }
    },
    {
      "type": "Feature",
      "geometry": {
        "type": "Point",
        "coordinates": [
          3.64666,
          50.5209
        ]
      },
      "properties": {
        "label": "Q22343070",
        "type": "Factory",
        "entity": "http://www.wikidata.org/entity/Q22343070",
        "country_qid": "Q31"
      }
    },