{
  "type": "FeatureCollection",
  "features": [
    {
      "type": "Feature",
      "geometry": {
        "type": "Point",
        "coordinates": [
          -8.690775,
          41.179329
        ]
      },
      "properties": {
        "label": "Conjunto arquitectónico constituido pelas fábricas \"Algarve Exportador\" e \"Rainha do Sado\"",
        "type": "Factory",
        "entity": "http://www.wikidata.org/entity/Q66814712",
        "country_qid": "Q45"
      }
    },
    {
      "type": "Feature",
      "geometry": {
        "type": "Point",
        "coordinates": [
          -9.191692,
          38.701295
        ]
      },
      "properties": {
        "label": "Fábrica Sant'Ana",
        "type": "Factory",
        "entity": "http://www.wikidata.org/entity/Q10286940",
        "country_qid": "Q45"
      }
    },
    {
      "type": "Feature",
      "geometry": {
        "type": "Point",
        "coordinates": [
          -8.727638244,
          41.265857696
        ]
      },
      "properties": {
        "label": "Conjunto de tanques cavados nos rochedos da Praia de Angeiras",
        "type": "Factory",
        "entity": "http://www.wikidata.org/entity/Q28677343",
        "country_qid": "Q45"
      }
    },
    {
      "type": "Feature",
      "geometry": {
        "type": "Point",
        "coordinates": [
          -8.6344347,
          40.860931396
        ]
      },
      "properties": {
        "label": "Q96572420",
        "type": "Factory",
        "entity": "http://www.wikidata.org/entity/Q96572420",
        "country_qid": "Q45"
      }
    },
    {
      "type": "Feature",
      "geometry": {
        "type": "Point",
        "coordinates": [
          -8.681731,
          38.428481
        ]
      },
      "properties": {
        "label": "Núcleos do Sítio Arqueológico de Abul",
        "type": "Factory",
        "entity": "http://www.wikidata.org/entity/Q335843",
        "country_qid": "Q45"
      }
    },
    {
      "type": "Feature",
      "geometry": {
        "type": "Point",
        "coordinates": [
          -9.050432,
          39.178146
        ]
      },
      "properties": {
        "label": "Real Fábrica de Gelo da Serra de Montejunto",
        "type": "Factory",
        "entity": "http://www.wikidata.org/entity/Q10357821",
        "country_qid": "Q45"
      }
    },
    {
      "type": "Feature",
      "geometry": {
        "type": "Point",
        "coordinates": [
          -9.349310874,
          38.847942352
        ]
      },
      "properties": {
        "label": "Q93901928",
        "type": "Factory",
        "entity": "http://www.wikidata.org/entity/Q93901928",
        "country_qid": "Q45"
      }
    },
    {
      "type": "Feature",
      "geometry": {
        "type": "Point",
        "coordinates": [
          -8.845228195,
          38.690322875
        ]
      },
      "properties": {
        "label": "Olaria Romana do Porto dos Cacos",
        "type": "Factory",
        "entity": "http://www.wikidata.org/entity/Q66815030",
        "country_qid": "Q45"
      }
    },
    {
      "type": "Feature",
      "geometry": {
        "type": "Point",
        "coordinates": [
          -7.508,
          40.2866
        ]
      },
      "properties": {
        "label": "Q96623190",
        "type": "Factory",
        "entity": "http://www.wikidata.org/entity/Q96623190",
        "country_qid": "Q45"
      }
    },
    {
      "type": "Feature",
      "geometry": {
        "type": "Point",
        "coordinates": [
          -8.616886,
          41.128213
        ]
      },
      "properties": {
        "label": "Complexo da Fábrica de Cerâmica e de Fundição das Devesas",
        "type": "Factory",
        "entity": "http://www.wikidata.org/entity/Q66814847",
        "country_qid": "Q45"
      }
    },
    {
      "type": "Feature",
      "geometry": {
        "type": "Point",
        "coordinates": [
          -8.411219596,
          39.603042602
        ]
      },
      "properties": {
        "label": "Q121955372",
        "type": "Factory",
        "entity": "http://www.wikidata.org/entity/Q121955372",
        "country_qid": "Q45"
      }
    },
    {
      "type": "Feature",
      "geometry": {
        "type": "Point",
        "coordinates": [
          -9.163508,
          38.619451
        ]
      },
      "properties": {
        "label": "Fábrica de Pólvora de Vale de Milhaços",
        "type": "Factory",
        "entity": "http://www.wikidata.org/entity/Q66815091",
        "country_qid": "Q45"
      }
    },
    {
      "type": "Feature",
      "geometry": {
        "type": "Point",
        "coordinates": [
          -9.134771,
          38.730866
        ]
      },
      "properties": {
        "label": "Q123028941",
        "type": "Factory",
        "entity": "http://www.wikidata.org/entity/Q123028941",
        "country_qid": "Q45"
      }
    },
    {
      "type": "Feature",
      "geometry": {
        "type": "Point",
        "coordinates": [
          -8.906298,
          39.685191
        ]
      },
      "properties": {
        "label": "Maceira-Liz",
        "type": "Factory",
        "entity": "http://www.wikidata.org/entity/Q98967986",
        "country_qid": "Q45"
      }
    },
    {
      "type": "Feature",
      "geometry": {
        "type": "Point",
        "coordinates": [
          -7.593028,
          37.940797
        ]
      },
      "properties": {
        "label": "Sirpens",
        "type": "Factory",
        "entity": "http://www.wikidata.org/entity/Q109923942",
        "country_qid": "Q45"
      }
    },
    {
      "type": "Feature",
      "geometry": {
        "type": "Point",
        "coordinates": [
          -8.986355,
          38.9686
        ]
      },
      "properties": {
        "label": "Real Fábrica de Atanados da Vila de Povos",
        "type": "Factory",
        "entity": "http://www.wikidata.org/entity/Q66814500",
        "country_qid": "Q45"
      }
    },
    {
      "type": "Feature",
      "geometry": {
        "type": "Point",
        "coordinates": [
          -8.519503,
          38.371152
        ]
      },
      "properties": {
        "label": "Salacia",
        "type": "Factory",
        "entity": "http://www.wikidata.org/entity/Q127431165",
        "country_qid": "Q45"
      }
    },
    {
      "type": "Feature",
      "geometry": {
        "type": "Point",
        "coordinates": [
          -7.507411111,
          40.286655555
        ]
      },
      "properties": {
        "label": "Q96623222",
        "type": "Factory",
        "entity": "http://www.wikidata.org/entity/Q96623222",
        "country_qid": "Q45"
      }
    },
    {
      "type": "Feature",
      "geometry": {
        "type": "Point",
        "coordinates": [
          -7.507317066,
          40.286338806
        ]
      },
      "properties": {
        "label": "Q96623218",
        "type": "Factory",
        "entity": "http://www.wikidata.org/entity/Q96623218",
        "country_qid": "Q45"
      }
    },
    {
      "type": "Feature",
      "geometry": {
        "type": "Point",
        "coordinates": [
          -8.440034,
          41.309522
        ]
      },
      "properties": {
        "label": "Edifício da Serra Hidráulica de Pereiras",
        "type": "Factory",
        "entity": "http://www.wikidata.org/entity/Q66814804",
        "country_qid": "Q45"
      }
    },
    {
      "type": "Feature",
      "geometry": {
        "type": "Point",
        "coordinates": [
          -9.13656,
          38.720941
        ]
      },
      "properties": {
        "label": "Q90334757",
        "type": "Factory",
        "entity": "http://www.wikidata.org/entity/Q90334757",
        "country_qid": "Q45"
      }
    },
    {
      "type": "Feature",
      "geometry": {
        "type": "Point",
        "coordinates": [
          -8.927541,
          39.743895
        ]
      },
      "properties": {
        "label": "Nova Fábrica de Vidros da Marinha Grande",
        "type": "Factory",
        "entity": "http://www.wikidata.org/entity/Q109853614",
        "country_qid": "Q45"
      }
    },
    {
      "type": "Feature",
      "geometry": {
        "type": "Point",
        "coordinates": [
          -8.932509,
          39.749227
        ]
      },
      "properties": {
        "label": "Fábrica da Resinagem",
        "type": "Factory",
        "entity": "http://www.wikidata.org/entity/Q108528445",
        "country_qid": "Q45"
      }
    },
    {
      "type": "Feature",
      "geometry": {
        "type": "Point",
        "coordinates": [
          -9.154301,
          38.719761
        ]
      },
      "properties": {
        "label": "Real Fábrica das Sedas",
        "type": "Factory",
        "entity": "http://www.wikidata.org/entity/Q48869233",
        "country_qid": "Q45"
      }
    },
    {
      "type": "Feature",
      "geometry": {
        "type": "Point",
        "coordinates": [
          -8.247511619,
          39.459129
        ]
      },
      "properties": {
        "label": "Q124437944",
        "type": "Factory",
        "entity": "http://www.wikidata.org/entity/Q124437944",
        "country_qid": "Q45"
      }
    },
    {
      "type": "Feature",
      "geometry": {
        "type": "Point",
        "coordinates": [
          -9.104904174,
          38.762329101
        ]
      },
      "properties": {
        "label": "Fábrica Barros",
        "type": "Factory",
        "entity": "http://www.wikidata.org/entity/Q66814371",
        "country_qid": "Q45"
      }
    },
    {
      "type": "Feature",
      "geometry": {
        "type": "Point",
        "coordinates": [
          -7.798889,
          41.101667
        ]
      },
      "properties": {
        "label": "Ekualakos",
        "type": "Factory",
        "entity": "http://www.wikidata.org/entity/Q109789822",
        "country_qid": "Q45"
      }
    },
    {
      "type": "Feature",
      "geometry": {
        "type": "Point",
        "coordinates": [
          -1.1,
          41.7
        ]
      },
      "properties": {
        "label": "Arketurki",
        "type": "Factory",
        "entity": "http://www.wikidata.org/entity/Q20102798",
        "country_qid": "Q45"
      }
    },
    {
      "type": "Feature",
      "geometry": {
        "type": "Point",
        "coordinates": [
          -17.189254234,
          32.745340256
        ]
      },
      "properties": {
        "label": "Fábrica de Manteiga do Estreito da Calheta",
        "type": "Factory",
        "entity": "http://www.wikidata.org/entity/Q109352928",
        "country_qid": "Q45"
      }
    },
    {
      "type": "Feature",
      "geometry": {
        "type": "Point",
        "coordinates": [
          -8.111263,
          41.660425
        ]
      },
      "properties": {
        "label": "Beuibon ?",
        "type": "Factory",
        "entity": "http://www.wikidata.org/entity/Q127429760",
        "country_qid": "Q45"
      }
    },
    {
      "type": "Feature",
      "geometry": {
        "type": "Point",
        "coordinates": [
          -7.65,
          37.633333
        ]
      },
      "properties": {
        "label": "Mirtiles",
        "type": "Factory",
        "entity": "http://www.wikidata.org/entity/Q109919042",
        "country_qid": "Q45"
      }
    },
    {
      "type": "Feature",
      "geometry": {
        "type": "Point",
        "coordinates": [
          -8.435454,
          37.190442
        ]
      },
      "properties": {
        "label": "Fábrica do Inglês",
        "type": "Factory",
        "entity": "http://www.wikidata.org/entity/Q68970460",
        "country_qid": "Q45"
      }
    },
    {
      "type": "Feature",
      "geometry": {
        "type": "Point",
        "coordinates": [
          -7.935108,
          37.01535
        ]
      },
      "properties": {
        "label": "Osonuba",
        "type": "Factory",
        "entity": "http://www.wikidata.org/entity/Q109928683",
        "country_qid": "Q45"
      }
    },
    {
      "type": "Feature",
      "geometry": {
        "type": "Point",
        "coordinates": [
          -9.13505,
          38.721092
        ]
      },
      "properties": {
        "label": "Fábrica de Cerâmica da Viúva Lamego",
        "type": "Factory",
        "entity": "http://www.wikidata.org/entity/Q10286950",
        "country_qid": "Q45"
      }
    },
    {
      "type": "Feature",
      "geometry": {
        "type": "Point",
        "coordinates": [
          -16.828008,
          32.774132
        ]
      },
      "properties": {
        "label": "Fábrica de aguardente da Companhia dos Engenhos do Norte",
        "type": "Factory",
        "entity": "http://www.wikidata.org/entity/Q66816046",
        "country_qid": "Q45"
      }
    },
    {
      "type": "Feature",
      "geometry": {
        "type": "Point",
        "coordinates": [
          -9.140963554,
          38.716846466
        ]
      },
      "properties": {
        "label": "Cervejaria Solmar, incluindo o património móvel integrado",
        "type": "Factory",
        "entity": "http://www.wikidata.org/entity/Q74473658",
        "country_qid": "Q45"
      }
    },
    {
      "type": "Feature",
      "geometry": {
        "type": "Point",
        "coordinates": [
          -9.142493469,
          38.741029912
        ]
      },
      "properties": {
        "label": "Q90416449",
        "type": "Factory",
        "entity": "http://www.wikidata.org/entity/Q90416449",
        "country_qid": "Q45"
      }
    },
    {
      "type": "Feature",
      "geometry": {
        "type": "Point",
        "coordinates": [
          -8.591119,
          37.142392
        ]
      },
      "properties": {
        "label": "Ipses",
        "type": "Factory",
        "entity": "http://www.wikidata.org/entity/Q10303507",
        "country_qid": "Q45"
      }
    },
    {
      "type": "Feature",
      "geometry": {
        "type": "Point",
        "coordinates": [
          -7.934722,
          37.01425
        ]
      },
      "properties": {
        "label": "Q123058964",
        "type": "Factory",
        "entity": "http://www.wikidata.org/entity/Q123058964",
        "country_qid": "Q45"
      }
    },
    {
      "type": "Feature",
      "geometry": {
        "type": "Point",
        "coordinates": [
          -9.17882,
          38.70351
        ]
      },
      "properties": {
        "label": "LxFactory",
        "type": "Factory",
        "entity": "http://www.wikidata.org/entity/Q112628482",
        "country_qid": "Q45"
      }
    },
    {
      "type": "Feature",
      "geometry": {
        "type": "Point",
        "coordinates": [
          -7.43,
          39.292
        ]
      },
      "properties": {
        "label": "Dipo",
        "type": "Factory",
        "entity": "http://www.wikidata.org/entity/Q109923909",
        "country_qid": "Q45"
      }
    },
    {
      "type": "Feature",
      "geometry": {
        "type": "Point",
        "coordinates": [
          -17.209339328,
          32.735671353
        ]
      },
      "properties": {
        "label": "Engenho do sítio da Piedade",
        "type": "Factory",
        "entity": "http://www.wikidata.org/entity/Q109353899",
        "country_qid": "Q45"
      }
    },
    {
      "type": "Feature",
      "geometry": {
        "type": "Point",
        "coordinates": [
          -7.164762973,
          38.878421783
        ]
      },
      "properties": {
        "label": "Q118137296",
        "type": "Factory",
        "entity": "http://www.wikidata.org/entity/Q118137296",
        "country_qid": "Q45"
      }
    },
    {
      "type": "Feature",
      "geometry": {
        "type": "Point",
        "coordinates": [
          -9.284578,
          38.740979
        ]
      },
      "properties": {
        "label": "Fábrica da Pólvora de Barcarena",
        "type": "Factory",
        "entity": "http://www.wikidata.org/entity/Q10286946",
        "country_qid": "Q45"
      }
    },
    {
      "type": "Feature",
      "geometry": {
        "type": "Point",
        "coordinates": [
          -8.574414,
          41.917368
        ]
      },
      "properties": {
        "label": "Q122808602",
        "type": "Factory",
        "entity": "http://www.wikidata.org/entity/Q122808602",
        "country_qid": "Q45"
      }
    },
    {
      "type": "Feature",
      "geometry": {
        "type": "Point",
        "coordinates": [
          -9.214587,
          38.694873
        ]
      },
      "properties": {
        "label": "Ancient Roman garum factory, Belém, Lisbon",
        "type": "Factory",
        "entity": "http://www.wikidata.org/entity/Q116373716",
        "country_qid": "Q45"
      }
    },
    {
      "type": "Feature",
      "geometry": {
        "type": "Point",
        "coordinates": [
          -7.428403,
          39.288837
        ]
      },
      "properties": {
        "label": "Conjunto constituído pela Igreja e antigo Convento de São Francisco e Fábrica Robinson",
        "type": "Factory",
        "entity": "http://www.wikidata.org/entity/Q66814644",
        "country_qid": "Q45"
      }
    },
    {
      "type": "Feature",
      "geometry": {
        "type": "Point",
        "coordinates": [
          -8.292459,
          41.440011
        ]
      },
      "properties": {
        "label": "Conjunto das antigas Fábricas de Curtumes",
        "type": "Factory",
        "entity": "http://www.wikidata.org/entity/Q66813404",
        "country_qid": "Q45"
      }
    },
    {
      "type": "Feature",
      "geometry": {
        "type": "Point",
        "coordinates": [
          -8.975201,
          39.546301
        ]
      },
      "properties": {
        "label": "Fábrica Olaria",
        "type": "Factory",
        "entity": "http://www.wikidata.org/entity/Q114742205",
        "country_qid": "Q45"
      }
    },
    {
      "type": "Feature",
      "geometry": {
        "type": "Point",
        "coordinates": [
          -9.10241,
          38.79413
        ]
      },
      "properties": {
        "label": "Fábrica de Loiça de Sacavém",
        "type": "Factory",
        "entity": "http://www.wikidata.org/entity/Q10286960",
        "country_qid": "Q45"
      }
    },
    {
      "type": "Feature",
      "geometry": {
        "type": "Point",
        "coordinates": [
          -16.33857,
          33.05759
        ]
      },
      "properties": {
        "label": "Fábrica das Águas",
        "type": "Factory",
        "entity": "http://www.wikidata.org/entity/Q66996221",
        "country_qid": "Q45"
      }
    },
    {
      "type": "Feature",
      "geometry": {
        "type": "Point",
        "coordinates": [
          -9.0423,
          38.592459
        ]
      },
      "properties": {
        "label": "Real Fábrica de Vidros de Coina",
        "type": "Factory",
        "entity": "http://www.wikidata.org/entity/Q66815048",
        "country_qid": "Q45"
      }
    },
    {
      "type": "Feature",
      "geometry": {
        "type": "Point",
        "coordinates": [
          -8.497155,
          40.905024
        ]
      },
      "properties": {
        "label": "OLIVA",
        "type": "Factory",
        "entity": "http://www.wikidata.org/entity/Q66813076",
        "country_qid": "Q45"
      }
    },
    {
      "type": "Feature",
      "geometry": {
        "type": "Point",
        "coordinates": [
          -7.865225,
          38.015604
        ]
      },
      "properties": {
        "label": "Pax Iulia",
        "type": "Factory",
        "entity": "http://www.wikidata.org/entity/Q127430967",
        "country_qid": "Q45"
      }
    },
    {
      "type": "Feature",
      "geometry": {
        "type": "Point",
        "coordinates": [
          -6.903178,
          41.470083
        ]
      },
      "properties": {
        "label": "Real Filatório de Chacim",
        "type": "Factory",
        "entity": "http://www.wikidata.org/entity/Q66813480",
        "country_qid": "Q45"
      }
    },
    {
      "type": "Feature",
      "geometry": {
        "type": "Point",
        "coordinates": [
          -16.907457351,
          32.6496315
        ]
      },
      "properties": {
        "label": "Fábrica Santo António",
        "type": "Factory",
        "entity": "http://www.wikidata.org/entity/Q67200474",
        "country_qid": "Q45"
      }
    },
    {
      "type": "Feature",
      "geometry": {
        "type": "Point",
        "coordinates": [
          -9.112975,
          38.645923
        ]
      },
      "properties": {
        "label": "Fábrica de Seca de Bacalhau da Companhia Atlântica",
        "type": "Factory",
        "entity": "http://www.wikidata.org/entity/Q106963980",
        "country_qid": "Q45"
      }
    },
    {
      "type": "Feature",
      "geometry": {
        "type": "Point",
        "coordinates": [
          -8.623451232,
          41.214115142
        ]
      },
      "properties": {
        "label": "Q109246414",
        "type": "Factory",
        "entity": "http://www.wikidata.org/entity/Q109246414",
        "country_qid": "Q45"
      }
    },
    {
      "type": "Feature",
      "geometry": {
        "type": "Point",
        "coordinates": [
          -8.601566,
          41.163693
        ]
      },
      "properties": {
        "label": "Q109248626",
        "type": "Factory",
        "entity": "http://www.wikidata.org/entity/Q109248626",
        "country_qid": "Q45"
      }
    },
    {
      "type": "Feature",
      "geometry": {
        "type": "Point",
        "coordinates": [
          -9.102216666,
          38.742772222
        ]
      },
      "properties": {
        "label": "Edifício Sede da Fábrica José Domingos Barreiro",
        "type": "Factory",
        "entity": "http://www.wikidata.org/entity/Q108056692",
        "country_qid": "Q45"
      }
    },
    {
      "type": "Feature",
      "geometry": {
        "type": "Point",
        "coordinates": [
          -16.82708,
          32.77171
        ]
      },
      "properties": {
        "label": "Ruínas do Antigo Engenho",
        "type": "Factory",
        "entity": "http://www.wikidata.org/entity/Q68118430",
        "country_qid": "Q45"
      }
    },
    {
      "type": "Feature",
      "geometry": {
        "type": "Point",
        "coordinates": [
          -9.147864,
          38.686182
        ]
      },
      "properties": {
        "label": "Fábrica romana de salga de Cacilhas",
        "type": "Factory",
        "entity": "http://www.wikidata.org/entity/Q66815034",
        "country_qid": "Q45"
      }
    },
    {
      "type": "Feature",
      "geometry": {
        "type": "Point",
        "coordinates": [
          -7.909615,
          38.570846
        ]
      },
      "properties": {
        "label": "Ebora",
        "type": "Factory",
        "entity": "http://www.wikidata.org/entity/Q127430160",
        "country_qid": "Q45"
      }
    },
    {
      "type": "Feature",
      "geometry": {
        "type": "Point",
        "coordinates": [
          -9.155795097,
          38.722213745
        ]
      },
      "properties": {
        "label": "Edifício da antiga Fábrica dos Tecidos de Seda",
        "type": "Factory",
        "entity": "http://www.wikidata.org/entity/Q90314709",
        "country_qid": "Q45"
      }
    },
    {
      "type": "Feature",
      "geometry": {
        "type": "Point",
        "coordinates": [
          -9.176665,
          38.705711
        ]
      },
      "properties": {
        "label": "Edifício da antiga Escola Industrial do Marquês de Pombal, actualmente Escola Secundária de Fonseca Benevides",
        "type": "Factory",
        "entity": "http://www.wikidata.org/entity/Q17390186",
        "country_qid": "Q45"
      }
    },
    {
      "type": "Feature",
      "geometry": {
        "type": "Point",
        "coordinates": [
          -9.197065,
          38.749226
        ]
      },
      "properties": {
        "label": "Q90334766",
        "type": "Factory",
        "entity": "http://www.wikidata.org/entity/Q90334766",
        "country_qid": "Q45"
      }
    },
    {
      "type": "Feature",
      "geometry": {
        "type": "Point",
        "coordinates": [
          -9.218929,
          38.729873
        ]
      },
      "properties": {
        "label": "Cabos de Ávila",
        "type": "Factory",
        "entity": "http://www.wikidata.org/entity/Q66814209",
        "country_qid": "Q45"
      }
    },
    {
      "type": "Feature",
      "geometry": {
        "type": "Point",
        "coordinates": [
          -8.706535,
          41.209344
        ]
      },
      "properties": {
        "label": "Porto Refinery",
        "type": "Factory",
        "entity": "http://www.wikidata.org/entity/Q101273991",
        "country_qid": "Q45"
      }
    },
    {
      "type": "Feature",
      "geometry": {
        "type": "Point",
        "coordinates": [
          -28.625556945,
          38.523044586
        ]
      },
      "properties": {
        "label": "Antiga Fábrica da Baleia do Porto Pim",
        "type": "Factory",
        "entity": "http://www.wikidata.org/entity/Q16490989",
        "country_qid": "Q45"
      }
    },
    {
      "type": "Feature",
      "geometry": {
        "type": "Point",
        "coordinates": [
          -8.350012,
          41.423798
        ]
      },
      "properties": {
        "label": "Fábrica do Moinho do Buraco",
        "type": "Factory",
        "entity": "http://www.wikidata.org/entity/Q66813231",
        "country_qid": "Q45"
      }
    },
    {
      "type": "Feature",
      "geometry": {
        "type": "Point",
        "coordinates": [
          -8.683741,
          40.589181
        ]
      },
      "properties": {
        "label": "Vista Alegre",
        "type": "Factory",
        "entity": "http://www.wikidata.org/entity/Q445864",
        "country_qid": "Q45"
      }
    },
    {
      "type": "Feature",
      "geometry": {
        "type": "Point",
        "coordinates": [
          -8.574034345,
          41.14234454
        ]
      },
      "properties": {
        "label": "Companhia de Moagens Harmonia",
        "type": "Factory",
        "entity": "http://www.wikidata.org/entity/Q54474974",
        "country_qid": "Q45"
      }
    },
    {
      "type": "Feature",
      "geometry": {
        "type": "Point",
        "coordinates": [
          -8.661816596,
          38.091186523
        ]
      },
      "properties": {
        "label": "Q92313695",
        "type": "Factory",
        "entity": "http://www.wikidata.org/entity/Q92313695",
        "country_qid": "Q45"
      }
    },
    {
      "type": "Feature",
      "geometry": {
        "type": "Point",
        "coordinates": [
          -16.90508,
          32.65044
        ]
      },
      "properties": {
        "label": "Edifício na rua do Carmo, n.º 27A",
        "type": "Factory",
        "entity": "http://www.wikidata.org/entity/Q109648463",
        "country_qid": "Q45"
      }
    },
    {
      "type": "Feature",
      "geometry": {
        "type": "Point",
        "coordinates": [
          -7.511786111,
          40.278072222
        ]
      },
      "properties": {
        "label": "Q96625924",
        "type": "Factory",
        "entity": "http://www.wikidata.org/entity/Q96625924",
        "country_qid": "Q45"
      }
    },
    {
      "type": "Feature",
      "geometry": {
        "type": "Point",
        "coordinates": [
          -9.19027778,
          38.6975
        ]
      },
      "properties": {
        "label": "Cordoaria Nacional",
        "type": "Factory",
        "entity": "http://www.wikidata.org/entity/Q10260557",
        "country_qid": "Q45"
      }
    },
    {
      "type": "Feature",
      "geometry": {
        "type": "Point",
        "coordinates": [
          -9.178279,
          38.702223
        ]
      },
      "properties": {
        "label": "Companhia de Fiação e Tecidos Lisbonense",
        "type": "Factory",
        "entity": "http://www.wikidata.org/entity/Q66814295",
        "country_qid": "Q45"
      }
    },
    {
      "type": "Feature",
      "geometry": {
        "type": "Point",
        "coordinates": [
          -9.001643,
          39.051711
        ]
      },
      "properties": {
        "label": "Fábrica Nova da Romeira",
        "type": "Factory",
        "entity": "http://www.wikidata.org/entity/Q10286937",
        "country_qid": "Q45"
      }
    },
    {
      "type": "Feature",
      "geometry": {
        "type": "Point",
        "coordinates": [
          -9.144854,
          38.645429
        ]
      },
      "properties": {
        "label": "Olaria romana da Quinta do Rouxinol",
        "type": "Factory",
        "entity": "http://www.wikidata.org/entity/Q66815081",
        "country_qid": "Q45"
      }
    },
    {
      "type": "Feature",
      "geometry": {
        "type": "Point",
        "coordinates": [
          -7.508676,
          40.277529
        ]
      },
      "properties": {
        "label": "Conjunto de fornalhas e poços cilíndricos da antiga tinturaria da Real Fábrica de Panos da Covilhã",
        "type": "Factory",
        "entity": "http://www.wikidata.org/entity/Q66813584",
        "country_qid": "Q45"
      }
    },
    {
      "type": "Feature",
      "geometry": {
        "type": "Point",
        "coordinates": [
          -8.297611111,
          41.438638888
        ]
      },
      "properties": {
        "label": "Fábrica do Arquinho",
        "type": "Factory",
        "entity": "http://www.wikidata.org/entity/Q123330736",
        "country_qid": "Q45"
      }
    },
    {
      "type": "Feature",
      "geometry": {
        "type": "Point",
        "coordinates": [
          -9.152111111,
          38.717638888
        ]
      },
      "properties": {
        "label": "Imprensa Nacional-Casa da Moeda",
        "type": "Factory",
        "entity": "http://www.wikidata.org/entity/Q592584",
        "country_qid": "Q45"
      }
    },
    {
      "type": "Feature",
      "geometry": {
        "type": "Point",
        "coordinates": [
          -16.8275,
          32.7725
        ]
      },
      "properties": {
        "label": "Antigos Armazéns",
        "type": "Factory",
        "entity": "http://www.wikidata.org/entity/Q68123572",
        "country_qid": "Q45"
      }
    },
    {
      "type": "Feature",
      "geometry": {
        "type": "Point",
        "coordinates": [
          -7.50835,
          40.286172222
        ]
      },
      "properties": {
        "label": "Q96623221",
        "type": "Factory",
        "entity": "http://www.wikidata.org/entity/Q96623221",
        "country_qid": "Q45"
      }
    },
    {
      "type": "Feature",
      "geometry": {
        "type": "Point",
        "coordinates": [
          -8.644506454,
          41.158584594
        ]
      },
      "properties": {
        "label": "Q109248398",
        "type": "Factory",
        "entity": "http://www.wikidata.org/entity/Q109248398",
        "country_qid": "Q45"
      }
    },
    {
      "type": "Feature",
      "geometry": {
        "type": "Point",
        "coordinates": [
          -8.927783966,
          39.748691558
        ]
      },
      "properties": {
        "label": "Fábrica Lusitana de Vidros Angolana",
        "type": "Factory",
        "entity": "http://www.wikidata.org/entity/Q66814158",
        "country_qid": "Q45"
      }
    },
    {
      "type": "Feature",
      "geometry": {
        "type": "Point",
        "coordinates": [
          -8.547657,
          41.170304
        ]
      },
      "properties": {
        "label": "Fábrica Têxtil em Rio Tinto",
        "type": "Factory",
        "entity": "http://www.wikidata.org/entity/Q108258758",
        "country_qid": "Q45"
      }
    },
    {
      "type": "Feature",
      "geometry": {
        "type": "Point",
        "coordinates": [
          -8.940832,
          39.334403
        ]
      },
      "properties": {
        "label": "Q129360076",
        "type": "Factory",
        "entity": "http://www.wikidata.org/entity/Q129360076",
        "country_qid": "Q45"
      }
    },
    {
      "type": "Feature",
      "geometry": {
        "type": "Point",
        "coordinates": [
          -9.10473442,
          38.734264373
        ]
      },
      "properties": {
        "label": "Fábrica A Nacional",
        "type": "Factory",
        "entity": "http://www.wikidata.org/entity/Q74474425",
        "country_qid": "Q45"
      }
    },
    {
      "type": "Feature",
      "geometry": {
        "type": "Point",
        "coordinates": [
          -8.809464,
          37.961777
        ]
      },
      "properties": {
        "label": "Sines Refinery",
        "type": "Factory",
        "entity": "http://www.wikidata.org/entity/Q101421676",
        "country_qid": "Q45"
      }
    },
    {
      "type": "Feature",
      "geometry": {
        "type": "Point",
        "coordinates": [
          -8.3104372,
          41.4575427
        ]
      },
      "properties": {
        "label": "Fábrica de Roldes",
        "type": "Factory",
        "entity": "http://www.wikidata.org/entity/Q134305418",
        "country_qid": "Q45"
      }
    },
    {
      "type": "Feature",
      "geometry": {
        "type": "Point",
        "coordinates": [
          -8.293401718,
          41.439746856
        ]
      },
      "properties": {
        "label": "Q88667573",
        "type": "Factory",
        "entity": "http://www.wikidata.org/entity/Q88667573",
        "country_qid": "Q45"
      }
    },
    {
      "type": "Feature",
      "geometry": {
        "type": "Point",
        "coordinates": [
          -8.299039125,
          41.439545097
        ]
      },
      "properties": {
        "label": "Fábrica de Curtumes da Madroa",
        "type": "Factory",
        "entity": "http://www.wikidata.org/entity/Q124261276",
        "country_qid": "Q45"
      }
    },
    {
      "type": "Feature",
      "geometry": {
        "type": "Point",
        "coordinates": [
          -17.190864563,
          32.734196502
        ]
      },
      "properties": {
        "label": "Engenho do sitio dos Moinhos",
        "type": "Factory",
        "entity": "http://www.wikidata.org/entity/Q109353599",
        "country_qid": "Q45"
      }
    },
    {
      "type": "Feature",
      "geometry": {
        "type": "Point",
        "coordinates": [
          -8.592514,
          41.140429
        ]
      },
      "properties": {
        "label": "Fornos da Fábrica de Louça de Massarelos",
        "type": "Factory",
        "entity": "http://www.wikidata.org/entity/Q10286959",
        "country_qid": "Q45"
      }
    },
    {
      "type": "Feature",
      "geometry": {
        "type": "Point",
        "coordinates": [
          -9.099753,
          38.751925
        ]
      },
      "properties": {
        "label": "Q90334721",
        "type": "Factory",
        "entity": "http://www.wikidata.org/entity/Q90334721",
        "country_qid": "Q45"
      }
    },
    {
      "type": "Feature",
      "geometry": {
        "type": "Point",
        "coordinates": [
          -8.643380555,
          40.6388
        ]
      },
      "properties": {
        "label": "Centro Cultural e de Congressos",
        "type": "Factory",
        "entity": "http://www.wikidata.org/entity/Q76950329",
        "country_qid": "Q45"
      }
    },
    {
      "type": "Feature",
      "geometry": {
        "type": "Point",
        "coordinates": [
          -8.295780726,
          41.437435769
        ]
      },
      "properties": {
        "label": "Cavalinho Factory",
        "type": "Factory",
        "entity": "http://www.wikidata.org/entity/Q123575513",
        "country_qid": "Q45"
      }
    },
    {
      "type": "Feature",
      "geometry": {
        "type": "Point",
        "coordinates": [
          -8.409179687,
          39.610023498
        ]
      },
      "properties": {
        "label": "Q121796239",
        "type": "Factory",
        "entity": "http://www.wikidata.org/entity/Q121796239",
        "country_qid": "Q45"
      }
    },
    {
      "type": "Feature",
      "geometry": {
        "type": "Point",
        "coordinates": [
          -17.229345182,
          32.775592941
        ]
      },
      "properties": {
        "label": "Fábrica de Manteiga da Fajã da Ovelha",
        "type": "Factory",
        "entity": "http://www.wikidata.org/entity/Q109352789",
        "country_qid": "Q45"
      }
    },
    {
      "type": "Feature",
      "geometry": {
        "type": "Point",
        "coordinates": [
          -8.404790878,
          41.555213928
        ]
      },
      "properties": {
        "label": "Saboaria e Perfumaria Confiança",
        "type": "Factory",
        "entity": "http://www.wikidata.org/entity/Q60999969",
        "country_qid": "Q45"
      }
    },
    {
      "type": "Feature",
      "geometry": {
        "type": "Point",
        "coordinates": [
          -16.76884,
          32.72062
        ]
      },
      "properties": {
        "label": "Engenho de Machico",
        "type": "Factory",
        "entity": "http://www.wikidata.org/entity/Q68140540",
        "country_qid": "Q45"
      }
    },
    {
      "type": "Feature",
      "geometry": {
        "type": "Point",
        "coordinates": [
          -7.16232419,
          38.882614824
        ]
      },
      "properties": {
        "label": "Q99341092",
        "type": "Factory",
        "entity": "http://www.wikidata.org/entity/Q99341092",
        "country_qid": "Q45"
      }
    },
    {
      "type": "Feature",
      "geometry": {
        "type": "Point",
        "coordinates": [
          -8.222314,
          40.15366
        ]
      },
      "properties": {
        "label": "Fábrica de Papel do Boque",
        "type": "Factory",
        "entity": "http://www.wikidata.org/entity/Q66943215",
        "country_qid": "Q45"
      }
    },
    {
      "type": "Feature",
      "geometry": {
        "type": "Point",
        "coordinates": [
          -8.529304,
          41.406488
        ]
      },
      "properties": {
        "label": "Q120734110",
        "type": "Factory",
        "entity": "http://www.wikidata.org/entity/Q120734110",
        "country_qid": "Q45"
      }
    },
    {
      "type": "Feature",
      "geometry": {
        "type": "Point",
        "coordinates": [
          -8.300493,
          41.434648
        ]
      },
      "properties": {
        "label": "Fábrica do Castanheiro",
        "type": "Factory",
        "entity": "http://www.wikidata.org/entity/Q123342452",
        "country_qid": "Q45"
      }
    },
    {
      "type": "Feature",
      "geometry": {
        "type": "Point",
        "coordinates": [
          -8.684054374,
          41.178676605
        ]
      },
      "properties": {
        "label": "Q94840233",
        "type": "Factory",
        "entity": "http://www.wikidata.org/entity/Q94840233",
        "country_qid": "Q45"
      }
    },
    {
      "type": "Feature",
      "geometry": {
        "type": "Point",
        "coordinates": [
          -7.7775,
          40.6064
        ]
      },
      "properties": {
        "label": "PSA plant Mangualde",
        "type": "Factory",
        "entity": "http://www.wikidata.org/entity/Q3552612",
        "country_qid": "Q45"
      }
    },
    {
      "type": "Feature",
      "geometry": {
        "type": "Point",
        "coordinates": [
          -9.153435,
          38.670711
        ]
      },
      "properties": {
        "label": "Fábrica de moagem do Caramujo (antiga)",
        "type": "Factory",
        "entity": "http://www.wikidata.org/entity/Q10286963",
        "country_qid": "Q45"
      }
    },
    {
      "type": "Feature",
      "geometry": {
        "type": "Point",
        "coordinates": [
          -8.438617,
          37.189876
        ]
      },
      "properties": {
        "label": "Cilbe",
        "type": "Factory",
        "entity": "http://www.wikidata.org/entity/Q109925761",
        "country_qid": "Q45"
      }
    },
    {
      "type": "Feature",
      "geometry": {
        "type": "Point",
        "coordinates": [
          -7.649884,
          37.125796
        ]
      },
      "properties": {
        "label": "Balsa",
        "type": "Factory",
        "entity": "http://www.wikidata.org/entity/Q109924834",
        "country_qid": "Q45"
      }
    },
    {
      "type": "Feature",
      "geometry": {
        "type": "Point",
        "coordinates": [
          -8.633388888,
          40.76375
        ]
      },
      "properties": {
        "label": "Comur",
        "type": "Factory",
        "entity": "http://www.wikidata.org/entity/Q126956561",
        "country_qid": "Q45"
      }
    },
    {
      "type": "Feature",
      "geometry": {
        "type": "Point",
        "coordinates": [
          -8.65176667,
          41.15566667
        ]
      },
      "properties": {
        "label": "Fábrica de Lanifícios de Lordelo",
        "type": "Factory",
        "entity": "http://www.wikidata.org/entity/Q10286958",
        "country_qid": "Q45"
      }
    },
    {
      "type": "Feature",
      "geometry": {
        "type": "Point",
        "coordinates": [
          -7.504222222,
          40.286205555
        ]
      },
      "properties": {
        "label": "Q96627003",
        "type": "Factory",
        "entity": "http://www.wikidata.org/entity/Q96627003",
        "country_qid": "Q45"
      }
    },
    {
      "type": "Feature",
      "geometry": {
        "type": "Point",
        "coordinates": [
          -8.584756,
          40.981628
        ]
      },
      "properties": {
        "label": "Fábrica de Papel da Amorosa",
        "type": "Factory",
        "entity": "http://www.wikidata.org/entity/Q98348971",
        "country_qid": "Q45"
      }
    },
    {
      "type": "Feature",
      "geometry": {
        "type": "Point",
        "coordinates": [
          -7.445494,
          37.217562
        ]
      },
      "properties": {
        "label": "Baesuri",
        "type": "Factory",
        "entity": "http://www.wikidata.org/entity/Q109923754",
        "country_qid": "Q45"
      }
    },
    {
      "type": "Feature",
      "geometry": {
        "type": "Point",
        "coordinates": [
          -9.13028065,
          39.400197048
        ]
      },
      "properties": {
        "label": "Fábrica de Faianças das Caldas da Rainha",
        "type": "Factory",
        "entity": "http://www.wikidata.org/entity/Q10286957",
        "country_qid": "Q45"
      }
    },
    {
      "type": "Feature",
      "geometry": {
        "type": "Point",
        "coordinates": [
          -8.617427,
          41.1303
        ]
      },
      "properties": {
        "label": "Fábrica de Cerâmica das Devesas",
        "type": "Factory",
        "entity": "http://www.wikidata.org/entity/Q10286951",
        "country_qid": "Q45"
      }
    },
    {
      "type": "Feature",
      "geometry": {
        "type": "Point",
        "coordinates": [
          -7.508676052,
          40.27753067
        ]
      },
      "properties": {
        "label": "Q123167722",
        "type": "Factory",
        "entity": "http://www.wikidata.org/entity/Q123167722",
        "country_qid": "Q45"
      }
    },
    {
      "type": "Feature",
      "geometry": {
        "type": "Point",
        "coordinates": [
          -8.930767,
          39.341686
        ]
      },
      "properties": {
        "label": "Q120197015",
        "type": "Factory",
        "entity": "http://www.wikidata.org/entity/Q120197015",
        "country_qid": "Q45"
      }
    },
    {
      "type": "Feature",
      "geometry": {
        "type": "Point",
        "coordinates": [
          -17.168445158,
          32.716754424
        ]
      },
      "properties": {
        "label": "Casa Rural e Engenho da Família Ornelas Frazão",
        "type": "Factory",
        "entity": "http://www.wikidata.org/entity/Q109353131",
        "country_qid": "Q45"
      }
    }
  ]
}