{
  "type": "FeatureCollection",
  "features": [
    {
      "type": "Feature",
      "geometry": {
        "type": "Point",
        "coordinates": [
          120.9386423,
          23.9755914
        ]
      },
      "properties": {
        "label": "Guangxing Paper Mill",
        "type": "Factory",
        "entity": "http://www.wikidata.org/entity/Q15920328",
        "country_qid": "Q865"
      }
    },
    {
      "type": "Feature",
      "geometry": {
        "type": "Point",
        "coordinates": [
          120.4919,
          22.8782
        ]
      },
      "properties": {
        "label": "Cishan Sugar Factory",
        "type": "Factory",
        "entity": "http://www.wikidata.org/entity/Q11085454",
        "country_qid": "Q865"
      }
    },
    {
      "type": "Feature",
      "geometry": {
        "type": "Point",
        "coordinates": [
          120.299555555,
          23.48025
        ]
      },
      "properties": {
        "label": "Suantou Sugar Factory",
        "type": "Factory",
        "entity": "http://www.wikidata.org/entity/Q15956669",
        "country_qid": "Q865"
      }
    },
    {
      "type": "Feature",
      "geometry": {
        "type": "Point",
        "coordinates": [
          120.285,
          22.64191667
        ]
      },
      "properties": {
        "label": "Yilan Brick Kiln",
        "type": "Factory",
        "entity": "http://www.wikidata.org/entity/Q10949110",
        "country_qid": "Q865"
      }
    },
    {
      "type": "Feature",
      "geometry": {
        "type": "Point",
        "coordinates": [
          120.692218,
          24.137776
        ]
      },
      "properties": {
        "label": "Taichung city sugar factory",
        "type": "Factory",
        "entity": "http://www.wikidata.org/entity/Q10914066",
        "country_qid": "Q865"
      }
    },
    {
      "type": "Feature",
      "geometry": {
        "type": "Point",
        "coordinates": [
          121.535716944,
          25.045916369
        ]
      },
      "properties": {
        "label": "TTL Taipei Brewery",
        "type": "Factory",
        "entity": "http://www.wikidata.org/entity/Q11065257",
        "country_qid": "Q865"
      }
    },
    {
      "type": "Feature",
      "geometry": {
        "type": "Point",
        "coordinates": [
          120.26905,
          23.185818
        ]
      },
      "properties": {
        "label": "Madou Sugar Factory",
        "type": "Factory",
        "entity": "http://www.wikidata.org/entity/Q11175877",
        "country_qid": "Q865"
      }
    },
    {
      "type": "Feature",
      "geometry": {
        "type": "Point",
        "coordinates": [
          120.6885581,
          24.1177487
        ]
      },
      "properties": {
        "label": "Dali Tobacco Factory",
        "type": "Factory",
        "entity": "http://www.wikidata.org/entity/Q85879013",
        "country_qid": "Q865"
      }
    },
    {
      "type": "Feature",
      "geometry": {
        "type": "Point",
        "coordinates": [
          121.314517,
          23.343585
        ]
      },
      "properties": {
        "label": "Yuli Pineapple Factory",
        "type": "Factory",
        "entity": "http://www.wikidata.org/entity/Q96219770",
        "country_qid": "Q865"
      }
    },
    {
      "type": "Feature",
      "geometry": {
        "type": "Point",
        "coordinates": [
          120.347361111,
          22.529388888
        ]
      },
      "properties": {
        "label": "Dalin Refinery",
        "type": "Factory",
        "entity": "http://www.wikidata.org/entity/Q16928890",
        "country_qid": "Q865"
      }
    },
    {
      "type": "Feature",
      "geometry": {
        "type": "Point",
        "coordinates": [
          121.691944444,
          24.713722222
        ]
      },
      "properties": {
        "label": "Kavalan distillery",
        "type": "Factory",
        "entity": "http://www.wikidata.org/entity/Q15063416",
        "country_qid": "Q865"
      }
    },
    {
      "type": "Feature",
      "geometry": {
        "type": "Point",
        "coordinates": [
          120.549611111,
          22.645416666
        ]
      },
      "properties": {
        "label": "Pingtung Distillery",
        "type": "Factory",
        "entity": "http://www.wikidata.org/entity/Q109283511",
        "country_qid": "Q865"
      }
    },
    {
      "type": "Feature",
      "geometry": {
        "type": "Point",
        "coordinates": [
          120.194888888,
          23.792333333
        ]
      },
      "properties": {
        "label": "Mailiao Refinery",
        "type": "Factory",
        "entity": "http://www.wikidata.org/entity/Q7215612",
        "country_qid": "Q865"
      }
    },
    {
      "type": "Feature",
      "geometry": {
        "type": "Point",
        "coordinates": [
          121.864666666,
          25.118277777
        ]
      },
      "properties": {
        "label": "Remains of the 13 Levels",
        "type": "Factory",
        "entity": "http://www.wikidata.org/entity/Q61969017",
        "country_qid": "Q865"
      }
    },
    {
      "type": "Feature",
      "geometry": {
        "type": "Point",
        "coordinates": [
          120.923032608,
          23.892351059
        ]
      },
      "properties": {
        "label": "Antique Assam Tea Farm, Sun Moon Lake",
        "type": "Factory",
        "entity": "http://www.wikidata.org/entity/Q117841805",
        "country_qid": "Q865"
      }
    },
    {
      "type": "Feature",
      "geometry": {
        "type": "Point",
        "coordinates": [
          121.684,
          24.70791667
        ]
      },
      "properties": {
        "label": "Jim and Dad's Brewing Company",
        "type": "Factory",
        "entity": "http://www.wikidata.org/entity/Q51069194",
        "country_qid": "Q865"
      }
    },
    {
      "type": "Feature",
      "geometry": {
        "type": "Point",
        "coordinates": [
          120.62198056,
          24.11096667
        ]
      },
      "properties": {
        "label": "Wuri Brewery",
        "type": "Factory",
        "entity": "http://www.wikidata.org/entity/Q16929101",
        "country_qid": "Q865"
      }
    },
    {
      "type": "Feature",
      "geometry": {
        "type": "Point",
        "coordinates": [
          121.49473889,
          25.03323889
        ]
      },
      "properties": {
        "label": "Tangbu Cultural Park",
        "type": "Factory",
        "entity": "http://www.wikidata.org/entity/Q10914398",
        "country_qid": "Q865"
      }
    },
    {
      "type": "Feature",
      "geometry": {
        "type": "Point",
        "coordinates": [
          121.308,
          25.0334
        ]
      },
      "properties": {
        "label": "Taoyuan oil refinery",
        "type": "Factory",
        "entity": "http://www.wikidata.org/entity/Q17028074",
        "country_qid": "Q865"
      }
    },
    {
      "type": "Feature",
      "geometry": {
        "type": "Point",
        "coordinates": [
          120.69468,
          24.31459
        ]
      },
      "properties": {
        "label": "Yamay Sugar Factory",
        "type": "Factory",
        "entity": "http://www.wikidata.org/entity/Q11092023",
        "country_qid": "Q865"
      }
    },
    {
      "type": "Feature",
      "geometry": {
        "type": "Point",
        "coordinates": [
          121.074569,
          24.783576
        ]
      },
      "properties": {
        "label": "Jinyufong rice milling plant",
        "type": "Factory",
        "entity": "http://www.wikidata.org/entity/Q125957220",
        "country_qid": "Q865"
      }
    },
    {
      "type": "Feature",
      "geometry": {
        "type": "Point",
        "coordinates": [
          120.33961,
          22.56213
        ]
      },
      "properties": {
        "label": "Xiaogang Sugar Refinery",
        "type": "Factory",
        "entity": "http://www.wikidata.org/entity/Q10915798",
        "country_qid": "Q865"
      }
    },
    {
      "type": "Feature",
      "geometry": {
        "type": "Point",
        "coordinates": [
          120.314,
          22.7578
        ]
      },
      "properties": {
        "label": "Ciaotou Sugar Factory",
        "type": "Factory",
        "entity": "http://www.wikidata.org/entity/Q11121917",
        "country_qid": "Q865"
      }
    },
    {
      "type": "Feature",
      "geometry": {
        "type": "Point",
        "coordinates": [
          120.303683577,
          22.704435912
        ]
      },
      "properties": {
        "label": "Kaohsiung Refinery",
        "type": "Factory",
        "entity": "http://www.wikidata.org/entity/Q15909831",
        "country_qid": "Q865"
      }
    },
    {
      "type": "Feature",
      "geometry": {
        "type": "Point",
        "coordinates": [
          118.343,
          24.432
        ]
      },
      "properties": {
        "label": "Kinmen Distillery",
        "type": "Factory",
        "entity": "http://www.wikidata.org/entity/Q15934634",
        "country_qid": "Q865"
      }
    },
    {
      "type": "Feature",
      "geometry": {
        "type": "Point",
        "coordinates": [
          120.29955556,
          23.48025
        ]
      },
      "properties": {
        "label": "Zhecheng Cultural Park",
        "type": "Factory",
        "entity": "http://www.wikidata.org/entity/Q31941000",
        "country_qid": "Q865"
      }
    },
    {
      "type": "Feature",
      "geometry": {
        "type": "Point",
        "coordinates": [
          120.385179569,
          23.41394149
        ]
      },
      "properties": {
        "label": "Nanching Sugar Factory",
        "type": "Factory",
        "entity": "http://www.wikidata.org/entity/Q10909310",
        "country_qid": "Q865"
      }
    },
    {
      "type": "Feature",
      "geometry": {
        "type": "Point",
        "coordinates": [
          119.951722222,
          26.161194444
        ]
      },
      "properties": {
        "label": "Matsu Distillery",
        "type": "Factory",
        "entity": "http://www.wikidata.org/entity/Q85784332",
        "country_qid": "Q865"
      }
    },
    {
      "type": "Feature",
      "geometry": {
        "type": "Point",
        "coordinates": [
          121.560277777,
          25.044027777
        ]
      },
      "properties": {
        "label": "Songshan Tobacco Factory",
        "type": "Factory",
        "entity": "http://www.wikidata.org/entity/Q101956487",
        "country_qid": "Q865"
      }
    },
    {
      "type": "Feature",
      "geometry": {
        "type": "Point",
        "coordinates": [
          120.317052,
          23.299598
        ]
      },
      "properties": {
        "label": "Sinying Sugar Factory",
        "type": "Factory",
        "entity": "http://www.wikidata.org/entity/Q11083339",
        "country_qid": "Q865"
      }
    },
    {
      "type": "Feature",
      "geometry": {
        "type": "Point",
        "coordinates": [
          120.50514,
          22.66139
        ]
      },
      "properties": {
        "label": "Pingtung Tobacco Redrying Plant",
        "type": "Factory",
        "entity": "http://www.wikidata.org/entity/Q67932737",
        "country_qid": "Q865"
      }
    },
    {
      "type": "Feature",
      "geometry": {
        "type": "Point",
        "coordinates": [
          121.511055898,
          25.049210998
        ]
      },
      "properties": {
        "label": "Old Taipei Railway Workshop",
        "type": "Factory",
        "entity": "http://www.wikidata.org/entity/Q65706191",
        "country_qid": "Q865"
      }
    },
    {
      "type": "Feature",
      "geometry": {
        "type": "Point",
        "coordinates": [
          121.22583333,
          22.87233333
        ]
      },
      "properties": {
        "label": "Sintung Sugar Factory",
        "type": "Factory",
        "entity": "http://www.wikidata.org/entity/Q21041610",
        "country_qid": "Q865"
      }
    },
    {
      "type": "Feature",
      "geometry": {
        "type": "Point",
        "coordinates": [
          120.336611111,
          23.380138888
        ]
      },
      "properties": {
        "label": "Houjingliao Yichang Rice Milling Plant",
        "type": "Factory",
        "entity": "http://www.wikidata.org/entity/Q65056310",
        "country_qid": "Q865"
      }
    },
    {
      "type": "Feature",
      "geometry": {
        "type": "Point",
        "coordinates": [
          120.54994,
          24.02553
        ]
      },
      "properties": {
        "label": "Huatan Hoffmann Kiln",
        "type": "Factory",
        "entity": "http://www.wikidata.org/entity/Q93210680",
        "country_qid": "Q865"
      }
    }
  ]
}