{
  "type": "FeatureCollection",
  "features": [
    {
      "type": "Feature",
      "geometry": {
        "type": "Point",
        "coordinates": [
          15.839027777,
          -21.948333333
        ]
      },
      "properties": {
        "label": "Karibib Solar Power Plant",
        "type": "Solar power station",
        "entity": "http://www.wikidata.org/entity/Q122941939",
        "country_qid": "Q1030"
      }
    },
    {
      "type": "Feature",
      "geometry": {
        "type": "Point",
        "coordinates": [
          18.231111111,
          -26.480277777
        ]
      },
      "properties": {
        "label": "Kokerboom Solar Power Station",
        "type": "Solar power station",
        "entity": "http://www.wikidata.org/entity/Q112724635",
        "country_qid": "Q1030"
      }
    },
    {
      "type": "Feature",
      "geometry": {
        "type": "Point",
        "coordinates": [
          14.999166666,
          -22.412222222
        ]
      },
      "properties": {
        "label": "TeraSun Energy Solar Power Station",
        "type": "Solar power station",
        "entity": "http://www.wikidata.org/entity/Q112182702",
        "country_qid": "Q1030"
      }
    },
    {
      "type": "Feature",
      "geometry": {
        "type": "Point",
        "coordinates": [
          16.029444444,
          -21.486666666
        ]
      },
      "properties": {
        "label": "Omburu Solar Power Station",
        "type": "Solar power station",
        "entity": "http://www.wikidata.org/entity/Q113039748",
        "country_qid": "Q1030"
      }
    },
    {
      "type": "Feature",
      "geometry": {
        "type": "Point",
        "coordinates": [
          18.027222222,
          -23.652777777
        ]
      },
      "properties": {
        "label": "Mariental Solar Power Station",
        "type": "Solar power station",
        "entity": "http://www.wikidata.org/entity/Q108795622",
        "country_qid": "Q1030"
      }
    },
    {
      "type": "Feature",
      "geometry": {
        "type": "Point",
        "coordinates": [
          16.935277777,
          -21.687222222
        ]
      },
      "properties": {
        "label": "Otjikoto Solar Power Station",
        "type": "Solar power station",
        "entity": "http://www.wikidata.org/entity/Q124548037",
        "country_qid": "Q1030"
      }
    },
    {
      "type": "Feature",
      "geometry": {
        "type": "Point",
        "coordinates": [
          15.215833333,
          -22.079166666
        ]
      },
      "properties": {
        "label": "Khan Solar Power Station",
        "type": "Solar power station",
        "entity": "http://www.wikidata.org/entity/Q111943721",
        "country_qid": "Q1030"
      }
    }
  ]
}