{
  "type": "FeatureCollection",
  "features": [
    {
      "type": "Feature",
      "geometry": {
        "type": "Point",
        "coordinates": [
          30.941944444,
          3.060555555
        ]
      },
      "properties": {
        "label": "Ituka Solar Power Station",
        "type": "Solar power station",
        "entity": "http://www.wikidata.org/entity/Q124053979",
        "country_qid": "Q1036"
      }
    },
    {
      "type": "Feature",
      "geometry": {
        "type": "Point",
        "coordinates": [
          34.023611111,
          0.547222222
        ]
      },
      "properties": {
        "label": "Busitema Solar Power Station",
        "type": "Solar power station",
        "entity": "http://www.wikidata.org/entity/Q56278464",
        "country_qid": "Q1036"
      }
    },
    {
      "type": "Feature",
      "geometry": {
        "type": "Point",
        "coordinates": [
          31.828611,
          0.620556
        ]
      },
      "properties": {
        "label": "Nkonge Solar Power Station",
        "type": "Solar power station",
        "entity": "http://www.wikidata.org/entity/Q61014536",
        "country_qid": "Q1036"
      }
    },
    {
      "type": "Feature",
      "geometry": {
        "type": "Point",
        "coordinates": [
          31.8198479,
          0.1502406
        ]
      },
      "properties": {
        "label": "Kabulasoke Solar Power Station",
        "type": "Solar power station",
        "entity": "http://www.wikidata.org/entity/Q25226970",
        "country_qid": "Q1036"
      }
    },
    {
      "type": "Feature",
      "geometry": {
        "type": "Point",
        "coordinates": [
          32.56805556,
          0.17277778
        ]
      },
      "properties": {
        "label": "Namugoga Solar Power Station",
        "type": "Solar power station",
        "entity": "http://www.wikidata.org/entity/Q25051457",
        "country_qid": "Q1036"
      }
    },
    {
      "type": "Feature",
      "geometry": {
        "type": "Point",
        "coordinates": [
          32.926944444,
          2.355277777
        ]
      },
      "properties": {
        "label": "Xsabo Lira Solarline",
        "type": "Solar power station",
        "entity": "http://www.wikidata.org/entity/Q96415694",
        "country_qid": "Q1036"
      }
    },
    {
      "type": "Feature",
      "geometry": {
        "type": "Point",
        "coordinates": [
          34.1110426,
          0.630777
        ]
      },
      "properties": {
        "label": "Tororo Solar Power Station",
        "type": "Solar power station",
        "entity": "http://www.wikidata.org/entity/Q25049038",
        "country_qid": "Q1036"
      }
    },
    {
      "type": "Feature",
      "geometry": {
        "type": "Point",
        "coordinates": [
          33.658,
          1.685
        ]
      },
      "properties": {
        "label": "Soroti Solar Power Station",
        "type": "Solar power station",
        "entity": "http://www.wikidata.org/entity/Q25049048",
        "country_qid": "Q1036"
      }
    },
    {
      "type": "Feature",
      "geometry": {
        "type": "Point",
        "coordinates": [
          32.1525,
          -0.306944
        ]
      },
      "properties": {
        "label": "Bukuzindu Hybrid Solar and Thermal Power Station",
        "type": "Solar power station",
        "entity": "http://www.wikidata.org/entity/Q18163371",
        "country_qid": "Q1036"
      }
    },
    {
      "type": "Feature",
      "geometry": {
        "type": "Point",
        "coordinates": [
          33.4304,
          0.492
        ]
      },
      "properties": {
        "label": "Mayuge Solar Power Station",
        "type": "Solar power station",
        "entity": "http://www.wikidata.org/entity/Q25226977",
        "country_qid": "Q1036"
      }
    }
  ]
}