{
  "type": "FeatureCollection",
  "features": [
    {
      "type": "Feature",
      "geometry": {
        "type": "Point",
        "coordinates": [
          3.351655,
          50.309118
        ]
      },
      "properties": {
        "label": "Centrale solaire photovoltaïque de Lourches",
        "type": "Energy generation station",
        "entity": "http://www.wikidata.org/entity/Q108838314",
        "country_qid": "Q142"
      }
    },
    {
      "type": "Feature",
      "geometry": {
        "type": "Point",
        "coordinates": [
          4.01974,
          49.21998
        ]
      },
      "properties": {
        "label": "Q111207979",
        "type": "Energy generation station",
        "entity": "http://www.wikidata.org/entity/Q111207979",
        "country_qid": "Q142"
      }
    },
    {
      "type": "Feature",
      "geometry": {
        "type": "Point",
        "coordinates": [
          -1.97559,
          47.2812
        ]
      },
      "properties": {
        "label": "Carnet nuclear power project",
        "type": "Energy generation station",
        "entity": "http://www.wikidata.org/entity/Q2366994",
        "country_qid": "Q142"
      }
    },
    {
      "type": "Feature",
      "geometry": {
        "type": "Point",
        "coordinates": [
          4.61333,
          49.9256
        ]
      },
      "properties": {
        "label": "Revin Pumped Storage Power Plant",
        "type": "Energy generation station",
        "entity": "http://www.wikidata.org/entity/Q16627510",
        "country_qid": "Q142"
      }
    },
    {
      "type": "Feature",
      "geometry": {
        "type": "Point",
        "coordinates": [
          6.949361111,
          46.05075
        ]
      },
      "properties": {
        "label": "Vallorcine hydro power plant",
        "type": "Energy generation station",
        "entity": "http://www.wikidata.org/entity/Q46994621",
        "country_qid": "Q142"
      }
    },
    {
      "type": "Feature",
      "geometry": {
        "type": "Point",
        "coordinates": [
          4.790556,
          50.09
        ]
      },
      "properties": {
        "label": "Chooz Nuclear Power Plant",
        "type": "Energy generation station",
        "entity": "http://www.wikidata.org/entity/Q1739377",
        "country_qid": "Q142"
      }
    },
    {
      "type": "Feature",
      "geometry": {
        "type": "Point",
        "coordinates": [
          5.66786,
          49.489
        ]
      },
      "properties": {
        "label": "Q3364939",
        "type": "Energy generation station",
        "entity": "http://www.wikidata.org/entity/Q3364939",
        "country_qid": "Q142"
      }
    },
    {
      "type": "Feature",
      "geometry": {
        "type": "Point",
        "coordinates": [
          6.5772282,
          45.2015008
        ]
      },
      "properties": {
        "label": "Super-Bissorte hydropower plant",
        "type": "Energy generation station",
        "entity": "http://www.wikidata.org/entity/Q12004031",
        "country_qid": "Q142"
      }
    },
    {
      "type": "Feature",
      "geometry": {
        "type": "Point",
        "coordinates": [
          2.411951822,
          48.73031524
        ]
      },
      "properties": {
        "label": "Q96483527",
        "type": "Energy generation station",
        "entity": "http://www.wikidata.org/entity/Q96483527",
        "country_qid": "Q142"
      }
    },
    {
      "type": "Feature",
      "geometry": {
        "type": "Point",
        "coordinates": [
          2.13611111,
          51.01361111
        ]
      },
      "properties": {
        "label": "Gravelines Nuclear Power Station",
        "type": "Energy generation station",
        "entity": "http://www.wikidata.org/entity/Q1739407",
        "country_qid": "Q142"
      }
    },
    {
      "type": "Feature",
      "geometry": {
        "type": "Point",
        "coordinates": [
          1.75835,
          48.9693
        ]
      },
      "properties": {
        "label": "Porcheville thermal power station",
        "type": "Energy generation station",
        "entity": "http://www.wikidata.org/entity/Q2944687",
        "country_qid": "Q142"
      }
    },
    {
      "type": "Feature",
      "geometry": {
        "type": "Point",
        "coordinates": [
          -3.18379,
          47.6231
        ]
      },
      "properties": {
        "label": "Erdeven nuclear power project",
        "type": "Energy generation station",
        "entity": "http://www.wikidata.org/entity/Q19950917",
        "country_qid": "Q142"
      }
    },
    {
      "type": "Feature",
      "geometry": {
        "type": "Point",
        "coordinates": [
          -61.5542373,
          16.2321461
        ]
      },
      "properties": {
        "label": "Q113736274",
        "type": "Energy generation station",
        "entity": "http://www.wikidata.org/entity/Q113736274",
        "country_qid": "Q142"
      }
    },
    {
      "type": "Feature",
      "geometry": {
        "type": "Point",
        "coordinates": [
          4.19765,
          48.0311
        ]
      },
      "properties": {
        "label": "Éolienne de Pargues",
        "type": "Energy generation station",
        "entity": "http://www.wikidata.org/entity/Q15242260",
        "country_qid": "Q142"
      }
    },
    {
      "type": "Feature",
      "geometry": {
        "type": "Point",
        "coordinates": [
          55.6351399,
          -20.9142559
        ]
      },
      "properties": {
        "label": "Q65923053",
        "type": "Energy generation station",
        "entity": "http://www.wikidata.org/entity/Q65923053",
        "country_qid": "Q142"
      }
    },
    {
      "type": "Feature",
      "geometry": {
        "type": "Point",
        "coordinates": [
          3.376944444,
          48.529722222
        ]
      },
      "properties": {
        "label": "Sourdun Solar Park",
        "type": "Energy generation station",
        "entity": "http://www.wikidata.org/entity/Q28100115",
        "country_qid": "Q142"
      }
    },
    {
      "type": "Feature",
      "geometry": {
        "type": "Point",
        "coordinates": [
          3.9267,
          47.6421
        ]
      },
      "properties": {
        "label": "Parc éolien de Joux-la-Ville",
        "type": "Energy generation station",
        "entity": "http://www.wikidata.org/entity/Q104600647",
        "country_qid": "Q142"
      }
    },
    {
      "type": "Feature",
      "geometry": {
        "type": "Point",
        "coordinates": [
          1.12369503,
          50.14852662
        ]
      },
      "properties": {
        "label": "Tréport Wind Farm",
        "type": "Energy generation station",
        "entity": "http://www.wikidata.org/entity/Q65152435",
        "country_qid": "Q142"
      }
    },
    {
      "type": "Feature",
      "geometry": {
        "type": "Point",
        "coordinates": [
          55.2864,
          -20.9457
        ]
      },
      "properties": {
        "label": "Q2944722",
        "type": "Energy generation station",
        "entity": "http://www.wikidata.org/entity/Q2944722",
        "country_qid": "Q142"
      }
    },
    {
      "type": "Feature",
      "geometry": {
        "type": "Point",
        "coordinates": [
          2.474715,
          50.772883
        ]
      },
      "properties": {
        "label": "Q115193799",
        "type": "Energy generation station",
        "entity": "http://www.wikidata.org/entity/Q115193799",
        "country_qid": "Q142"
      }
    },
    {
      "type": "Feature",
      "geometry": {
        "type": "Point",
        "coordinates": [
          1.21194444,
          49.97666667
        ]
      },
      "properties": {
        "label": "Penly Nuclear Power Plant",
        "type": "Energy generation station",
        "entity": "http://www.wikidata.org/entity/Q1318977",
        "country_qid": "Q142"
      }
    },
    {
      "type": "Feature",
      "geometry": {
        "type": "Point",
        "coordinates": [
          -61.4034878,
          16.4262302
        ]
      },
      "properties": {
        "label": "Q113840270",
        "type": "Energy generation station",
        "entity": "http://www.wikidata.org/entity/Q113840270",
        "country_qid": "Q142"
      }
    },
    {
      "type": "Feature",
      "geometry": {
        "type": "Point",
        "coordinates": [
          8.7856185,
          41.9298364
        ]
      },
      "properties": {
        "label": "Q113754497",
        "type": "Energy generation station",
        "entity": "http://www.wikidata.org/entity/Q113754497",
        "country_qid": "Q142"
      }
    },
    {
      "type": "Feature",
      "geometry": {
        "type": "Point",
        "coordinates": [
          6.218056,
          49.415833
        ]
      },
      "properties": {
        "label": "Cattenom Nuclear Power Plant",
        "type": "Energy generation station",
        "entity": "http://www.wikidata.org/entity/Q1371612",
        "country_qid": "Q142"
      }
    },
    {
      "type": "Feature",
      "geometry": {
        "type": "Point",
        "coordinates": [
          -4.2619835,
          48.3898265
        ]
      },
      "properties": {
        "label": "Dirinon Power Plant",
        "type": "Energy generation station",
        "entity": "http://www.wikidata.org/entity/Q107066920",
        "country_qid": "Q142"
      }
    },
    {
      "type": "Feature",
      "geometry": {
        "type": "Point",
        "coordinates": [
          -61.3264432,
          16.3046676
        ]
      },
      "properties": {
        "label": "Q65922679",
        "type": "Energy generation station",
        "entity": "http://www.wikidata.org/entity/Q65922679",
        "country_qid": "Q142"
      }
    },
    {
      "type": "Feature",
      "geometry": {
        "type": "Point",
        "coordinates": [
          2.32597946,
          51.047957151
        ]
      },
      "properties": {
        "label": "Q3011361",
        "type": "Energy generation station",
        "entity": "http://www.wikidata.org/entity/Q3011361",
        "country_qid": "Q142"
      }
    },
    {
      "type": "Feature",
      "geometry": {
        "type": "Point",
        "coordinates": [
          4.113208,
          50.301165
        ]
      },
      "properties": {
        "label": "Centrale solaire photovoltaïque de Jeumont",
        "type": "Energy generation station",
        "entity": "http://www.wikidata.org/entity/Q115208024",
        "country_qid": "Q142"
      }
    },
    {
      "type": "Feature",
      "geometry": {
        "type": "Point",
        "coordinates": [
          0.290733333,
          45.010652777
        ]
      },
      "properties": {
        "label": "Centrale photovoltaïque de Beaupouyet",
        "type": "Energy generation station",
        "entity": "http://www.wikidata.org/entity/Q52514653",
        "country_qid": "Q142"
      }
    },
    {
      "type": "Feature",
      "geometry": {
        "type": "Point",
        "coordinates": [
          3.0718,
          50.04
        ]
      },
      "properties": {
        "label": "Q67440635",
        "type": "Energy generation station",
        "entity": "http://www.wikidata.org/entity/Q67440635",
        "country_qid": "Q142"
      }
    },
    {
      "type": "Feature",
      "geometry": {
        "type": "Point",
        "coordinates": [
          -0.8157,
          44.7255
        ]
      },
      "properties": {
        "label": "Cestas Solar farm",
        "type": "Energy generation station",
        "entity": "http://www.wikidata.org/entity/Q20724378",
        "country_qid": "Q142"
      }
    },
    {
      "type": "Feature",
      "geometry": {
        "type": "Point",
        "coordinates": [
          6.36668,
          49.46697
        ]
      },
      "properties": {
        "label": "Écluse d'Apach-Schengen",
        "type": "Energy generation station",
        "entity": "http://www.wikidata.org/entity/Q13105104",
        "country_qid": "Q142"
      }
    },
    {
      "type": "Feature",
      "geometry": {
        "type": "Point",
        "coordinates": [
          -2.535,
          48.86
        ]
      },
      "properties": {
        "label": "Saint-Brieuc Wind Farm",
        "type": "Energy generation station",
        "entity": "http://www.wikidata.org/entity/Q3364835",
        "country_qid": "Q142"
      }
    },
    {
      "type": "Feature",
      "geometry": {
        "type": "Point",
        "coordinates": [
          4.8857906,
          43.4284646
        ]
      },
      "properties": {
        "label": "Q93778795",
        "type": "Energy generation station",
        "entity": "http://www.wikidata.org/entity/Q93778795",
        "country_qid": "Q142"
      }
    },
    {
      "type": "Feature",
      "geometry": {
        "type": "Point",
        "coordinates": [
          6.0019032,
          45.3843231
        ]
      },
      "properties": {
        "label": "Q19379107",
        "type": "Energy generation station",
        "entity": "http://www.wikidata.org/entity/Q19379107",
        "country_qid": "Q142"
      }
    },
    {
      "type": "Feature",
      "geometry": {
        "type": "Point",
        "coordinates": [
          -0.75,
          49.85
        ]
      },
      "properties": {
        "label": "Centre Manche 1",
        "type": "Energy generation station",
        "entity": "http://www.wikidata.org/entity/Q117352124",
        "country_qid": "Q142"
      }
    },
    {
      "type": "Feature",
      "geometry": {
        "type": "Point",
        "coordinates": [
          7.137141245,
          48.038731203
        ]
      },
      "properties": {
        "label": "Q108799528",
        "type": "Energy generation station",
        "entity": "http://www.wikidata.org/entity/Q108799528",
        "country_qid": "Q142"
      }
    },
    {
      "type": "Feature",
      "geometry": {
        "type": "Point",
        "coordinates": [
          -3.87222222,
          48.35333333
        ]
      },
      "properties": {
        "label": "Brennilis Nuclear Power Plant",
        "type": "Energy generation station",
        "entity": "http://www.wikidata.org/entity/Q1489205",
        "country_qid": "Q142"
      }
    },
    {
      "type": "Feature",
      "geometry": {
        "type": "Point",
        "coordinates": [
          5.21,
          48.93
        ]
      },
      "properties": {
        "label": "Voie Sacrée wind farm",
        "type": "Energy generation station",
        "entity": "http://www.wikidata.org/entity/Q19600327",
        "country_qid": "Q142"
      }
    },
    {
      "type": "Feature",
      "geometry": {
        "type": "Point",
        "coordinates": [
          0.2203,
          49.9042
        ]
      },
      "properties": {
        "label": "Fécamp Wind Farm",
        "type": "Energy generation station",
        "entity": "http://www.wikidata.org/entity/Q116008622",
        "country_qid": "Q142"
      }
    },
    {
      "type": "Feature",
      "geometry": {
        "type": "Point",
        "coordinates": [
          2.22985835,
          47.090616558
        ]
      },
      "properties": {
        "label": "Parc éolien Chaussée des Coudrays",
        "type": "Energy generation station",
        "entity": "http://www.wikidata.org/entity/Q110369958",
        "country_qid": "Q142"
      }
    },
    {
      "type": "Feature",
      "geometry": {
        "type": "Point",
        "coordinates": [
          2.30374,
          48.91368
        ]
      },
      "properties": {
        "label": "Q96605360",
        "type": "Energy generation station",
        "entity": "http://www.wikidata.org/entity/Q96605360",
        "country_qid": "Q142"
      }
    },
    {
      "type": "Feature",
      "geometry": {
        "type": "Point",
        "coordinates": [
          -61.5551734,
          16.2331479
        ]
      },
      "properties": {
        "label": "Q113736288",
        "type": "Energy generation station",
        "entity": "http://www.wikidata.org/entity/Q113736288",
        "country_qid": "Q142"
      }
    },
    {
      "type": "Feature",
      "geometry": {
        "type": "Point",
        "coordinates": [
          4.75388889,
          44.63388889
        ]
      },
      "properties": {
        "label": "Cruas Nuclear Power Plant",
        "type": "Energy generation station",
        "entity": "http://www.wikidata.org/entity/Q288334",
        "country_qid": "Q142"
      }
    },
    {
      "type": "Feature",
      "geometry": {
        "type": "Point",
        "coordinates": [
          2.768394,
          44.058951
        ]
      },
      "properties": {
        "label": "Le Pouget",
        "type": "Energy generation station",
        "entity": "http://www.wikidata.org/entity/Q6507506",
        "country_qid": "Q142"
      }
    },
    {
      "type": "Feature",
      "geometry": {
        "type": "Point",
        "coordinates": [
          -4.664722,
          48.0375
        ]
      },
      "properties": {
        "label": "Plogoff nuclear power project",
        "type": "Energy generation station",
        "entity": "http://www.wikidata.org/entity/Q2825920",
        "country_qid": "Q142"
      }
    },
    {
      "type": "Feature",
      "geometry": {
        "type": "Point",
        "coordinates": [
          2.846784,
          43.279363
        ]
      },
      "properties": {
        "label": "Q129675420",
        "type": "Energy generation station",
        "entity": "http://www.wikidata.org/entity/Q129675420",
        "country_qid": "Q142"
      }
    },
    {
      "type": "Feature",
      "geometry": {
        "type": "Point",
        "coordinates": [
          3.46029,
          47.65802
        ]
      },
      "properties": {
        "label": "Parc éolien de Forterre",
        "type": "Energy generation station",
        "entity": "http://www.wikidata.org/entity/Q104600246",
        "country_qid": "Q142"
      }
    },
    {
      "type": "Feature",
      "geometry": {
        "type": "Point",
        "coordinates": [
          2.14536,
          44.052249
        ]
      },
      "properties": {
        "label": "Centrale électrique de la mine de charbon de Carmaux",
        "type": "Energy generation station",
        "entity": "http://www.wikidata.org/entity/Q22940116",
        "country_qid": "Q142"
      }
    },
    {
      "type": "Feature",
      "geometry": {
        "type": "Point",
        "coordinates": [
          2.43,
          50.33
        ]
      },
      "properties": {
        "label": "wind farm of Atrébatie",
        "type": "Energy generation station",
        "entity": "http://www.wikidata.org/entity/Q16510087",
        "country_qid": "Q142"
      }
    },
    {
      "type": "Feature",
      "geometry": {
        "type": "Point",
        "coordinates": [
          0.84027778,
          44.11111111
        ]
      },
      "properties": {
        "label": "Golfech Nuclear Power Plant",
        "type": "Energy generation station",
        "entity": "http://www.wikidata.org/entity/Q1465285",
        "country_qid": "Q142"
      }
    },
    {
      "type": "Feature",
      "geometry": {
        "type": "Point",
        "coordinates": [
          4.0102,
          47.6111
        ]
      },
      "properties": {
        "label": "Massangis Solar Park",
        "type": "Energy generation station",
        "entity": "http://www.wikidata.org/entity/Q15250658",
        "country_qid": "Q142"
      }
    },
    {
      "type": "Feature",
      "geometry": {
        "type": "Point",
        "coordinates": [
          3.269756,
          50.34441
        ]
      },
      "properties": {
        "label": "Centrale solaire photovoltaïque de Somain",
        "type": "Energy generation station",
        "entity": "http://www.wikidata.org/entity/Q98446412",
        "country_qid": "Q142"
      }
    },
    {
      "type": "Feature",
      "geometry": {
        "type": "Point",
        "coordinates": [
          7.5625,
          47.90361111
        ]
      },
      "properties": {
        "label": "Fessenheim Nuclear Power Plant",
        "type": "Energy generation station",
        "entity": "http://www.wikidata.org/entity/Q676411",
        "country_qid": "Q142"
      }
    },
    {
      "type": "Feature",
      "geometry": {
        "type": "Point",
        "coordinates": [
          4.73148,
          44.331
        ]
      },
      "properties": {
        "label": "Tricastin nuclear power plant",
        "type": "Energy generation station",
        "entity": "http://www.wikidata.org/entity/Q154006",
        "country_qid": "Q142"
      }
    },
    {
      "type": "Feature",
      "geometry": {
        "type": "Point",
        "coordinates": [
          2.27867,
          48.81393
        ]
      },
      "properties": {
        "label": "Q96604682",
        "type": "Energy generation station",
        "entity": "http://www.wikidata.org/entity/Q96604682",
        "country_qid": "Q142"
      }
    },
    {
      "type": "Feature",
      "geometry": {
        "type": "Point",
        "coordinates": [
          -0.498,
          49.456
        ]
      },
      "properties": {
        "label": "Calvados Offshore Wind Farm",
        "type": "Energy generation station",
        "entity": "http://www.wikidata.org/entity/Q113003659",
        "country_qid": "Q142"
      }
    },
    {
      "type": "Feature",
      "geometry": {
        "type": "Point",
        "coordinates": [
          4.06153693,
          47.716701666
        ]
      },
      "properties": {
        "label": "Parc éolien de Moulins-Pasilly",
        "type": "Energy generation station",
        "entity": "http://www.wikidata.org/entity/Q104602351",
        "country_qid": "Q142"
      }
    },
    {
      "type": "Feature",
      "geometry": {
        "type": "Point",
        "coordinates": [
          3.8693077,
          50.2299549
        ]
      },
      "properties": {
        "label": "Q11995888",
        "type": "Energy generation station",
        "entity": "http://www.wikidata.org/entity/Q11995888",
        "country_qid": "Q142"
      }
    },
    {
      "type": "Feature",
      "geometry": {
        "type": "Point",
        "coordinates": [
          -3.8705505,
          48.3565867
        ]
      },
      "properties": {
        "label": "Brennilis Power Plant",
        "type": "Energy generation station",
        "entity": "http://www.wikidata.org/entity/Q107066812",
        "country_qid": "Q142"
      }
    },
    {
      "type": "Feature",
      "geometry": {
        "type": "Point",
        "coordinates": [
          55.397202367,
          -21.279747228
        ]
      },
      "properties": {
        "label": "Q65923030",
        "type": "Energy generation station",
        "entity": "http://www.wikidata.org/entity/Q65923030",
        "country_qid": "Q142"
      }
    },
    {
      "type": "Feature",
      "geometry": {
        "type": "Point",
        "coordinates": [
          6.749947632,
          43.824229255
        ]
      },
      "properties": {
        "label": "Q114836896",
        "type": "Energy generation station",
        "entity": "http://www.wikidata.org/entity/Q114836896",
        "country_qid": "Q142"
      }
    },
    {
      "type": "Feature",
      "geometry": {
        "type": "Point",
        "coordinates": [
          2.069722222,
          42.466944444
        ]
      },
      "properties": {
        "label": "Llo solar central",
        "type": "Energy generation station",
        "entity": "http://www.wikidata.org/entity/Q40220385",
        "country_qid": "Q142"
      }
    },
    {
      "type": "Feature",
      "geometry": {
        "type": "Point",
        "coordinates": [
          5.413333333,
          49.455555555
        ]
      },
      "properties": {
        "label": "Q109314688",
        "type": "Energy generation station",
        "entity": "http://www.wikidata.org/entity/Q109314688",
        "country_qid": "Q142"
      }
    },
    {
      "type": "Feature",
      "geometry": {
        "type": "Point",
        "coordinates": [
          8.7827003,
          41.9322788
        ]
      },
      "properties": {
        "label": "Q113754502",
        "type": "Energy generation station",
        "entity": "http://www.wikidata.org/entity/Q113754502",
        "country_qid": "Q142"
      }
    },
    {
      "type": "Feature",
      "geometry": {
        "type": "Point",
        "coordinates": [
          6.933349106,
          48.449088045
        ]
      },
      "properties": {
        "label": "Q56356858",
        "type": "Energy generation station",
        "entity": "http://www.wikidata.org/entity/Q56356858",
        "country_qid": "Q142"
      }
    },
    {
      "type": "Feature",
      "geometry": {
        "type": "Point",
        "coordinates": [
          55.3136,
          -20.9489
        ]
      },
      "properties": {
        "label": "Q20127475",
        "type": "Energy generation station",
        "entity": "http://www.wikidata.org/entity/Q20127475",
        "country_qid": "Q142"
      }
    },
    {
      "type": "Feature",
      "geometry": {
        "type": "Point",
        "coordinates": [
          2.655955542,
          48.874192562
        ]
      },
      "properties": {
        "label": "Thermal power plant of Vaires-sur-Marne",
        "type": "Energy generation station",
        "entity": "http://www.wikidata.org/entity/Q2944735",
        "country_qid": "Q142"
      }
    },
    {
      "type": "Feature",
      "geometry": {
        "type": "Point",
        "coordinates": [
          -61.5542883,
          16.2352158
        ]
      },
      "properties": {
        "label": "Q113736153",
        "type": "Energy generation station",
        "entity": "http://www.wikidata.org/entity/Q113736153",
        "country_qid": "Q142"
      }
    },
    {
      "type": "Feature",
      "geometry": {
        "type": "Point",
        "coordinates": [
          4.09076454,
          47.649003613
        ]
      },
      "properties": {
        "label": "Parc éolien de Sarry",
        "type": "Energy generation station",
        "entity": "http://www.wikidata.org/entity/Q104602234",
        "country_qid": "Q142"
      }
    },
    {
      "type": "Feature",
      "geometry": {
        "type": "Point",
        "coordinates": [
          -0.557556173,
          45.004652508
        ]
      },
      "properties": {
        "label": "Q11957680",
        "type": "Energy generation station",
        "entity": "http://www.wikidata.org/entity/Q11957680",
        "country_qid": "Q142"
      }
    },
    {
      "type": "Feature",
      "geometry": {
        "type": "Point",
        "coordinates": [
          3.301218,
          46.272744
        ]
      },
      "properties": {
        "label": "Q17750007",
        "type": "Energy generation station",
        "entity": "http://www.wikidata.org/entity/Q17750007",
        "country_qid": "Q142"
      }
    },
    {
      "type": "Feature",
      "geometry": {
        "type": "Point",
        "coordinates": [
          4.403474,
          45.427226
        ]
      },
      "properties": {
        "label": "Centrale électrique de Manufrance",
        "type": "Energy generation station",
        "entity": "http://www.wikidata.org/entity/Q22996895",
        "country_qid": "Q142"
      }
    },
    {
      "type": "Feature",
      "geometry": {
        "type": "Point",
        "coordinates": [
          -1.8825,
          49.53722222
        ]
      },
      "properties": {
        "label": "Flamanville Nuclear Power Plant",
        "type": "Energy generation station",
        "entity": "http://www.wikidata.org/entity/Q390252",
        "country_qid": "Q142"
      }
    },
    {
      "type": "Feature",
      "geometry": {
        "type": "Point",
        "coordinates": [
          3.698472222,
          47.774916666
        ]
      },
      "properties": {
        "label": "Parc éolien de Chitry Quenne",
        "type": "Energy generation station",
        "entity": "http://www.wikidata.org/entity/Q102350196",
        "country_qid": "Q142"
      }
    },
    {
      "type": "Feature",
      "geometry": {
        "type": "Point",
        "coordinates": [
          -60.945446939,
          14.71683562
        ]
      },
      "properties": {
        "label": "Q65923087",
        "type": "Energy generation station",
        "entity": "http://www.wikidata.org/entity/Q65923087",
        "country_qid": "Q142"
      }
    },
    {
      "type": "Feature",
      "geometry": {
        "type": "Point",
        "coordinates": [
          1.57861111,
          47.72055556
        ]
      },
      "properties": {
        "label": "Saint-Laurent Nuclear Power Plant",
        "type": "Energy generation station",
        "entity": "http://www.wikidata.org/entity/Q644493",
        "country_qid": "Q142"
      }
    },
    {
      "type": "Feature",
      "geometry": {
        "type": "Point",
        "coordinates": [
          3.268358,
          50.12496
        ]
      },
      "properties": {
        "label": "Q108859387",
        "type": "Energy generation station",
        "entity": "http://www.wikidata.org/entity/Q108859387",
        "country_qid": "Q142"
      }
    },
    {
      "type": "Feature",
      "geometry": {
        "type": "Point",
        "coordinates": [
          -2.626559,
          47.160459
        ]
      },
      "properties": {
        "label": "Saint-Nazaire Offshore Wind Farm",
        "type": "Energy generation station",
        "entity": "http://www.wikidata.org/entity/Q22249034",
        "country_qid": "Q142"
      }
    },
    {
      "type": "Feature",
      "geometry": {
        "type": "Point",
        "coordinates": [
          -2.5102,
          46.8691
        ]
      },
      "properties": {
        "label": "Noirmoutier wind farm",
        "type": "Energy generation station",
        "entity": "http://www.wikidata.org/entity/Q110647623",
        "country_qid": "Q142"
      }
    },
    {
      "type": "Feature",
      "geometry": {
        "type": "Point",
        "coordinates": [
          3.865019,
          50.231868
        ]
      },
      "properties": {
        "label": "Q108864970",
        "type": "Energy generation station",
        "entity": "http://www.wikidata.org/entity/Q108864970",
        "country_qid": "Q142"
      }
    },
    {
      "type": "Feature",
      "geometry": {
        "type": "Point",
        "coordinates": [
          1.18436,
          50.1333
        ]
      },
      "properties": {
        "label": "Q3364836",
        "type": "Energy generation station",
        "entity": "http://www.wikidata.org/entity/Q3364836",
        "country_qid": "Q142"
      }
    },
    {
      "type": "Feature",
      "geometry": {
        "type": "Point",
        "coordinates": [
          0.17055556,
          47.23055556
        ]
      },
      "properties": {
        "label": "Chinon Nuclear Power Plant",
        "type": "Energy generation station",
        "entity": "http://www.wikidata.org/entity/Q1735581",
        "country_qid": "Q142"
      }
    },
    {
      "type": "Feature",
      "geometry": {
        "type": "Point",
        "coordinates": [
          2.41846,
          48.78666
        ]
      },
      "properties": {
        "label": "Centrale électrique d'Arrighi",
        "type": "Energy generation station",
        "entity": "http://www.wikidata.org/entity/Q88412971",
        "country_qid": "Q142"
      }
    },
    {
      "type": "Feature",
      "geometry": {
        "type": "Point",
        "coordinates": [
          3.51777778,
          48.51611111
        ]
      },
      "properties": {
        "label": "Nogent Nuclear Power Plant",
        "type": "Energy generation station",
        "entity": "http://www.wikidata.org/entity/Q1471555",
        "country_qid": "Q142"
      }
    },
    {
      "type": "Feature",
      "geometry": {
        "type": "Point",
        "coordinates": [
          2.5175,
          47.73361111
        ]
      },
      "properties": {
        "label": "Dampierre Nuclear Power Plant",
        "type": "Energy generation station",
        "entity": "http://www.wikidata.org/entity/Q918661",
        "country_qid": "Q142"
      }
    },
    {
      "type": "Feature",
      "geometry": {
        "type": "Point",
        "coordinates": [
          0.65416667,
          46.45611111
        ]
      },
      "properties": {
        "label": "Civaux Nuclear Power Plant",
        "type": "Energy generation station",
        "entity": "http://www.wikidata.org/entity/Q1739375",
        "country_qid": "Q142"
      }
    },
    {
      "type": "Feature",
      "geometry": {
        "type": "Point",
        "coordinates": [
          2.875,
          47.509722222
        ]
      },
      "properties": {
        "label": "Belleville Nuclear Power Plant",
        "type": "Energy generation station",
        "entity": "http://www.wikidata.org/entity/Q1645882",
        "country_qid": "Q142"
      }
    },
    {
      "type": "Feature",
      "geometry": {
        "type": "Point",
        "coordinates": [
          9.133814,
          42.380538
        ]
      },
      "properties": {
        "label": "Q118235870",
        "type": "Energy generation station",
        "entity": "http://www.wikidata.org/entity/Q118235870",
        "country_qid": "Q142"
      }
    },
    {
      "type": "Feature",
      "geometry": {
        "type": "Point",
        "coordinates": [
          4.805555555,
          45.566666666
        ]
      },
      "properties": {
        "label": "Q65770196",
        "type": "Energy generation station",
        "entity": "http://www.wikidata.org/entity/Q65770196",
        "country_qid": "Q142"
      }
    },
    {
      "type": "Feature",
      "geometry": {
        "type": "Point",
        "coordinates": [
          1.938073,
          47.903028
        ]
      },
      "properties": {
        "label": "Éolienne Bollée de Saint-Jean-de-Braye",
        "type": "Energy generation station",
        "entity": "http://www.wikidata.org/entity/Q22949557",
        "country_qid": "Q142"
      }
    },
    {
      "type": "Feature",
      "geometry": {
        "type": "Point",
        "coordinates": [
          4.71166667,
          44.14333333
        ]
      },
      "properties": {
        "label": "Phénix",
        "type": "Energy generation station",
        "entity": "http://www.wikidata.org/entity/Q113368",
        "country_qid": "Q142"
      }
    },
    {
      "type": "Feature",
      "geometry": {
        "type": "Point",
        "coordinates": [
          7.6502,
          48.9451
        ]
      },
      "properties": {
        "label": "Ancienne usine d'électricité de Niederbronn-les-Bains",
        "type": "Energy generation station",
        "entity": "http://www.wikidata.org/entity/Q15953437",
        "country_qid": "Q142"
      }
    },
    {
      "type": "Feature",
      "geometry": {
        "type": "Point",
        "coordinates": [
          -2.2325,
          47.626666666
        ]
      },
      "properties": {
        "label": "Béganne windpark",
        "type": "Energy generation station",
        "entity": "http://www.wikidata.org/entity/Q26242337",
        "country_qid": "Q142"
      }
    },
    {
      "type": "Feature",
      "geometry": {
        "type": "Point",
        "coordinates": [
          1.253535747,
          48.448674586
        ]
      },
      "properties": {
        "label": "Éolienne de Courville-sur-Eure",
        "type": "Energy generation station",
        "entity": "http://www.wikidata.org/entity/Q22968802",
        "country_qid": "Q142"
      }
    },
    {
      "type": "Feature",
      "geometry": {
        "type": "Point",
        "coordinates": [
          4.75583333,
          45.40472222
        ]
      },
      "properties": {
        "label": "Saint-Alban Nuclear Power Plant",
        "type": "Energy generation station",
        "entity": "http://www.wikidata.org/entity/Q2409863",
        "country_qid": "Q142"
      }
    },
    {
      "type": "Feature",
      "geometry": {
        "type": "Point",
        "coordinates": [
          0.63555556,
          49.85805556
        ]
      },
      "properties": {
        "label": "Paluel Nuclear Power Plant",
        "type": "Energy generation station",
        "entity": "http://www.wikidata.org/entity/Q1530519",
        "country_qid": "Q142"
      }
    },
    {
      "type": "Feature",
      "geometry": {
        "type": "Point",
        "coordinates": [
          0.929946,
          47.901101
        ]
      },
      "properties": {
        "label": "Éolienne d'Épuisay",
        "type": "Energy generation station",
        "entity": "http://www.wikidata.org/entity/Q22994704",
        "country_qid": "Q142"
      }
    },
    {
      "type": "Feature",
      "geometry": {
        "type": "Point",
        "coordinates": [
          -0.583333333,
          49.85
        ]
      },
      "properties": {
        "label": "Centre Manche 2",
        "type": "Energy generation station",
        "entity": "http://www.wikidata.org/entity/Q117352325",
        "country_qid": "Q142"
      }
    },
    {
      "type": "Feature",
      "geometry": {
        "type": "Point",
        "coordinates": [
          2.25979,
          48.9409
        ]
      },
      "properties": {
        "label": "Thermal power plant of Gennevilliers",
        "type": "Energy generation station",
        "entity": "http://www.wikidata.org/entity/Q2944658",
        "country_qid": "Q142"
      }
    },
    {
      "type": "Feature",
      "geometry": {
        "type": "Point",
        "coordinates": [
          2.250807,
          48.828562
        ]
      },
      "properties": {
        "label": "Q96604679",
        "type": "Energy generation station",
        "entity": "http://www.wikidata.org/entity/Q96604679",
        "country_qid": "Q142"
      }
    },
    {
      "type": "Feature",
      "geometry": {
        "type": "Point",
        "coordinates": [
          3.9415,
          47.5734
        ]
      },
      "properties": {
        "label": "Parc éolien de Sainte-Colombe",
        "type": "Energy generation station",
        "entity": "http://www.wikidata.org/entity/Q116007156",
        "country_qid": "Q142"
      }
    },
    {
      "type": "Feature",
      "geometry": {
        "type": "Point",
        "coordinates": [
          5.27,
          45.79722222
        ]
      },
      "properties": {
        "label": "Bugey Nuclear Power Plant",
        "type": "Energy generation station",
        "entity": "http://www.wikidata.org/entity/Q1186009",
        "country_qid": "Q142"
      }
    },
    {
      "type": "Feature",
      "geometry": {
        "type": "Point",
        "coordinates": [
          55.32694,
          -20.93056
        ]
      },
      "properties": {
        "label": "Port-Est bioenergy power plant",
        "type": "Energy generation station",
        "entity": "http://www.wikidata.org/entity/Q2944719",
        "country_qid": "Q142"
      }
    },
    {
      "type": "Feature",
      "geometry": {
        "type": "Point",
        "coordinates": [
          5.47222222,
          45.75833333
        ]
      },
      "properties": {
        "label": "Superphénix",
        "type": "Energy generation station",
        "entity": "http://www.wikidata.org/entity/Q1739389",
        "country_qid": "Q142"
      }
    },
    {
      "type": "Feature",
      "geometry": {
        "type": "Point",
        "coordinates": [
          -0.69166667,
          45.25611111
        ]
      },
      "properties": {
        "label": "Blayais Nuclear Power Plant",
        "type": "Energy generation station",
        "entity": "http://www.wikidata.org/entity/Q1739363",
        "country_qid": "Q142"
      }
    },
    {
      "type": "Feature",
      "geometry": {
        "type": "Point",
        "coordinates": [
          -52.507777777,
          4.895833333
        ]
      },
      "properties": {
        "label": "Q18816704",
        "type": "Energy generation station",
        "entity": "http://www.wikidata.org/entity/Q18816704",
        "country_qid": "Q142"
      }
    },
    {
      "type": "Feature",
      "geometry": {
        "type": "Point",
        "coordinates": [
          6.081725,
          48.868952
        ]
      },
      "properties": {
        "label": "Blénod power station",
        "type": "Energy generation station",
        "entity": "http://www.wikidata.org/entity/Q17750568",
        "country_qid": "Q142"
      }
    },
    {
      "type": "Feature",
      "geometry": {
        "type": "Point",
        "coordinates": [
          5.03869,
          45.8128
        ]
      },
      "properties": {
        "label": "Photovoltaic power plant of Niévroz",
        "type": "Energy generation station",
        "entity": "http://www.wikidata.org/entity/Q114642255",
        "country_qid": "Q142"
      }
    },
    {
      "type": "Feature",
      "geometry": {
        "type": "Point",
        "coordinates": [
          3.44666,
          48.21054
        ]
      },
      "properties": {
        "label": "Parc éolien des Clérimois",
        "type": "Energy generation station",
        "entity": "http://www.wikidata.org/entity/Q104600391",
        "country_qid": "Q142"
      }
    },
    {
      "type": "Feature",
      "geometry": {
        "type": "Point",
        "coordinates": [
          0.587,
          49.932
        ]
      },
      "properties": {
        "label": "Q3364826",
        "type": "Energy generation station",
        "entity": "http://www.wikidata.org/entity/Q3364826",
        "country_qid": "Q142"
      }
    },
    {
      "type": "Feature",
      "geometry": {
        "type": "Point",
        "coordinates": [
          1.97417,
          42.5014
        ]
      },
      "properties": {
        "label": "Thémis",
        "type": "Energy generation station",
        "entity": "http://www.wikidata.org/entity/Q2944635",
        "country_qid": "Q142"
      }
    },
    {
      "type": "Feature",
      "geometry": {
        "type": "Point",
        "coordinates": [
          -114.977,
          35.8
        ]
      },
      "properties": {
        "label": "Nevada Solar One",
        "type": "Energy generation station",
        "entity": "http://www.wikidata.org/entity/Q1292402",
        "country_qid": "Q142"
      }
    },
    {
      "type": "Feature",
      "geometry": {
        "type": "Point",
        "coordinates": [
          4.658055555,
          43.8825
        ]
      },
      "properties": {
        "label": "Thermal power plant of Aramon",
        "type": "Energy generation station",
        "entity": "http://www.wikidata.org/entity/Q17749003",
        "country_qid": "Q142"
      }
    },
    {
      "type": "Feature",
      "geometry": {
        "type": "Point",
        "coordinates": [
          -61.1543269,
          14.6701199
        ]
      },
      "properties": {
        "label": "Q113754422",
        "type": "Energy generation station",
        "entity": "http://www.wikidata.org/entity/Q113754422",
        "country_qid": "Q142"
      }
    },
    {
      "type": "Feature",
      "geometry": {
        "type": "Point",
        "coordinates": [
          2.338335741,
          48.923546513
        ]
      },
      "properties": {
        "label": "Q109662208",
        "type": "Energy generation station",
        "entity": "http://www.wikidata.org/entity/Q109662208",
        "country_qid": "Q142"
      }
    },
    {
      "type": "Feature",
      "geometry": {
        "type": "Point",
        "coordinates": [
          6.0510909,
          45.1456395
        ]
      },
      "properties": {
        "label": "Q17778280",
        "type": "Energy generation station",
        "entity": "http://www.wikidata.org/entity/Q17778280",
        "country_qid": "Q142"
      }
    },
    {
      "type": "Feature",
      "geometry": {
        "type": "Point",
        "coordinates": [
          6.133861111,
          43.736972222
        ]
      },
      "properties": {
        "label": "Barrage de Sainte-Croix",
        "type": "Energy generation station",
        "entity": "http://www.wikidata.org/entity/Q256780",
        "country_qid": "Q142"
      }
    },
    {
      "type": "Feature",
      "geometry": {
        "type": "Point",
        "coordinates": [
          6.511222222,
          45.495888888
        ]
      },
      "properties": {
        "label": "La Coche Power Station",
        "type": "Energy generation station",
        "entity": "http://www.wikidata.org/entity/Q2944476",
        "country_qid": "Q142"
      }
    },
    {
      "type": "Feature",
      "geometry": {
        "type": "Point",
        "coordinates": [
          7.795973265,
          48.543648258
        ]
      },
      "properties": {
        "label": "Q123753695",
        "type": "Energy generation station",
        "entity": "http://www.wikidata.org/entity/Q123753695",
        "country_qid": "Q142"
      }
    },
    {
      "type": "Feature",
      "geometry": {
        "type": "Point",
        "coordinates": [
          3.420732,
          50.305851
        ]
      },
      "properties": {
        "label": "Q99662533",
        "type": "Energy generation station",
        "entity": "http://www.wikidata.org/entity/Q99662533",
        "country_qid": "Q142"
      }
    },
    {
      "type": "Feature",
      "geometry": {
        "type": "Point",
        "coordinates": [
          3.07209,
          50.44203
        ]
      },
      "properties": {
        "label": "Centrale solaire photovoltaïque de Leforest",
        "type": "Energy generation station",
        "entity": "http://www.wikidata.org/entity/Q115191838",
        "country_qid": "Q142"
      }
    },
    {
      "type": "Feature",
      "geometry": {
        "type": "Point",
        "coordinates": [
          2.641922679,
          44.73110373
        ]
      },
      "properties": {
        "label": "Montézic Power Station",
        "type": "Energy generation station",
        "entity": "http://www.wikidata.org/entity/Q16536848",
        "country_qid": "Q142"
      }
    },
    {
      "type": "Feature",
      "geometry": {
        "type": "Point",
        "coordinates": [
          5.66568,
          46.39732
        ]
      },
      "properties": {
        "label": "Vouglans",
        "type": "Energy generation station",
        "entity": "http://www.wikidata.org/entity/Q2885331",
        "country_qid": "Q142"
      }
    },
    {
      "type": "Feature",
      "geometry": {
        "type": "Point",
        "coordinates": [
          5.511281611,
          46.0609779
        ]
      },
      "properties": {
        "label": "Parc éolien des Monts de l'Ain",
        "type": "Energy generation station",
        "entity": "http://www.wikidata.org/entity/Q104608602",
        "country_qid": "Q142"
      }
    },
    {
      "type": "Feature",
      "geometry": {
        "type": "Point",
        "coordinates": [
          4.714284865,
          44.150739016
        ]
      },
      "properties": {
        "label": "Marcoule Nuclear Power Plant",
        "type": "Energy generation station",
        "entity": "http://www.wikidata.org/entity/Q15116524",
        "country_qid": "Q142"
      }
    },
    {
      "type": "Feature",
      "geometry": {
        "type": "Point",
        "coordinates": [
          5.914152849,
          48.693283345
        ]
      },
      "properties": {
        "label": "Q93650544",
        "type": "Energy generation station",
        "entity": "http://www.wikidata.org/entity/Q93650544",
        "country_qid": "Q142"
      }
    },
    {
      "type": "Feature",
      "geometry": {
        "type": "Point",
        "coordinates": [
          6.01759,
          44.0152
        ]
      },
      "properties": {
        "label": "Q15695572",
        "type": "Energy generation station",
        "entity": "http://www.wikidata.org/entity/Q15695572",
        "country_qid": "Q142"
      }
    },
    {
      "type": "Feature",
      "geometry": {
        "type": "Point",
        "coordinates": [
          3.139118,
          50.367386
        ]
      },
      "properties": {
        "label": "Q116458340",
        "type": "Energy generation station",
        "entity": "http://www.wikidata.org/entity/Q116458340",
        "country_qid": "Q142"
      }
    },
    {
      "type": "Feature",
      "geometry": {
        "type": "Point",
        "coordinates": [
          4.967162,
          47.239377
        ]
      },
      "properties": {
        "label": "Q116760829",
        "type": "Energy generation station",
        "entity": "http://www.wikidata.org/entity/Q116760829",
        "country_qid": "Q142"
      }
    },
    {
      "type": "Feature",
      "geometry": {
        "type": "Point",
        "coordinates": [
          0.14833333,
          49.47555556
        ]
      },
      "properties": {
        "label": "Centrale thermique du Havre",
        "type": "Energy generation station",
        "entity": "http://www.wikidata.org/entity/Q2944718",
        "country_qid": "Q142"
      }
    },
    {
      "type": "Feature",
      "geometry": {
        "type": "Point",
        "coordinates": [
          6.305168,
          45.545323
        ]
      },
      "properties": {
        "label": "Centrale hydroélectrique Aqua Bella",
        "type": "Energy generation station",
        "entity": "http://www.wikidata.org/entity/Q101422997",
        "country_qid": "Q142"
      }
    },
    {
      "type": "Feature",
      "geometry": {
        "type": "Point",
        "coordinates": [
          2.26371667,
          48.83175556
        ]
      },
      "properties": {
        "label": "Isseane recycling centre",
        "type": "Energy generation station",
        "entity": "http://www.wikidata.org/entity/Q3155731",
        "country_qid": "Q142"
      }
    },
    {
      "type": "Feature",
      "geometry": {
        "type": "Point",
        "coordinates": [
          5.086694,
          45.0402336
        ]
      },
      "properties": {
        "label": "Pizançon dam",
        "type": "Energy generation station",
        "entity": "http://www.wikidata.org/entity/Q19385381",
        "country_qid": "Q142"
      }
    },
    {
      "type": "Feature",
      "geometry": {
        "type": "Point",
        "coordinates": [
          3.06118,
          50.284352
        ]
      },
      "properties": {
        "label": "Q117025188",
        "type": "Energy generation station",
        "entity": "http://www.wikidata.org/entity/Q117025188",
        "country_qid": "Q142"
      }
    },
    {
      "type": "Feature",
      "geometry": {
        "type": "Point",
        "coordinates": [
          5.60427725,
          45.65392943
        ]
      },
      "properties": {
        "label": "Q2944549",
        "type": "Energy generation station",
        "entity": "http://www.wikidata.org/entity/Q2944549",
        "country_qid": "Q142"
      }
    },
    {
      "type": "Feature",
      "geometry": {
        "type": "Point",
        "coordinates": [
          6.1909049,
          49.1567308
        ]
      },
      "properties": {
        "label": "La Maxe power plant",
        "type": "Energy generation station",
        "entity": "http://www.wikidata.org/entity/Q19378689",
        "country_qid": "Q142"
      }
    },
    {
      "type": "Feature",
      "geometry": {
        "type": "Point",
        "coordinates": [
          2.4975,
          45.41333
        ]
      },
      "properties": {
        "label": "dam of Bort-les-Orgues",
        "type": "Energy generation station",
        "entity": "http://www.wikidata.org/entity/Q808803",
        "country_qid": "Q142"
      }
    },
    {
      "type": "Feature",
      "geometry": {
        "type": "Point",
        "coordinates": [
          55.462294219,
          -21.282927601
        ]
      },
      "properties": {
        "label": "Centrale hydroélectrique du Bras de la Plaine",
        "type": "Energy generation station",
        "entity": "http://www.wikidata.org/entity/Q2944574",
        "country_qid": "Q142"
      }
    },
    {
      "type": "Feature",
      "geometry": {
        "type": "Point",
        "coordinates": [
          -3.01796,
          48.1947
        ]
      },
      "properties": {
        "label": "Barrage de Guerlédan",
        "type": "Energy generation station",
        "entity": "http://www.wikidata.org/entity/Q2885142",
        "country_qid": "Q142"
      }
    },
    {
      "type": "Feature",
      "geometry": {
        "type": "Point",
        "coordinates": [
          2.3875,
          48.8224
        ]
      },
      "properties": {
        "label": "TIRU d'Ivry-sur-Seine",
        "type": "Energy generation station",
        "entity": "http://www.wikidata.org/entity/Q99524628",
        "country_qid": "Q142"
      }
    },
    {
      "type": "Feature",
      "geometry": {
        "type": "Point",
        "coordinates": [
          6.7024201,
          49.1524433
        ]
      },
      "properties": {
        "label": "Émile-Huchet",
        "type": "Energy generation station",
        "entity": "http://www.wikidata.org/entity/Q28496355",
        "country_qid": "Q142"
      }
    },
    {
      "type": "Feature",
      "geometry": {
        "type": "Point",
        "coordinates": [
          4.35162,
          46.6675
        ]
      },
      "properties": {
        "label": "Centrale thermique de Lucy",
        "type": "Energy generation station",
        "entity": "http://www.wikidata.org/entity/Q2944672",
        "country_qid": "Q142"
      }
    },
    {
      "type": "Feature",
      "geometry": {
        "type": "Point",
        "coordinates": [
          4.91723,
          45.82133
        ]
      },
      "properties": {
        "label": "Q124407025",
        "type": "Energy generation station",
        "entity": "http://www.wikidata.org/entity/Q124407025",
        "country_qid": "Q142"
      }
    },
    {
      "type": "Feature",
      "geometry": {
        "type": "Point",
        "coordinates": [
          2.224860233,
          45.243595136
        ]
      },
      "properties": {
        "label": "Barrage de l'Aigle",
        "type": "Energy generation station",
        "entity": "http://www.wikidata.org/entity/Q11982847",
        "country_qid": "Q142"
      }
    },
    {
      "type": "Feature",
      "geometry": {
        "type": "Point",
        "coordinates": [
          2.769277,
          44.060168
        ]
      },
      "properties": {
        "label": "Le Truel",
        "type": "Energy generation station",
        "entity": "http://www.wikidata.org/entity/Q6507816",
        "country_qid": "Q142"
      }
    },
    {
      "type": "Feature",
      "geometry": {
        "type": "Point",
        "coordinates": [
          6.11666667,
          45.20277778
        ]
      },
      "properties": {
        "label": "Grand'Maison Dam",
        "type": "Energy generation station",
        "entity": "http://www.wikidata.org/entity/Q505304",
        "country_qid": "Q142"
      }
    },
    {
      "type": "Feature",
      "geometry": {
        "type": "Point",
        "coordinates": [
          2.25886,
          48.8247
        ]
      },
      "properties": {
        "label": "Q3536674",
        "type": "Energy generation station",
        "entity": "http://www.wikidata.org/entity/Q3536674",
        "country_qid": "Q142"
      }
    },
    {
      "type": "Feature",
      "geometry": {
        "type": "Point",
        "coordinates": [
          2.6977021,
          45.6004873
        ]
      },
      "properties": {
        "label": "Saint Sauves Dam",
        "type": "Energy generation station",
        "entity": "http://www.wikidata.org/entity/Q19387379",
        "country_qid": "Q142"
      }
    },
    {
      "type": "Feature",
      "geometry": {
        "type": "Point",
        "coordinates": [
          55.451350805,
          -21.317259959
        ]
      },
      "properties": {
        "label": "Q65761761",
        "type": "Energy generation station",
        "entity": "http://www.wikidata.org/entity/Q65761761",
        "country_qid": "Q142"
      }
    },
    {
      "type": "Feature",
      "geometry": {
        "type": "Point",
        "coordinates": [
          1.8769577,
          46.2606065
        ]
      },
      "properties": {
        "label": "Q11963409",
        "type": "Energy generation station",
        "entity": "http://www.wikidata.org/entity/Q11963409",
        "country_qid": "Q142"
      }
    },
    {
      "type": "Feature",
      "geometry": {
        "type": "Point",
        "coordinates": [
          5.976099,
          46.160604
        ]
      },
      "properties": {
        "label": "Chancy-Pougny dam",
        "type": "Energy generation station",
        "entity": "http://www.wikidata.org/entity/Q1061686",
        "country_qid": "Q142"
      }
    },
    {
      "type": "Feature",
      "geometry": {
        "type": "Point",
        "coordinates": [
          1.4121876,
          45.906425
        ]
      },
      "properties": {
        "label": "Q11963485",
        "type": "Energy generation station",
        "entity": "http://www.wikidata.org/entity/Q11963485",
        "country_qid": "Q142"
      }
    },
    {
      "type": "Feature",
      "geometry": {
        "type": "Point",
        "coordinates": [
          1.675352677,
          45.816538355
        ]
      },
      "properties": {
        "label": "Q11988572",
        "type": "Energy generation station",
        "entity": "http://www.wikidata.org/entity/Q11988572",
        "country_qid": "Q142"
      }
    },
    {
      "type": "Feature",
      "geometry": {
        "type": "Point",
        "coordinates": [
          0.4977539,
          44.3920296
        ]
      },
      "properties": {
        "label": "Q11983507",
        "type": "Energy generation station",
        "entity": "http://www.wikidata.org/entity/Q11983507",
        "country_qid": "Q142"
      }
    },
    {
      "type": "Feature",
      "geometry": {
        "type": "Point",
        "coordinates": [
          4.8113385,
          44.8237647
        ]
      },
      "properties": {
        "label": "Q11960383",
        "type": "Energy generation station",
        "entity": "http://www.wikidata.org/entity/Q11960383",
        "country_qid": "Q142"
      }
    },
    {
      "type": "Feature",
      "geometry": {
        "type": "Point",
        "coordinates": [
          4.787972222,
          44.676055555
        ]
      },
      "properties": {
        "label": "Q11960006",
        "type": "Energy generation station",
        "entity": "http://www.wikidata.org/entity/Q11960006",
        "country_qid": "Q142"
      }
    },
    {
      "type": "Feature",
      "geometry": {
        "type": "Point",
        "coordinates": [
          1.569017169,
          45.795547724
        ]
      },
      "properties": {
        "label": "Q12009833",
        "type": "Energy generation station",
        "entity": "http://www.wikidata.org/entity/Q12009833",
        "country_qid": "Q142"
      }
    },
    {
      "type": "Feature",
      "geometry": {
        "type": "Point",
        "coordinates": [
          5.92546,
          45.10518
        ]
      },
      "properties": {
        "label": "Centrale hydroélectrique des Vernes",
        "type": "Energy generation station",
        "entity": "http://www.wikidata.org/entity/Q2944517",
        "country_qid": "Q142"
      }
    },
    {
      "type": "Feature",
      "geometry": {
        "type": "Point",
        "coordinates": [
          1.233801307,
          44.473795664
        ]
      },
      "properties": {
        "label": "Q11957229",
        "type": "Energy generation station",
        "entity": "http://www.wikidata.org/entity/Q11957229",
        "country_qid": "Q142"
      }
    },
    {
      "type": "Feature",
      "geometry": {
        "type": "Point",
        "coordinates": [
          5.833582,
          45.971221
        ]
      },
      "properties": {
        "label": "Barrage de Seyssel",
        "type": "Energy generation station",
        "entity": "http://www.wikidata.org/entity/Q2885289",
        "country_qid": "Q142"
      }
    },
    {
      "type": "Feature",
      "geometry": {
        "type": "Point",
        "coordinates": [
          7.52244,
          47.774021
        ]
      },
      "properties": {
        "label": "Ottmarsheim power station",
        "type": "Energy generation station",
        "entity": "http://www.wikidata.org/entity/Q1786175",
        "country_qid": "Q142"
      }
    },
    {
      "type": "Feature",
      "geometry": {
        "type": "Point",
        "coordinates": [
          1.598529514,
          45.796308847
        ]
      },
      "properties": {
        "label": "Q11983178",
        "type": "Energy generation station",
        "entity": "http://www.wikidata.org/entity/Q11983178",
        "country_qid": "Q142"
      }
    },
    {
      "type": "Feature",
      "geometry": {
        "type": "Point",
        "coordinates": [
          6.2707995,
          44.4717173
        ]
      },
      "properties": {
        "label": "Barrage de Serre-Ponçon",
        "type": "Energy generation station",
        "entity": "http://www.wikidata.org/entity/Q9386984",
        "country_qid": "Q142"
      }
    },
    {
      "type": "Feature",
      "geometry": {
        "type": "Point",
        "coordinates": [
          3.105855,
          50.376357
        ]
      },
      "properties": {
        "label": "Q117025766",
        "type": "Energy generation station",
        "entity": "http://www.wikidata.org/entity/Q117025766",
        "country_qid": "Q142"
      }
    },
    {
      "type": "Feature",
      "geometry": {
        "type": "Point",
        "coordinates": [
          1.470842956,
          45.302467243
        ]
      },
      "properties": {
        "label": "Q11960942",
        "type": "Energy generation station",
        "entity": "http://www.wikidata.org/entity/Q11960942",
        "country_qid": "Q142"
      }
    },
    {
      "type": "Feature",
      "geometry": {
        "type": "Point",
        "coordinates": [
          55.647416666,
          -21.357972222
        ]
      },
      "properties": {
        "label": "Q2944557",
        "type": "Energy generation station",
        "entity": "http://www.wikidata.org/entity/Q2944557",
        "country_qid": "Q142"
      }
    },
    {
      "type": "Feature",
      "geometry": {
        "type": "Point",
        "coordinates": [
          5.812701,
          46.052209
        ]
      },
      "properties": {
        "label": "Génissiat Dam",
        "type": "Energy generation station",
        "entity": "http://www.wikidata.org/entity/Q681294",
        "country_qid": "Q142"
      }
    },
    {
      "type": "Feature",
      "geometry": {
        "type": "Point",
        "coordinates": [
          6.54403,
          43.848347
        ]
      },
      "properties": {
        "label": "Barrage de Chaudanne",
        "type": "Energy generation station",
        "entity": "http://www.wikidata.org/entity/Q2885086",
        "country_qid": "Q142"
      }
    },
    {
      "type": "Feature",
      "geometry": {
        "type": "Point",
        "coordinates": [
          0.6840998,
          46.2430418
        ]
      },
      "properties": {
        "label": "Q11963438",
        "type": "Energy generation station",
        "entity": "http://www.wikidata.org/entity/Q11963438",
        "country_qid": "Q142"
      }
    },
    {
      "type": "Feature",
      "geometry": {
        "type": "Point",
        "coordinates": [
          4.8721763,
          44.9612888
        ]
      },
      "properties": {
        "label": "Q11962030",
        "type": "Energy generation station",
        "entity": "http://www.wikidata.org/entity/Q11962030",
        "country_qid": "Q142"
      }
    },
    {
      "type": "Feature",
      "geometry": {
        "type": "Point",
        "coordinates": [
          4.07152,
          49.23082
        ]
      },
      "properties": {
        "label": "Q111212063",
        "type": "Energy generation station",
        "entity": "http://www.wikidata.org/entity/Q111212063",
        "country_qid": "Q142"
      }
    },
    {
      "type": "Feature",
      "geometry": {
        "type": "Point",
        "coordinates": [
          2.141389825,
          43.953838165
        ]
      },
      "properties": {
        "label": "Q17748376",
        "type": "Energy generation station",
        "entity": "http://www.wikidata.org/entity/Q17748376",
        "country_qid": "Q142"
      }
    },
    {
      "type": "Feature",
      "geometry": {
        "type": "Point",
        "coordinates": [
          7.677398,
          48.283985
        ]
      },
      "properties": {
        "label": "Rhinau power station",
        "type": "Energy generation station",
        "entity": "http://www.wikidata.org/entity/Q1786190",
        "country_qid": "Q142"
      }
    },
    {
      "type": "Feature",
      "geometry": {
        "type": "Point",
        "coordinates": [
          4.852777777,
          43.419444444
        ]
      },
      "properties": {
        "label": "EveRé",
        "type": "Energy generation station",
        "entity": "http://www.wikidata.org/entity/Q3149915",
        "country_qid": "Q142"
      }
    },
    {
      "type": "Feature",
      "geometry": {
        "type": "Point",
        "coordinates": [
          -0.285339,
          49.198113
        ]
      },
      "properties": {
        "label": "Q129520380",
        "type": "Energy generation station",
        "entity": "http://www.wikidata.org/entity/Q129520380",
        "country_qid": "Q142"
      }
    },
    {
      "type": "Feature",
      "geometry": {
        "type": "Point",
        "coordinates": [
          1.614290175,
          45.802576957
        ]
      },
      "properties": {
        "label": "Q11962549",
        "type": "Energy generation station",
        "entity": "http://www.wikidata.org/entity/Q11962549",
        "country_qid": "Q142"
      }
    },
    {
      "type": "Feature",
      "geometry": {
        "type": "Point",
        "coordinates": [
          2.6840433,
          44.768783
        ]
      },
      "properties": {
        "label": "Brommat Hydroelectric Power Station",
        "type": "Energy generation station",
        "entity": "http://www.wikidata.org/entity/Q11960302",
        "country_qid": "Q142"
      }
    },
    {
      "type": "Feature",
      "geometry": {
        "type": "Point",
        "coordinates": [
          4.047805555,
          45.986527777
        ]
      },
      "properties": {
        "label": "Barrage de Villerest",
        "type": "Energy generation station",
        "entity": "http://www.wikidata.org/entity/Q2885323",
        "country_qid": "Q142"
      }
    },
    {
      "type": "Feature",
      "geometry": {
        "type": "Point",
        "coordinates": [
          5.7118352,
          45.0532058
        ]
      },
      "properties": {
        "label": "Saint-Georges-de-Commiers hydroelectric power plant",
        "type": "Energy generation station",
        "entity": "http://www.wikidata.org/entity/Q11992706",
        "country_qid": "Q142"
      }
    },
    {
      "type": "Feature",
      "geometry": {
        "type": "Point",
        "coordinates": [
          7.036185,
          49.151005
        ]
      },
      "properties": {
        "label": "Q17162669",
        "type": "Energy generation station",
        "entity": "http://www.wikidata.org/entity/Q17162669",
        "country_qid": "Q142"
      }
    },
    {
      "type": "Feature",
      "geometry": {
        "type": "Point",
        "coordinates": [
          9.4480491,
          42.5281796
        ]
      },
      "properties": {
        "label": "Q82300133",
        "type": "Energy generation station",
        "entity": "http://www.wikidata.org/entity/Q82300133",
        "country_qid": "Q142"
      }
    },
    {
      "type": "Feature",
      "geometry": {
        "type": "Point",
        "coordinates": [
          1.392163037,
          44.494918309
        ]
      },
      "properties": {
        "label": "Q11989065",
        "type": "Energy generation station",
        "entity": "http://www.wikidata.org/entity/Q11989065",
        "country_qid": "Q142"
      }
    },
    {
      "type": "Feature",
      "geometry": {
        "type": "Point",
        "coordinates": [
          5.820619,
          46.098605
        ]
      },
      "properties": {
        "label": "Q134455369",
        "type": "Energy generation station",
        "entity": "http://www.wikidata.org/entity/Q134455369",
        "country_qid": "Q142"
      }
    },
    {
      "type": "Feature",
      "geometry": {
        "type": "Point",
        "coordinates": [
          -53.05,
          5.062
        ]
      },
      "properties": {
        "label": "Petit-Saut Dam",
        "type": "Energy generation station",
        "entity": "http://www.wikidata.org/entity/Q2885258",
        "country_qid": "Q142"
      }
    },
    {
      "type": "Feature",
      "geometry": {
        "type": "Point",
        "coordinates": [
          2.3265627,
          48.9117615
        ]
      },
      "properties": {
        "label": "CPCU Saint-Ouen power plant",
        "type": "Energy generation station",
        "entity": "http://www.wikidata.org/entity/Q107068207",
        "country_qid": "Q142"
      }
    },
    {
      "type": "Feature",
      "geometry": {
        "type": "Point",
        "coordinates": [
          5.916191328,
          44.340601152
        ]
      },
      "properties": {
        "label": "Q2944736",
        "type": "Energy generation station",
        "entity": "http://www.wikidata.org/entity/Q2944736",
        "country_qid": "Q142"
      }
    },
    {
      "type": "Feature",
      "geometry": {
        "type": "Point",
        "coordinates": [
          55.7878,
          -21.1262
        ]
      },
      "properties": {
        "label": "Centrale hydroélectrique de Sainte-Rose",
        "type": "Energy generation station",
        "entity": "http://www.wikidata.org/entity/Q2388469",
        "country_qid": "Q142"
      }
    },
    {
      "type": "Feature",
      "geometry": {
        "type": "Point",
        "coordinates": [
          4.817606801,
          43.976020285
        ]
      },
      "properties": {
        "label": "Usine-écluse d'Avignon",
        "type": "Energy generation station",
        "entity": "http://www.wikidata.org/entity/Q11959787",
        "country_qid": "Q142"
      }
    },
    {
      "type": "Feature",
      "geometry": {
        "type": "Point",
        "coordinates": [
          4.826333333,
          45.494472222
        ]
      },
      "properties": {
        "label": "Usine-écluse de Vaugris",
        "type": "Energy generation station",
        "entity": "http://www.wikidata.org/entity/Q56357244",
        "country_qid": "Q142"
      }
    },
    {
      "type": "Feature",
      "geometry": {
        "type": "Point",
        "coordinates": [
          2.2612988,
          48.9370356
        ]
      },
      "properties": {
        "label": "Gennevilliers Power Plant",
        "type": "Energy generation station",
        "entity": "http://www.wikidata.org/entity/Q107066995",
        "country_qid": "Q142"
      }
    },
    {
      "type": "Feature",
      "geometry": {
        "type": "Point",
        "coordinates": [
          7.915,
          48.68472222
        ]
      },
      "properties": {
        "label": "Gambsheim barrage",
        "type": "Energy generation station",
        "entity": "http://www.wikidata.org/entity/Q15130268",
        "country_qid": "Q142"
      }
    },
    {
      "type": "Feature",
      "geometry": {
        "type": "Point",
        "coordinates": [
          7.570658,
          47.914666
        ]
      },
      "properties": {
        "label": "Fessenheim hydro power station",
        "type": "Energy generation station",
        "entity": "http://www.wikidata.org/entity/Q1786095",
        "country_qid": "Q142"
      }
    },
    {
      "type": "Feature",
      "geometry": {
        "type": "Point",
        "coordinates": [
          3.074638888,
          44.922361111
        ]
      },
      "properties": {
        "label": "Grandval Dam",
        "type": "Energy generation station",
        "entity": "http://www.wikidata.org/entity/Q2885135",
        "country_qid": "Q142"
      }
    },
    {
      "type": "Feature",
      "geometry": {
        "type": "Point",
        "coordinates": [
          1.09972222,
          48.64388889
        ]
      },
      "properties": {
        "label": "Crucey Solar Park",
        "type": "Energy generation station",
        "entity": "http://www.wikidata.org/entity/Q5189766",
        "country_qid": "Q142"
      }
    },
    {
      "type": "Feature",
      "geometry": {
        "type": "Point",
        "coordinates": [
          4.83778,
          45.72448
        ]
      },
      "properties": {
        "label": "Q124407365",
        "type": "Energy generation station",
        "entity": "http://www.wikidata.org/entity/Q124407365",
        "country_qid": "Q142"
      }
    },
    {
      "type": "Feature",
      "geometry": {
        "type": "Point",
        "coordinates": [
          6.179537,
          49.282297
        ]
      },
      "properties": {
        "label": "Q26257790",
        "type": "Energy generation station",
        "entity": "http://www.wikidata.org/entity/Q26257790",
        "country_qid": "Q142"
      }
    },
    {
      "type": "Feature",
      "geometry": {
        "type": "Point",
        "coordinates": [
          2.64068,
          44.9928
        ]
      },
      "properties": {
        "label": "Q2944564",
        "type": "Energy generation station",
        "entity": "http://www.wikidata.org/entity/Q2944564",
        "country_qid": "Q142"
      }
    },
    {
      "type": "Feature",
      "geometry": {
        "type": "Point",
        "coordinates": [
          2.41723,
          48.789003
        ]
      },
      "properties": {
        "label": "CPCU Vitry power plant",
        "type": "Energy generation station",
        "entity": "http://www.wikidata.org/entity/Q107068327",
        "country_qid": "Q142"
      }
    },
    {
      "type": "Feature",
      "geometry": {
        "type": "Point",
        "coordinates": [
          6.62724,
          47.694
        ]
      },
      "properties": {
        "label": "Ronchamp power station",
        "type": "Energy generation station",
        "entity": "http://www.wikidata.org/entity/Q17623869",
        "country_qid": "Q142"
      }
    },
    {
      "type": "Feature",
      "geometry": {
        "type": "Point",
        "coordinates": [
          2.734722222,
          47.698055555
        ]
      },
      "properties": {
        "label": "Q30728348",
        "type": "Energy generation station",
        "entity": "http://www.wikidata.org/entity/Q30728348",
        "country_qid": "Q142"
      }
    },
    {
      "type": "Feature",
      "geometry": {
        "type": "Point",
        "coordinates": [
          2.21872,
          44.945
        ]
      },
      "properties": {
        "label": "Barrage de Saint-Étienne-Cantalès",
        "type": "Energy generation station",
        "entity": "http://www.wikidata.org/entity/Q2885276",
        "country_qid": "Q142"
      }
    },
    {
      "type": "Feature",
      "geometry": {
        "type": "Point",
        "coordinates": [
          1.531812249,
          45.807234572
        ]
      },
      "properties": {
        "label": "Q11982848",
        "type": "Energy generation station",
        "entity": "http://www.wikidata.org/entity/Q11982848",
        "country_qid": "Q142"
      }
    },
    {
      "type": "Feature",
      "geometry": {
        "type": "Point",
        "coordinates": [
          2.74043706,
          44.82950107
        ]
      },
      "properties": {
        "label": "Barrage de Sarrans",
        "type": "Energy generation station",
        "entity": "http://www.wikidata.org/entity/Q2885279",
        "country_qid": "Q142"
      }
    },
    {
      "type": "Feature",
      "geometry": {
        "type": "Point",
        "coordinates": [
          -1.87785,
          47.2759
        ]
      },
      "properties": {
        "label": "Cordemais Power Station",
        "type": "Energy generation station",
        "entity": "http://www.wikidata.org/entity/Q2944654",
        "country_qid": "Q142"
      }
    },
    {
      "type": "Feature",
      "geometry": {
        "type": "Point",
        "coordinates": [
          1.7072696,
          45.7504386
        ]
      },
      "properties": {
        "label": "Q11962624",
        "type": "Energy generation station",
        "entity": "http://www.wikidata.org/entity/Q11962624",
        "country_qid": "Q142"
      }
    },
    {
      "type": "Feature",
      "geometry": {
        "type": "Point",
        "coordinates": [
          7.727917,
          48.403827
        ]
      },
      "properties": {
        "label": "Gerstheim power station",
        "type": "Energy generation station",
        "entity": "http://www.wikidata.org/entity/Q1261916",
        "country_qid": "Q142"
      }
    },
    {
      "type": "Feature",
      "geometry": {
        "type": "Point",
        "coordinates": [
          5.68833333,
          44.96111111
        ]
      },
      "properties": {
        "label": "Barrage de Monteynard",
        "type": "Energy generation station",
        "entity": "http://www.wikidata.org/entity/Q1664867",
        "country_qid": "Q142"
      }
    },
    {
      "type": "Feature",
      "geometry": {
        "type": "Point",
        "coordinates": [
          6.033,
          44.4028
        ]
      },
      "properties": {
        "label": "Curbans Solar Park",
        "type": "Energy generation station",
        "entity": "http://www.wikidata.org/entity/Q5194646",
        "country_qid": "Q142"
      }
    },
    {
      "type": "Feature",
      "geometry": {
        "type": "Point",
        "coordinates": [
          3.14376,
          50.299886
        ]
      },
      "properties": {
        "label": "Q117025368",
        "type": "Energy generation station",
        "entity": "http://www.wikidata.org/entity/Q117025368",
        "country_qid": "Q142"
      }
    },
    {
      "type": "Feature",
      "geometry": {
        "type": "Point",
        "coordinates": [
          5.486111111,
          43.469438888
        ]
      },
      "properties": {
        "label": "Provence Power Station",
        "type": "Energy generation station",
        "entity": "http://www.wikidata.org/entity/Q1839493",
        "country_qid": "Q142"
      }
    },
    {
      "type": "Feature",
      "geometry": {
        "type": "Point",
        "coordinates": [
          2.010022,
          45.15189
        ]
      },
      "properties": {
        "label": "Barrage du Chastang",
        "type": "Energy generation station",
        "entity": "http://www.wikidata.org/entity/Q808808",
        "country_qid": "Q142"
      }
    },
    {
      "type": "Feature",
      "geometry": {
        "type": "Point",
        "coordinates": [
          -4.0715611,
          48.5224778
        ]
      },
      "properties": {
        "label": "Q108703424",
        "type": "Energy generation station",
        "entity": "http://www.wikidata.org/entity/Q108703424",
        "country_qid": "Q142"
      }
    },
    {
      "type": "Feature",
      "geometry": {
        "type": "Point",
        "coordinates": [
          0.722063585,
          44.403051713
        ]
      },
      "properties": {
        "label": "Q12009834",
        "type": "Energy generation station",
        "entity": "http://www.wikidata.org/entity/Q12009834",
        "country_qid": "Q142"
      }
    },
    {
      "type": "Feature",
      "geometry": {
        "type": "Point",
        "coordinates": [
          4.91387,
          45.7678
        ]
      },
      "properties": {
        "label": "Centrale hydroélectrique de Cusset",
        "type": "Energy generation station",
        "entity": "http://www.wikidata.org/entity/Q8571",
        "country_qid": "Q142"
      }
    },
    {
      "type": "Feature",
      "geometry": {
        "type": "Point",
        "coordinates": [
          7.796644,
          48.525628
        ]
      },
      "properties": {
        "label": "Strasbourg power station",
        "type": "Energy generation station",
        "entity": "http://www.wikidata.org/entity/Q1786206",
        "country_qid": "Q142"
      }
    },
    {
      "type": "Feature",
      "geometry": {
        "type": "Point",
        "coordinates": [
          2.713711,
          44.017808
        ]
      },
      "properties": {
        "label": "La Jourdanie",
        "type": "Energy generation station",
        "entity": "http://www.wikidata.org/entity/Q6463258",
        "country_qid": "Q142"
      }
    },
    {
      "type": "Feature",
      "geometry": {
        "type": "Point",
        "coordinates": [
          3.313888888,
          50.298888888
        ]
      },
      "properties": {
        "label": "Bouchain power station",
        "type": "Energy generation station",
        "entity": "http://www.wikidata.org/entity/Q16039769",
        "country_qid": "Q142"
      }
    },
    {
      "type": "Feature",
      "geometry": {
        "type": "Point",
        "coordinates": [
          2.4177,
          48.7921
        ]
      },
      "properties": {
        "label": "Centrale thermique de Vitry-sur-Seine",
        "type": "Energy generation station",
        "entity": "http://www.wikidata.org/entity/Q2944715",
        "country_qid": "Q142"
      }
    },
    {
      "type": "Feature",
      "geometry": {
        "type": "Point",
        "coordinates": [
          7.13775,
          44.002638888
        ]
      },
      "properties": {
        "label": "Centrale hydro-électrique du Bancairon",
        "type": "Energy generation station",
        "entity": "http://www.wikidata.org/entity/Q2944542",
        "country_qid": "Q142"
      }
    },
    {
      "type": "Feature",
      "geometry": {
        "type": "Point",
        "coordinates": [
          0.2176453,
          49.494044
        ]
      },
      "properties": {
        "label": "Amfard Power Plant",
        "type": "Energy generation station",
        "entity": "http://www.wikidata.org/entity/Q107067599",
        "country_qid": "Q142"
      }
    },
    {
      "type": "Feature",
      "geometry": {
        "type": "Point",
        "coordinates": [
          0.05,
          44.25
        ]
      },
      "properties": {
        "label": "Pompogne Solar Park",
        "type": "Energy generation station",
        "entity": "http://www.wikidata.org/entity/Q7227495",
        "country_qid": "Q142"
      }
    },
    {
      "type": "Feature",
      "geometry": {
        "type": "Point",
        "coordinates": [
          2.6906,
          44.1224
        ]
      },
      "properties": {
        "label": "Alrance",
        "type": "Energy generation station",
        "entity": "http://www.wikidata.org/entity/Q4735688",
        "country_qid": "Q142"
      }
    },
    {
      "type": "Feature",
      "geometry": {
        "type": "Point",
        "coordinates": [
          0.377232,
          45.038907
        ]
      },
      "properties": {
        "label": "Micro-centrale hydroélectrique sur l'Isle à Gabillou",
        "type": "Energy generation station",
        "entity": "http://www.wikidata.org/entity/Q63630843",
        "country_qid": "Q142"
      }
    },
    {
      "type": "Feature",
      "geometry": {
        "type": "Point",
        "coordinates": [
          7.589676,
          48.153728
        ]
      },
      "properties": {
        "label": "Marckolsheim power station",
        "type": "Energy generation station",
        "entity": "http://www.wikidata.org/entity/Q1561255",
        "country_qid": "Q142"
      }
    },
    {
      "type": "Feature",
      "geometry": {
        "type": "Point",
        "coordinates": [
          4.74253333,
          44.30366111
        ]
      },
      "properties": {
        "label": "Donzère-Mondragon Dam",
        "type": "Energy generation station",
        "entity": "http://www.wikidata.org/entity/Q2885111",
        "country_qid": "Q142"
      }
    },
    {
      "type": "Feature",
      "geometry": {
        "type": "Point",
        "coordinates": [
          1.9183776,
          44.9412721
        ]
      },
      "properties": {
        "label": "Q11962375",
        "type": "Energy generation station",
        "entity": "http://www.wikidata.org/entity/Q11962375",
        "country_qid": "Q142"
      }
    },
    {
      "type": "Feature",
      "geometry": {
        "type": "Point",
        "coordinates": [
          4.64323,
          43.8242
        ]
      },
      "properties": {
        "label": "Beaucaire hydro power station",
        "type": "Energy generation station",
        "entity": "http://www.wikidata.org/entity/Q2885316",
        "country_qid": "Q142"
      }
    },
    {
      "type": "Feature",
      "geometry": {
        "type": "Point",
        "coordinates": [
          6.79062,
          45.618075
        ]
      },
      "properties": {
        "label": "Q3281923",
        "type": "Energy generation station",
        "entity": "http://www.wikidata.org/entity/Q3281923",
        "country_qid": "Q142"
      }
    },
    {
      "type": "Feature",
      "geometry": {
        "type": "Point",
        "coordinates": [
          1.613611111,
          46.454444444
        ]
      },
      "properties": {
        "label": "Eguzon Dam",
        "type": "Energy generation station",
        "entity": "http://www.wikidata.org/entity/Q2885039",
        "country_qid": "Q142"
      }
    },
    {
      "type": "Feature",
      "geometry": {
        "type": "Point",
        "coordinates": [
          1.652329263,
          45.815206402
        ]
      },
      "properties": {
        "label": "Q11969209",
        "type": "Energy generation station",
        "entity": "http://www.wikidata.org/entity/Q11969209",
        "country_qid": "Q142"
      }
    },
    {
      "type": "Feature",
      "geometry": {
        "type": "Point",
        "coordinates": [
          7.51950323,
          47.65528884
        ]
      },
      "properties": {
        "label": "Usine hydroélectrique de Kembs",
        "type": "Energy generation station",
        "entity": "http://www.wikidata.org/entity/Q1786132",
        "country_qid": "Q142"
      }
    },
    {
      "type": "Feature",
      "geometry": {
        "type": "Point",
        "coordinates": [
          0.6787489,
          46.2257477
        ]
      },
      "properties": {
        "label": "Q11982887",
        "type": "Energy generation station",
        "entity": "http://www.wikidata.org/entity/Q11982887",
        "country_qid": "Q142"
      }
    },
    {
      "type": "Feature",
      "geometry": {
        "type": "Point",
        "coordinates": [
          5.98068,
          48.7812
        ]
      },
      "properties": {
        "label": "Toul-Rosières Solar Park",
        "type": "Energy generation station",
        "entity": "http://www.wikidata.org/entity/Q2944628",
        "country_qid": "Q142"
      }
    },
    {
      "type": "Feature",
      "geometry": {
        "type": "Point",
        "coordinates": [
          2.7419016,
          44.8240481
        ]
      },
      "properties": {
        "label": "Bousquet hydroelectric power station",
        "type": "Energy generation station",
        "entity": "http://www.wikidata.org/entity/Q11962034",
        "country_qid": "Q142"
      }
    },
    {
      "type": "Feature",
      "geometry": {
        "type": "Point",
        "coordinates": [
          2.364444444,
          45.391666666
        ]
      },
      "properties": {
        "label": "Marèges Dam",
        "type": "Energy generation station",
        "entity": "http://www.wikidata.org/entity/Q1583460",
        "country_qid": "Q142"
      }
    },
    {
      "type": "Feature",
      "geometry": {
        "type": "Point",
        "coordinates": [
          3.269777,
          50.331388
        ]
      },
      "properties": {
        "label": "Q117025331",
        "type": "Energy generation station",
        "entity": "http://www.wikidata.org/entity/Q117025331",
        "country_qid": "Q142"
      }
    },
    {
      "type": "Feature",
      "geometry": {
        "type": "Point",
        "coordinates": [
          1.953911,
          45.104233
        ]
      },
      "properties": {
        "label": "Barrage d'Argentat",
        "type": "Energy generation station",
        "entity": "http://www.wikidata.org/entity/Q2367090",
        "country_qid": "Q142"
      }
    },
    {
      "type": "Feature",
      "geometry": {
        "type": "Point",
        "coordinates": [
          -2.1372306,
          47.3074369
        ]
      },
      "properties": {
        "label": "SPEM",
        "type": "Energy generation station",
        "entity": "http://www.wikidata.org/entity/Q107067183",
        "country_qid": "Q142"
      }
    },
    {
      "type": "Feature",
      "geometry": {
        "type": "Point",
        "coordinates": [
          1.834726183,
          46.281472118
        ]
      },
      "properties": {
        "label": "Q11983785",
        "type": "Energy generation station",
        "entity": "http://www.wikidata.org/entity/Q11983785",
        "country_qid": "Q142"
      }
    },
    {
      "type": "Feature",
      "geometry": {
        "type": "Point",
        "coordinates": [
          4.708416666,
          44.498861111
        ]
      },
      "properties": {
        "label": "Centrale hydroélectrique de Châteauneuf-du-Rhône",
        "type": "Energy generation station",
        "entity": "http://www.wikidata.org/entity/Q11963823",
        "country_qid": "Q142"
      }
    },
    {
      "type": "Feature",
      "geometry": {
        "type": "Point",
        "coordinates": [
          7.573867,
          48.020327
        ]
      },
      "properties": {
        "label": "Vogelgrun power station",
        "type": "Energy generation station",
        "entity": "http://www.wikidata.org/entity/Q1656732",
        "country_qid": "Q142"
      }
    },
    {
      "type": "Feature",
      "geometry": {
        "type": "Point",
        "coordinates": [
          -0.014,
          44.061
        ]
      },
      "properties": {
        "label": "Gabardan Solar Park",
        "type": "Energy generation station",
        "entity": "http://www.wikidata.org/entity/Q2363571",
        "country_qid": "Q142"
      }
    },
    {
      "type": "Feature",
      "geometry": {
        "type": "Point",
        "coordinates": [
          0.5357256,
          46.8111277
        ]
      },
      "properties": {
        "label": "Q11963481",
        "type": "Energy generation station",
        "entity": "http://www.wikidata.org/entity/Q11963481",
        "country_qid": "Q142"
      }
    },
    {
      "type": "Feature",
      "geometry": {
        "type": "Point",
        "coordinates": [
          1.4551901,
          45.9275976
        ]
      },
      "properties": {
        "label": "Q11999110",
        "type": "Energy generation station",
        "entity": "http://www.wikidata.org/entity/Q11999110",
        "country_qid": "Q142"
      }
    },
    {
      "type": "Feature",
      "geometry": {
        "type": "Point",
        "coordinates": [
          3.109308,
          50.301361
        ]
      },
      "properties": {
        "label": "Q117025285",
        "type": "Energy generation station",
        "entity": "http://www.wikidata.org/entity/Q117025285",
        "country_qid": "Q142"
      }
    },
    {
      "type": "Feature",
      "geometry": {
        "type": "Point",
        "coordinates": [
          3.106112,
          50.380161
        ]
      },
      "properties": {
        "label": "Q117025864",
        "type": "Energy generation station",
        "entity": "http://www.wikidata.org/entity/Q117025864",
        "country_qid": "Q142"
      }
    },
    {
      "type": "Feature",
      "geometry": {
        "type": "Point",
        "coordinates": [
          3.340214576,
          50.373845691
        ]
      },
      "properties": {
        "label": "Centrale thermique d'Hornaing",
        "type": "Energy generation station",
        "entity": "http://www.wikidata.org/entity/Q16303524",
        "country_qid": "Q142"
      }
    },
    {
      "type": "Feature",
      "geometry": {
        "type": "Point",
        "coordinates": [
          4.8662243,
          43.4073995
        ]
      },
      "properties": {
        "label": "Q93733336",
        "type": "Energy generation station",
        "entity": "http://www.wikidata.org/entity/Q93733336",
        "country_qid": "Q142"
      }
    },
    {
      "type": "Feature",
      "geometry": {
        "type": "Point",
        "coordinates": [
          4.797444444,
          45.306694444
        ]
      },
      "properties": {
        "label": "Q11999048",
        "type": "Energy generation station",
        "entity": "http://www.wikidata.org/entity/Q11999048",
        "country_qid": "Q142"
      }
    },
    {
      "type": "Feature",
      "geometry": {
        "type": "Point",
        "coordinates": [
          2.150531,
          47.937133
        ]
      },
      "properties": {
        "label": "Centrale électrique de Fay-aux-Loges",
        "type": "Energy generation station",
        "entity": "http://www.wikidata.org/entity/Q22996997",
        "country_qid": "Q142"
      }
    },
    {
      "type": "Feature",
      "geometry": {
        "type": "Point",
        "coordinates": [
          5.0207047,
          43.3597838
        ]
      },
      "properties": {
        "label": "Q64997939",
        "type": "Energy generation station",
        "entity": "http://www.wikidata.org/entity/Q64997939",
        "country_qid": "Q142"
      }
    },
    {
      "type": "Feature",
      "geometry": {
        "type": "Point",
        "coordinates": [
          5.205027777,
          43.715277777
        ]
      },
      "properties": {
        "label": "Q56357075",
        "type": "Energy generation station",
        "entity": "http://www.wikidata.org/entity/Q56357075",
        "country_qid": "Q142"
      }
    },
    {
      "type": "Feature",
      "geometry": {
        "type": "Point",
        "coordinates": [
          -0.013027777,
          42.869888888
        ]
      },
      "properties": {
        "label": "Q56357208",
        "type": "Energy generation station",
        "entity": "http://www.wikidata.org/entity/Q56357208",
        "country_qid": "Q142"
      }
    },
    {
      "type": "Feature",
      "geometry": {
        "type": "Point",
        "coordinates": [
          6.5859711,
          45.2022671
        ]
      },
      "properties": {
        "label": "Q56356957",
        "type": "Energy generation station",
        "entity": "http://www.wikidata.org/entity/Q56356957",
        "country_qid": "Q142"
      }
    },
    {
      "type": "Feature",
      "geometry": {
        "type": "Point",
        "coordinates": [
          0.553277777,
          42.732583333
        ]
      },
      "properties": {
        "label": "Centrale hydroélectrique du Portillon",
        "type": "Energy generation station",
        "entity": "http://www.wikidata.org/entity/Q56357192",
        "country_qid": "Q142"
      }
    },
    {
      "type": "Feature",
      "geometry": {
        "type": "Point",
        "coordinates": [
          1.478194444,
          42.761166666
        ]
      },
      "properties": {
        "label": "Q56357189",
        "type": "Energy generation station",
        "entity": "http://www.wikidata.org/entity/Q56357189",
        "country_qid": "Q142"
      }
    },
    {
      "type": "Feature",
      "geometry": {
        "type": "Point",
        "coordinates": [
          5.8701,
          45.0749
        ]
      },
      "properties": {
        "label": "Centrale hydroélectrique de Romanche Gavet",
        "type": "Energy generation station",
        "entity": "http://www.wikidata.org/entity/Q30740209",
        "country_qid": "Q142"
      }
    },
    {
      "type": "Feature",
      "geometry": {
        "type": "Point",
        "coordinates": [
          6.895027777,
          45.936277777
        ]
      },
      "properties": {
        "label": "Q56356869",
        "type": "Energy generation station",
        "entity": "http://www.wikidata.org/entity/Q56356869",
        "country_qid": "Q142"
      }
    },
    {
      "type": "Feature",
      "geometry": {
        "type": "Point",
        "coordinates": [
          6.716187962,
          45.21273643
        ]
      },
      "properties": {
        "label": "Q56356954",
        "type": "Energy generation station",
        "entity": "http://www.wikidata.org/entity/Q56356954",
        "country_qid": "Q142"
      }
    },
    {
      "type": "Feature",
      "geometry": {
        "type": "Point",
        "coordinates": [
          1.797055555,
          42.588277777
        ]
      },
      "properties": {
        "label": "Q56357174",
        "type": "Energy generation station",
        "entity": "http://www.wikidata.org/entity/Q56357174",
        "country_qid": "Q142"
      }
    },
    {
      "type": "Feature",
      "geometry": {
        "type": "Point",
        "coordinates": [
          2.21225,
          42.771833333
        ]
      },
      "properties": {
        "label": "Q56357173",
        "type": "Energy generation station",
        "entity": "http://www.wikidata.org/entity/Q56357173",
        "country_qid": "Q142"
      }
    },
    {
      "type": "Feature",
      "geometry": {
        "type": "Point",
        "coordinates": [
          6.060305555,
          44.447388888
        ]
      },
      "properties": {
        "label": "Q56357025",
        "type": "Energy generation station",
        "entity": "http://www.wikidata.org/entity/Q56357025",
        "country_qid": "Q142"
      }
    },
    {
      "type": "Feature",
      "geometry": {
        "type": "Point",
        "coordinates": [
          1.677,
          42.776722222
        ]
      },
      "properties": {
        "label": "Q55974132",
        "type": "Energy generation station",
        "entity": "http://www.wikidata.org/entity/Q55974132",
        "country_qid": "Q142"
      }
    },
    {
      "type": "Feature",
      "geometry": {
        "type": "Point",
        "coordinates": [
          6.727083333,
          45.917
        ]
      },
      "properties": {
        "label": "Q56356874",
        "type": "Energy generation station",
        "entity": "http://www.wikidata.org/entity/Q56356874",
        "country_qid": "Q142"
      }
    },
    {
      "type": "Feature",
      "geometry": {
        "type": "Point",
        "coordinates": [
          5.924916666,
          43.921166666
        ]
      },
      "properties": {
        "label": "Q56357039",
        "type": "Energy generation station",
        "entity": "http://www.wikidata.org/entity/Q56357039",
        "country_qid": "Q142"
      }
    },
    {
      "type": "Feature",
      "geometry": {
        "type": "Point",
        "coordinates": [
          5.9148,
          45.0986
        ]
      },