{
  "type": "FeatureCollection",
  "features": [
    {
      "type": "Feature",
      "geometry": {
        "type": "Point",
        "coordinates": [
          20.614577777,
          41.551513888
        ]
      },
      "properties": {
        "label": "Boškov Most Hydro Power Plant",
        "type": "Energy generation station",
        "entity": "http://www.wikidata.org/entity/Q4952972",
        "country_qid": "Q221"
      }
    },
    {
      "type": "Feature",
      "geometry": {
        "type": "Point",
        "coordinates": [
          21.452861111,
          41.994194444
        ]
      },
      "properties": {
        "label": "TE TO",
        "type": "Energy generation station",
        "entity": "http://www.wikidata.org/entity/Q30973802",
        "country_qid": "Q221"
      }
    },
    {
      "type": "Feature",
      "geometry": {
        "type": "Point",
        "coordinates": [
          21.263888888,
          41.924722222
        ]
      },
      "properties": {
        "label": "Sveta Petka Hydro Power Plant",
        "type": "Energy generation station",
        "entity": "http://www.wikidata.org/entity/Q28442864",
        "country_qid": "Q221"
      }
    },
    {
      "type": "Feature",
      "geometry": {
        "type": "Point",
        "coordinates": [
          21.139722222,
          42.100277777
        ]
      },
      "properties": {
        "label": "Gradište hydroelectric power plant",
        "type": "Energy generation station",
        "entity": "http://www.wikidata.org/entity/Q110874117",
        "country_qid": "Q221"
      }
    },
    {
      "type": "Feature",
      "geometry": {
        "type": "Point",
        "coordinates": [
          21.06068056,
          41.29089722
        ]
      },
      "properties": {
        "label": "Q27921942",
        "type": "Energy generation station",
        "entity": "http://www.wikidata.org/entity/Q27921942",
        "country_qid": "Q221"
      }
    },
    {
      "type": "Feature",
      "geometry": {
        "type": "Point",
        "coordinates": [
          21.001666666,
          41.581944444
        ]
      },
      "properties": {
        "label": "TPP Oslomej",
        "type": "Energy generation station",
        "entity": "http://www.wikidata.org/entity/Q104849389",
        "country_qid": "Q221"
      }
    },
    {
      "type": "Feature",
      "geometry": {
        "type": "Point",
        "coordinates": [
          21.482777777,
          41.056944444
        ]
      },
      "properties": {
        "label": "Bitola power plant",
        "type": "Energy generation station",
        "entity": "http://www.wikidata.org/entity/Q109894770",
        "country_qid": "Q221"
      }
    },
    {
      "type": "Feature",
      "geometry": {
        "type": "Point",
        "coordinates": [
          21.192777777,
          41.877777777
        ]
      },
      "properties": {
        "label": "Kozjak Hydro Power Plant",
        "type": "Energy generation station",
        "entity": "http://www.wikidata.org/entity/Q15440116",
        "country_qid": "Q221"
      }
    },
    {
      "type": "Feature",
      "geometry": {
        "type": "Point",
        "coordinates": [
          20.5857933,
          41.3946122
        ]
      },
      "properties": {
        "label": "Globočica Hydroelectric Power Plant",
        "type": "Energy generation station",
        "entity": "http://www.wikidata.org/entity/Q20568847",
        "country_qid": "Q221"
      }
    },
    {
      "type": "Feature",
      "geometry": {
        "type": "Point",
        "coordinates": [
          22.5075,
          41.844166666
        ]
      },
      "properties": {
        "label": "Q24394106",
        "type": "Energy generation station",
        "entity": "http://www.wikidata.org/entity/Q24394106",
        "country_qid": "Q221"
      }
    },
    {
      "type": "Feature",
      "geometry": {
        "type": "Point",
        "coordinates": [
          21.001666666,
          41.313888888
        ]
      },
      "properties": {
        "label": "Q27816039",
        "type": "Energy generation station",
        "entity": "http://www.wikidata.org/entity/Q27816039",
        "country_qid": "Q221"
      }
    },
    {
      "type": "Feature",
      "geometry": {
        "type": "Point",
        "coordinates": [
          20.950555555,
          42.021111111
        ]
      },
      "properties": {
        "label": "Pena Hydro Power Plant",
        "type": "Energy generation station",
        "entity": "http://www.wikidata.org/entity/Q12911402",
        "country_qid": "Q221"
      }
    },
    {
      "type": "Feature",
      "geometry": {
        "type": "Point",
        "coordinates": [
          22.578333333,
          41.971111111
        ]
      },
      "properties": {
        "label": "Kalimanci Hydro Power Plant",
        "type": "Energy generation station",
        "entity": "http://www.wikidata.org/entity/Q20568858",
        "country_qid": "Q221"
      }
    },
    {
      "type": "Feature",
      "geometry": {
        "type": "Point",
        "coordinates": [
          20.970583333,
          41.68125
        ]
      },
      "properties": {
        "label": "Q116997315",
        "type": "Energy generation station",
        "entity": "http://www.wikidata.org/entity/Q116997315",
        "country_qid": "Q221"
      }
    },
    {
      "type": "Feature",
      "geometry": {
        "type": "Point",
        "coordinates": [
          20.503055555,
          41.493333333
        ]
      },
      "properties": {
        "label": "Spilje Hydro Power Plant",
        "type": "Energy generation station",
        "entity": "http://www.wikidata.org/entity/Q7353184",
        "country_qid": "Q221"
      }
    },
    {
      "type": "Feature",
      "geometry": {
        "type": "Point",
        "coordinates": [
          22.223333333,
          41.369722222
        ]
      },
      "properties": {
        "label": "Došnica hydroelectric power plant",
        "type": "Energy generation station",
        "entity": "http://www.wikidata.org/entity/Q20568877",
        "country_qid": "Q221"
      }
    },
    {
      "type": "Feature",
      "geometry": {
        "type": "Point",
        "coordinates": [
          21.197777777,
          41.144722222
        ]
      },
      "properties": {
        "label": "Q12911394",
        "type": "Energy generation station",
        "entity": "http://www.wikidata.org/entity/Q12911394",
        "country_qid": "Q221"
      }
    },
    {
      "type": "Feature",
      "geometry": {
        "type": "Point",
        "coordinates": [
          22.563,
          41.228722222
        ]
      },
      "properties": {
        "label": "Bogdanci wind turbines",
        "type": "Energy generation station",
        "entity": "http://www.wikidata.org/entity/Q20569290",
        "country_qid": "Q221"
      }
    },
    {
      "type": "Feature",
      "geometry": {
        "type": "Point",
        "coordinates": [
          20.837777777,
          41.770777777
        ]
      },
      "properties": {
        "label": "Vrutok Hydroelectric Power Station",
        "type": "Energy generation station",
        "entity": "http://www.wikidata.org/entity/Q7353165",
        "country_qid": "Q221"
      }
    },
    {
      "type": "Feature",
      "geometry": {
        "type": "Point",
        "coordinates": [
          21.2725,
          41.030555555
        ]
      },
      "properties": {
        "label": "Sapundžica Hydro Power Plant",
        "type": "Energy generation station",
        "entity": "http://www.wikidata.org/entity/Q12911405",
        "country_qid": "Q221"
      }
    },
    {
      "type": "Feature",
      "geometry": {
        "type": "Point",
        "coordinates": [
          20.722361111,
          41.716111111
        ]
      },
      "properties": {
        "label": "Vrben Power Plant",
        "type": "Energy generation station",
        "entity": "http://www.wikidata.org/entity/Q12911389",
        "country_qid": "Q221"
      }
    },
    {
      "type": "Feature",
      "geometry": {
        "type": "Point",
        "coordinates": [
          20.8551595,
          41.779203
        ]
      },
      "properties": {
        "label": "Raven Hydro Power Plant",
        "type": "Energy generation station",
        "entity": "http://www.wikidata.org/entity/Q12911387",
        "country_qid": "Q221"
      }
    },
    {
      "type": "Feature",
      "geometry": {
        "type": "Point",
        "coordinates": [
          22.1610653,
          41.4575149
        ]
      },
      "properties": {
        "label": "Negotino Power Plant",
        "type": "Energy generation station",
        "entity": "http://www.wikidata.org/entity/Q15448289",
        "country_qid": "Q221"
      }
    },
    {
      "type": "Feature",
      "geometry": {
        "type": "Point",
        "coordinates": [
          20.778888888,
          41.33
        ]
      },
      "properties": {
        "label": "Pesočani Hydro Power Plant",
        "type": "Energy generation station",
        "entity": "http://www.wikidata.org/entity/Q12911409",
        "country_qid": "Q221"
      }
    },
    {
      "type": "Feature",
      "geometry": {
        "type": "Point",
        "coordinates": [
          21.298888888,
          41.9525
        ]
      },
      "properties": {
        "label": "Matka Power Plant",
        "type": "Energy generation station",
        "entity": "http://www.wikidata.org/entity/Q12911391",
        "country_qid": "Q221"
      }
    },
    {
      "type": "Feature",
      "geometry": {
        "type": "Point",
        "coordinates": [
          21.936555555,
          41.404444444
        ]
      },
      "properties": {
        "label": "Tikveš Hydroelectric Power Station",
        "type": "Energy generation station",
        "entity": "http://www.wikidata.org/entity/Q7353189",
        "country_qid": "Q221"
      }
    }
  ]
}