{
  "type": "FeatureCollection",
  "features": [
    {
      "type": "Feature",
      "geometry": {
        "type": "Point",
        "coordinates": [
          28.87513,
          -2.50909
        ]
      },
      "properties": {
        "label": "Ruzizi I Hydroelectric Power Station",
        "type": "Energy generation station",
        "entity": "http://www.wikidata.org/entity/Q130051635",
        "country_qid": "Q1037"
      }
    },
    {
      "type": "Feature",
      "geometry": {
        "type": "Point",
        "coordinates": [
          30.37722222,
          -2.02611111
        ]
      },
      "properties": {
        "label": "Rwamagana Solar Power Station",
        "type": "Energy generation station",
        "entity": "http://www.wikidata.org/entity/Q25043508",
        "country_qid": "Q1037"
      }
    },
    {
      "type": "Feature",
      "geometry": {
        "type": "Point",
        "coordinates": [
          28.8751638,
          -2.5090809
        ]
      },
      "properties": {
        "label": "Q30744030",
        "type": "Energy generation station",
        "entity": "http://www.wikidata.org/entity/Q30744030",
        "country_qid": "Q1037"
      }
    },
    {
      "type": "Feature",
      "geometry": {
        "type": "Point",
        "coordinates": [
          28.9399731,
          -2.6670832
        ]
      },
      "properties": {
        "label": "Gishoma Thermal Power Station",
        "type": "Energy generation station",
        "entity": "http://www.wikidata.org/entity/Q25221452",
        "country_qid": "Q1037"
      }
    },
    {
      "type": "Feature",
      "geometry": {
        "type": "Point",
        "coordinates": [
          29.515,
          -2.771111111
        ]
      },
      "properties": {
        "label": "Q49627702",
        "type": "Energy generation station",
        "entity": "http://www.wikidata.org/entity/Q49627702",
        "country_qid": "Q1037"
      }
    },
    {
      "type": "Feature",
      "geometry": {
        "type": "Point",
        "coordinates": [
          28.96555556,
          -2.70138889
        ]
      },
      "properties": {
        "label": "Ruzizi III Hydroelectric Power Station",
        "type": "Energy generation station",
        "entity": "http://www.wikidata.org/entity/Q38250595",
        "country_qid": "Q1037"
      }
    },
    {
      "type": "Feature",
      "geometry": {
        "type": "Point",
        "coordinates": [
          28.97,
          -2.701111111
        ]
      },
      "properties": {
        "label": "Ruzizi IV Hydroelectric Power Station",
        "type": "Energy generation station",
        "entity": "http://www.wikidata.org/entity/Q85798237",
        "country_qid": "Q1037"
      }
    },
    {
      "type": "Feature",
      "geometry": {
        "type": "Point",
        "coordinates": [
          29.55333333,
          -2.46833333
        ]
      },
      "properties": {
        "label": "Rukarara Hydroelectric Power Station",
        "type": "Energy generation station",
        "entity": "http://www.wikidata.org/entity/Q24806930",
        "country_qid": "Q1037"
      }
    },
    {
      "type": "Feature",
      "geometry": {
        "type": "Point",
        "coordinates": [
          29.28055556,
          -1.8025
        ]
      },
      "properties": {
        "label": "Symbion Thermal Power Station",
        "type": "Energy generation station",
        "entity": "http://www.wikidata.org/entity/Q25230501",
        "country_qid": "Q1037"
      }
    },
    {
      "type": "Feature",
      "geometry": {
        "type": "Point",
        "coordinates": [
          29.95388889,
          -2.29916667
        ]
      },
      "properties": {
        "label": "Gisagara Thermal Power Station",
        "type": "Energy generation station",
        "entity": "http://www.wikidata.org/entity/Q25221449",
        "country_qid": "Q1037"
      }
    },
    {
      "type": "Feature",
      "geometry": {
        "type": "Point",
        "coordinates": [
          30.016117,
          -1.884781
        ]
      },
      "properties": {
        "label": "Kigali Solaire",
        "type": "Energy generation station",
        "entity": "http://www.wikidata.org/entity/Q6405916",
        "country_qid": "Q1037"
      }
    },
    {
      "type": "Feature",
      "geometry": {
        "type": "Point",
        "coordinates": [
          29.320055555,
          -2.068583333
        ]
      },
      "properties": {
        "label": "KivuWatt Power Station",
        "type": "Energy generation station",
        "entity": "http://www.wikidata.org/entity/Q22079959",
        "country_qid": "Q1037"
      }
    },
    {
      "type": "Feature",
      "geometry": {
        "type": "Point",
        "coordinates": [
          29.930833333,
          -2.623611111
        ]
      },
      "properties": {
        "label": "Akanyaru Multipurpose Dam",
        "type": "Energy generation station",
        "entity": "http://www.wikidata.org/entity/Q105972846",
        "country_qid": "Q1037"
      }
    },
    {
      "type": "Feature",
      "geometry": {
        "type": "Point",
        "coordinates": [
          29.33833333,
          -2.05583333
        ]
      },
      "properties": {
        "label": "Kibuye Power Plant 1",
        "type": "Energy generation station",
        "entity": "http://www.wikidata.org/entity/Q23058516",
        "country_qid": "Q1037"
      }
    },
    {
      "type": "Feature",
      "geometry": {
        "type": "Point",
        "coordinates": [
          29.7503583,
          -1.4773968
        ]
      },
      "properties": {
        "label": "Ntaruka Hydroelectric Power Station",
        "type": "Energy generation station",
        "entity": "http://www.wikidata.org/entity/Q49627705",
        "country_qid": "Q1037"
      }
    },
    {
      "type": "Feature",
      "geometry": {
        "type": "Point",
        "coordinates": [
          29.684166666,
          -1.537777777
        ]
      },
      "properties": {
        "label": "Mukungwa hydropower plant",
        "type": "Energy generation station",
        "entity": "http://www.wikidata.org/entity/Q49627704",
        "country_qid": "Q1037"
      }
    },
    {
      "type": "Feature",
      "geometry": {
        "type": "Point",
        "coordinates": [
          30.78333333,
          -2.3825
        ]
      },
      "properties": {
        "label": "Rusumo Power Station",
        "type": "Energy generation station",
        "entity": "http://www.wikidata.org/entity/Q7382684",
        "country_qid": "Q1037"
      }
    }
  ]
}