{
  "type": "FeatureCollection",
  "features": [
    {
      "type": "Feature",
      "geometry": {
        "type": "Point",
        "coordinates": [
          -11.6675,
          7.788611111
        ]
      },
      "properties": {
        "label": "Baomahun Hybrid Power Station",
        "type": "Energy generation station",
        "entity": "http://www.wikidata.org/entity/Q124693293",
        "country_qid": "Q1044"
      }
    },
    {
      "type": "Feature",
      "geometry": {
        "type": "Point",
        "coordinates": [
          -11.798611111,
          8.185555555
        ]
      },
      "properties": {
        "label": "Baoma Solar Power Station",
        "type": "Energy generation station",
        "entity": "http://www.wikidata.org/entity/Q121734230",
        "country_qid": "Q1044"
      }
    },
    {
      "type": "Feature",
      "geometry": {
        "type": "Point",
        "coordinates": [
          -13.247388888,
          8.492888888
        ]
      },
      "properties": {
        "label": "Kingtom Power Station",
        "type": "Energy generation station",
        "entity": "http://www.wikidata.org/entity/Q56373380",
        "country_qid": "Q1044"
      }
    },
    {
      "type": "Feature",
      "geometry": {
        "type": "Point",
        "coordinates": [
          -11.7225,
          9.071944444
        ]
      },
      "properties": {
        "label": "Bumbuna II Hydroelectric Power Station",
        "type": "Energy generation station",
        "entity": "http://www.wikidata.org/entity/Q108444781",
        "country_qid": "Q1044"
      }
    },
    {
      "type": "Feature",
      "geometry": {
        "type": "Point",
        "coordinates": [
          -11.7229,
          9.07149
        ]
      },
      "properties": {
        "label": "Bumbuna Dam",
        "type": "Energy generation station",
        "entity": "http://www.wikidata.org/entity/Q16828547",
        "country_qid": "Q1044"
      }
    }
  ]
}