{
  "type": "FeatureCollection",
  "features": [
    {
      "type": "Feature",
      "geometry": {
        "type": "Point",
        "coordinates": [
          16.437,
          48.2117
        ]
      },
      "properties": {
        "label": "Weir 1",
        "type": "Hydraulic structure",
        "entity": "http://www.wikidata.org/entity/Q1736406",
        "country_qid": "Q40"
      }
    },
    {
      "type": "Feature",
      "geometry": {
        "type": "Point",
        "coordinates": [
          16.85077,
          47.91989
        ]
      },
      "properties": {
        "label": "Weidener Kanal",
        "type": "Hydraulic structure",
        "entity": "http://www.wikidata.org/entity/Q21879105",
        "country_qid": "Q40"
      }
    },
    {
      "type": "Feature",
      "geometry": {
        "type": "Point",
        "coordinates": [
          13.551139,
          47.651958
        ]
      },
      "properties": {
        "label": "Chorinsky-Klause",
        "type": "Hydraulic structure",
        "entity": "http://www.wikidata.org/entity/Q1076460",
        "country_qid": "Q40"
      }
    },
    {
      "type": "Feature",
      "geometry": {
        "type": "Point",
        "coordinates": [
          15.328991944,
          47.138826944
        ]
      },
      "properties": {
        "label": "Triebwasserkanal Leykam I",
        "type": "Hydraulic structure",
        "entity": "http://www.wikidata.org/entity/Q105024606",
        "country_qid": "Q40"
      }
    },
    {
      "type": "Feature",
      "geometry": {
        "type": "Point",
        "coordinates": [
          15.98785,
          48.12726
        ]
      },
      "properties": {
        "label": "Lengbachlklause, Klausen-Leopoldsdorf",
        "type": "Hydraulic structure",
        "entity": "http://www.wikidata.org/entity/Q57975730",
        "country_qid": "Q40"
      }
    },
    {
      "type": "Feature",
      "geometry": {
        "type": "Point",
        "coordinates": [
          15.320716,
          47.232847
        ]
      },
      "properties": {
        "label": "Kraftwerk Peggau-Deutschfeistritz",
        "type": "Hydraulic structure",
        "entity": "http://www.wikidata.org/entity/Q64692129",
        "country_qid": "Q40"
      }
    },
    {
      "type": "Feature",
      "geometry": {
        "type": "Point",
        "coordinates": [
          15.320716,
          47.232847
        ]
      },
      "properties": {
        "label": "Wehranlage Adriach",
        "type": "Hydraulic structure",
        "entity": "http://www.wikidata.org/entity/Q64692127",
        "country_qid": "Q40"
      }
    },
    {
      "type": "Feature",
      "geometry": {
        "type": "Point",
        "coordinates": [
          14.2992,
          46.6231
        ]
      },
      "properties": {
        "label": "Q126549239",
        "type": "Hydraulic structure",
        "entity": "http://www.wikidata.org/entity/Q126549239",
        "country_qid": "Q40"
      }
    },
    {
      "type": "Feature",
      "geometry": {
        "type": "Point",
        "coordinates": [
          14.29658,
          47.89122
        ]
      },
      "properties": {
        "label": "Q130457698",
        "type": "Hydraulic structure",
        "entity": "http://www.wikidata.org/entity/Q130457698",
        "country_qid": "Q40"
      }
    },
    {
      "type": "Feature",
      "geometry": {
        "type": "Point",
        "coordinates": [
          11.772251,
          47.392943
        ]
      },
      "properties": {
        "label": "Q125118327",
        "type": "Hydraulic structure",
        "entity": "http://www.wikidata.org/entity/Q125118327",
        "country_qid": "Q40"
      }
    },
    {
      "type": "Feature",
      "geometry": {
        "type": "Point",
        "coordinates": [
          16.875555555,
          47.688055555
        ]
      },
      "properties": {
        "label": "Zweierkanal",
        "type": "Hydraulic structure",
        "entity": "http://www.wikidata.org/entity/Q21879092",
        "country_qid": "Q40"
      }
    },
    {
      "type": "Feature",
      "geometry": {
        "type": "Point",
        "coordinates": [
          16.0375,
          48.08111
        ]
      },
      "properties": {
        "label": "Hauptklause, Klausen-Leopoldsdorf",
        "type": "Hydraulic structure",
        "entity": "http://www.wikidata.org/entity/Q57982298",
        "country_qid": "Q40"
      }
    },
    {
      "type": "Feature",
      "geometry": {
        "type": "Point",
        "coordinates": [
          15.758967,
          48.370765
        ]
      },
      "properties": {
        "label": "Traismauer port",
        "type": "Hydraulic structure",
        "entity": "http://www.wikidata.org/entity/Q106215603",
        "country_qid": "Q40"
      }
    },
    {
      "type": "Feature",
      "geometry": {
        "type": "Point",
        "coordinates": [
          13.771483,
          47.811931
        ]
      },
      "properties": {
        "label": "Brine pipeline Hallstatt - Bad Ischl - Ebensee",
        "type": "Hydraulic structure",
        "entity": "http://www.wikidata.org/entity/Q133816687",
        "country_qid": "Q40"
      }
    },
    {
      "type": "Feature",
      "geometry": {
        "type": "Point",
        "coordinates": [
          16.296087,
          48.254044
        ]
      },
      "properties": {
        "label": "Q37821025",
        "type": "Hydraulic structure",
        "entity": "http://www.wikidata.org/entity/Q37821025",
        "country_qid": "Q40"
      }
    },
    {
      "type": "Feature",
      "geometry": {
        "type": "Point",
        "coordinates": [
          15.947219444,
          48.07695
        ]
      },
      "properties": {
        "label": "Riesenbachklause, Klausen-Leopoldsdorf",
        "type": "Hydraulic structure",
        "entity": "http://www.wikidata.org/entity/Q57974479",
        "country_qid": "Q40"
      }
    },
    {
      "type": "Feature",
      "geometry": {
        "type": "Point",
        "coordinates": [
          13.0956,
          47.68169
        ]
      },
      "properties": {
        "label": "Q38035017",
        "type": "Hydraulic structure",
        "entity": "http://www.wikidata.org/entity/Q38035017",
        "country_qid": "Q40"
      }
    },
    {
      "type": "Feature",
      "geometry": {
        "type": "Point",
        "coordinates": [
          14.14759,
          48.318339
        ]
      },
      "properties": {
        "label": "Ottensheim-Wilhering lock",
        "type": "Hydraulic structure",
        "entity": "http://www.wikidata.org/entity/Q127959009",
        "country_qid": "Q40"
      }
    },
    {
      "type": "Feature",
      "geometry": {
        "type": "Point",
        "coordinates": [
          13.665268,
          47.853527
        ]
      },
      "properties": {
        "label": "Q37797977",
        "type": "Hydraulic structure",
        "entity": "http://www.wikidata.org/entity/Q37797977",
        "country_qid": "Q40"
      }
    },
    {
      "type": "Feature",
      "geometry": {
        "type": "Point",
        "coordinates": [
          9.8394,
          47.21921
        ]
      },
      "properties": {
        "label": "Lutz Staudamm",
        "type": "Hydraulic structure",
        "entity": "http://www.wikidata.org/entity/Q21881814",
        "country_qid": "Q40"
      }
    },
    {
      "type": "Feature",
      "geometry": {
        "type": "Point",
        "coordinates": [
          12.622865,
          47.653258
        ]
      },
      "properties": {
        "label": "Fischbachklause",
        "type": "Hydraulic structure",
        "entity": "http://www.wikidata.org/entity/Q37972143",
        "country_qid": "Q40"
      }
    },
    {
      "type": "Feature",
      "geometry": {
        "type": "Point",
        "coordinates": [
          16.1677,
          48.8136
        ]
      },
      "properties": {
        "label": "Thayamühlbach",
        "type": "Hydraulic structure",
        "entity": "http://www.wikidata.org/entity/Q11837000",
        "country_qid": "Q40"
      }
    },
    {
      "type": "Feature",
      "geometry": {
        "type": "Point",
        "coordinates": [
          14.266694,
          46.619125
        ]
      },
      "properties": {
        "label": "Q64764952",
        "type": "Hydraulic structure",
        "entity": "http://www.wikidata.org/entity/Q64764952",
        "country_qid": "Q40"
      }
    },
    {
      "type": "Feature",
      "geometry": {
        "type": "Point",
        "coordinates": [
          9.725121,
          47.438424
        ]
      },
      "properties": {
        "label": "Karlesgraben",
        "type": "Hydraulic structure",
        "entity": "http://www.wikidata.org/entity/Q44629123",
        "country_qid": "Q40"
      }
    },
    {
      "type": "Feature",
      "geometry": {
        "type": "Point",
        "coordinates": [
          14.25029,
          46.61466
        ]
      },
      "properties": {
        "label": "Lendkanal",
        "type": "Hydraulic structure",
        "entity": "http://www.wikidata.org/entity/Q1473656",
        "country_qid": "Q40"
      }
    },
    {
      "type": "Feature",
      "geometry": {
        "type": "Point",
        "coordinates": [
          13.2457,
          46.6165
        ]
      },
      "properties": {
        "label": "Hadnmauer",
        "type": "Hydraulic structure",
        "entity": "http://www.wikidata.org/entity/Q27499955",
        "country_qid": "Q40"
      }
    },
    {
      "type": "Feature",
      "geometry": {
        "type": "Point",
        "coordinates": [
          16.280065,
          47.882557
        ]
      },
      "properties": {
        "label": "Q64485518",
        "type": "Hydraulic structure",
        "entity": "http://www.wikidata.org/entity/Q64485518",
        "country_qid": "Q40"
      }
    },
    {
      "type": "Feature",
      "geometry": {
        "type": "Point",
        "coordinates": [
          17.25435,
          47.88908
        ]
      },
      "properties": {
        "label": "Lajta bal parti csatorna",
        "type": "Hydraulic structure",
        "entity": "http://www.wikidata.org/entity/Q14928220",
        "country_qid": "Q40"
      }
    },
    {
      "type": "Feature",
      "geometry": {
        "type": "Point",
        "coordinates": [
          16.2,
          48.333333333
        ]
      },
      "properties": {
        "label": "Hauptgraben",
        "type": "Hydraulic structure",
        "entity": "http://www.wikidata.org/entity/Q21874729",
        "country_qid": "Q40"
      }
    },
    {
      "type": "Feature",
      "geometry": {
        "type": "Point",
        "coordinates": [
          16.24169,
          47.92671
        ]
      },
      "properties": {
        "label": "Q64485492",
        "type": "Hydraulic structure",
        "entity": "http://www.wikidata.org/entity/Q64485492",
        "country_qid": "Q40"
      }
    },
    {
      "type": "Feature",
      "geometry": {
        "type": "Point",
        "coordinates": [
          13.0421,
          47.7823
        ]
      },
      "properties": {
        "label": "Almkanal",
        "type": "Hydraulic structure",
        "entity": "http://www.wikidata.org/entity/Q1373426",
        "country_qid": "Q40"
      }
    },
    {
      "type": "Feature",
      "geometry": {
        "type": "Point",
        "coordinates": [
          16.24558,
          47.97067
        ]
      },
      "properties": {
        "label": "Q64485507",
        "type": "Hydraulic structure",
        "entity": "http://www.wikidata.org/entity/Q64485507",
        "country_qid": "Q40"
      }
    },
    {
      "type": "Feature",
      "geometry": {
        "type": "Point",
        "coordinates": [
          16.55861,
          48.14361
        ]
      },
      "properties": {
        "label": "Marchfelddamm",
        "type": "Hydraulic structure",
        "entity": "http://www.wikidata.org/entity/Q21929736",
        "country_qid": "Q40"
      }
    },
    {
      "type": "Feature",
      "geometry": {
        "type": "Point",
        "coordinates": [
          14.756859,
          47.425026
        ]
      },
      "properties": {
        "label": "Q38128680",
        "type": "Hydraulic structure",
        "entity": "http://www.wikidata.org/entity/Q38128680",
        "country_qid": "Q40"
      }
    },
    {
      "type": "Feature",
      "geometry": {
        "type": "Point",
        "coordinates": [
          14.40555556,
          48.04138889
        ]
      },
      "properties": {
        "label": "Wehrgraben (Steyr)",
        "type": "Hydraulic structure",
        "entity": "http://www.wikidata.org/entity/Q2554579",
        "country_qid": "Q40"
      }
    },
    {
      "type": "Feature",
      "geometry": {
        "type": "Point",
        "coordinates": [
          14.31,
          48.32013
        ]
      },
      "properties": {
        "label": "Winterhafen",
        "type": "Hydraulic structure",
        "entity": "http://www.wikidata.org/entity/Q55807473",
        "country_qid": "Q40"
      }
    },
    {
      "type": "Feature",
      "geometry": {
        "type": "Point",
        "coordinates": [
          16.92258,
          47.89144
        ]
      },
      "properties": {
        "label": "Golser Kanal",
        "type": "Hydraulic structure",
        "entity": "http://www.wikidata.org/entity/Q21879110",
        "country_qid": "Q40"
      }
    },
    {
      "type": "Feature",
      "geometry": {
        "type": "Point",
        "coordinates": [
          9.769983,
          47.475452
        ]
      },
      "properties": {
        "label": "Schindler Canal",
        "type": "Hydraulic structure",
        "entity": "http://www.wikidata.org/entity/Q98446872",
        "country_qid": "Q40"
      }
    },
    {
      "type": "Feature",
      "geometry": {
        "type": "Point",
        "coordinates": [
          15.74257,
          48.1459
        ]
      },
      "properties": {
        "label": "Michelbachdüker",
        "type": "Hydraulic structure",
        "entity": "http://www.wikidata.org/entity/Q37825860",
        "country_qid": "Q40"
      }
    },
    {
      "type": "Feature",
      "geometry": {
        "type": "Point",
        "coordinates": [
          16.2571,
          47.81482
        ]
      },
      "properties": {
        "label": "Wiener Neustädter Kanal in Wiener Neustadt",
        "type": "Hydraulic structure",
        "entity": "http://www.wikidata.org/entity/Q64485520",
        "country_qid": "Q40"
      }
    },
    {
      "type": "Feature",
      "geometry": {
        "type": "Point",
        "coordinates": [
          14.26055,
          46.618439
        ]
      },
      "properties": {
        "label": "Q64764953",
        "type": "Hydraulic structure",
        "entity": "http://www.wikidata.org/entity/Q64764953",
        "country_qid": "Q40"
      }
    },
    {
      "type": "Feature",
      "geometry": {
        "type": "Point",
        "coordinates": [
          16.392332,
          48.252433
        ]
      },
      "properties": {
        "label": "Q104661473",
        "type": "Hydraulic structure",
        "entity": "http://www.wikidata.org/entity/Q104661473",
        "country_qid": "Q40"
      }
    },
    {
      "type": "Feature",
      "geometry": {
        "type": "Point",
        "coordinates": [
          13.093096,
          47.680687
        ]
      },
      "properties": {
        "label": "Q38034931",
        "type": "Hydraulic structure",
        "entity": "http://www.wikidata.org/entity/Q38034931",
        "country_qid": "Q40"
      }
    },
    {
      "type": "Feature",
      "geometry": {
        "type": "Point",
        "coordinates": [
          14.88283,
          47.74294
        ]
      },
      "properties": {
        "label": "Q64692182",
        "type": "Hydraulic structure",
        "entity": "http://www.wikidata.org/entity/Q64692182",
        "country_qid": "Q40"
      }
    },
    {
      "type": "Feature",
      "geometry": {
        "type": "Point",
        "coordinates": [
          16.37266,
          48.217775
        ]
      },
      "properties": {
        "label": "Q125342443",
        "type": "Hydraulic structure",
        "entity": "http://www.wikidata.org/entity/Q125342443",
        "country_qid": "Q40"
      }
    },
    {
      "type": "Feature",
      "geometry": {
        "type": "Point",
        "coordinates": [
          14.33191667,
          48.31233333
        ]
      },
      "properties": {
        "label": "Donaudüker",
        "type": "Hydraulic structure",
        "entity": "http://www.wikidata.org/entity/Q1240881",
        "country_qid": "Q40"
      }
    },
    {
      "type": "Feature",
      "geometry": {
        "type": "Point",
        "coordinates": [
          16.35464,
          47.18932
        ]
      },
      "properties": {
        "label": "Mühlkanal Kotezicken",
        "type": "Hydraulic structure",
        "entity": "http://www.wikidata.org/entity/Q108489821",
        "country_qid": "Q40"
      }
    },
    {
      "type": "Feature",
      "geometry": {
        "type": "Point",
        "coordinates": [
          13.33952,
          47.07939
        ]
      },
      "properties": {
        "label": "Kölnbrein Dam",
        "type": "Hydraulic structure",
        "entity": "http://www.wikidata.org/entity/Q378432",
        "country_qid": "Q40"
      }
    },
    {
      "type": "Feature",
      "geometry": {
        "type": "Point",
        "coordinates": [
          14.755907,
          47.428115
        ]
      },
      "properties": {
        "label": "Q38128670",
        "type": "Hydraulic structure",
        "entity": "http://www.wikidata.org/entity/Q38128670",
        "country_qid": "Q40"
      }
    },
    {
      "type": "Feature",
      "geometry": {
        "type": "Point",
        "coordinates": [
          13.650094444,
          47.591347222
        ]
      },
      "properties": {
        "label": "Gosauzwang",
        "type": "Hydraulic structure",
        "entity": "http://www.wikidata.org/entity/Q1538480",
        "country_qid": "Q40"
      }
    },
    {
      "type": "Feature",
      "geometry": {
        "type": "Point",
        "coordinates": [
          16.213172,
          48.006609
        ]
      },
      "properties": {
        "label": "Holzrechen Baden",
        "type": "Hydraulic structure",
        "entity": "http://www.wikidata.org/entity/Q106953341",
        "country_qid": "Q40"
      }
    },
    {
      "type": "Feature",
      "geometry": {
        "type": "Point",
        "coordinates": [
          15.94453,
          48.08358
        ]
      },
      "properties": {
        "label": "Schöpflklause, Klausen-Leopoldsdorf",
        "type": "Hydraulic structure",
        "entity": "http://www.wikidata.org/entity/Q57974165",
        "country_qid": "Q40"
      }
    },
    {
      "type": "Feature",
      "geometry": {
        "type": "Point",
        "coordinates": [
          14.183055555,
          46.481111111
        ]
      },
      "properties": {
        "label": "Pontafelsperre",
        "type": "Hydraulic structure",
        "entity": "http://www.wikidata.org/entity/Q21875013",
        "country_qid": "Q40"
      }
    },
    {
      "type": "Feature",
      "geometry": {
        "type": "Point",
        "coordinates": [
          16.0374,
          47.7383
        ]
      },
      "properties": {
        "label": "Thomb",
        "type": "Hydraulic structure",
        "entity": "http://www.wikidata.org/entity/Q2428585",
        "country_qid": "Q40"
      }
    },
    {
      "type": "Feature",
      "geometry": {
        "type": "Point",
        "coordinates": [
          9.66989,
          47.48214
        ]
      },
      "properties": {
        "label": "Q95183732",
        "type": "Hydraulic structure",
        "entity": "http://www.wikidata.org/entity/Q95183732",
        "country_qid": "Q40"
      }
    },
    {
      "type": "Feature",
      "geometry": {
        "type": "Point",
        "coordinates": [
          14.020475,
          48.385719
        ]
      },
      "properties": {
        "label": "Aschach lock",
        "type": "Hydraulic structure",
        "entity": "http://www.wikidata.org/entity/Q127957939",
        "country_qid": "Q40"
      }
    },
    {
      "type": "Feature",
      "geometry": {
        "type": "Point",
        "coordinates": [
          14.321220089,
          48.510471996
        ]
      },
      "properties": {
        "label": "Q120972420",
        "type": "Hydraulic structure",
        "entity": "http://www.wikidata.org/entity/Q120972420",
        "country_qid": "Q40"
      }
    },
    {
      "type": "Feature",
      "geometry": {
        "type": "Point",
        "coordinates": [
          16.309917,
          48.049667
        ]
      },
      "properties": {
        "label": "Wiener Neustädter Kanal in Guntramsdorf",
        "type": "Hydraulic structure",
        "entity": "http://www.wikidata.org/entity/Q64485490",
        "country_qid": "Q40"
      }
    },
    {
      "type": "Feature",
      "geometry": {
        "type": "Point",
        "coordinates": [
          14.296696313,
          48.513398195
        ]
      },
      "properties": {
        "label": "Q120987941",
        "type": "Hydraulic structure",
        "entity": "http://www.wikidata.org/entity/Q120987941",
        "country_qid": "Q40"
      }
    },
    {
      "type": "Feature",
      "geometry": {
        "type": "Point",
        "coordinates": [
          9.7013,
          47.506427777
        ]
      },
      "properties": {
        "label": "Wocherhafen",
        "type": "Hydraulic structure",
        "entity": "http://www.wikidata.org/entity/Q130724384",
        "country_qid": "Q40"
      }
    },
    {
      "type": "Feature",
      "geometry": {
        "type": "Point",
        "coordinates": [
          16.23372,
          47.93572
        ]
      },
      "properties": {
        "label": "Q64485495",
        "type": "Hydraulic structure",
        "entity": "http://www.wikidata.org/entity/Q64485495",
        "country_qid": "Q40"
      }
    },
    {
      "type": "Feature",
      "geometry": {
        "type": "Point",
        "coordinates": [
          11.70669,
          47.03756
        ]
      },
      "properties": {
        "label": "Staudamm Schlegeisspeicher",
        "type": "Hydraulic structure",
        "entity": "http://www.wikidata.org/entity/Q21877806",
        "country_qid": "Q40"
      }
    },
    {
      "type": "Feature",
      "geometry": {
        "type": "Point",
        "coordinates": [
          9.65448,
          47.27959
        ]
      },
      "properties": {
        "label": "Triftanlage an der Frutz, Rankweil",
        "type": "Hydraulic structure",
        "entity": "http://www.wikidata.org/entity/Q105646829",
        "country_qid": "Q40"
      }
    },
    {
      "type": "Feature",
      "geometry": {
        "type": "Point",
        "coordinates": [
          13.940203,
          47.648409
        ]
      },
      "properties": {
        "label": "Trift canal Kammersee - Toplitzsee",
        "type": "Hydraulic structure",
        "entity": "http://www.wikidata.org/entity/Q105647151",
        "country_qid": "Q40"
      }
    },
    {
      "type": "Feature",
      "geometry": {
        "type": "Point",
        "coordinates": [
          14.411735,
          48.040962
        ]
      },
      "properties": {
        "label": "Q105646989",
        "type": "Hydraulic structure",
        "entity": "http://www.wikidata.org/entity/Q105646989",
        "country_qid": "Q40"
      }
    },
    {
      "type": "Feature",
      "geometry": {
        "type": "Point",
        "coordinates": [
          13.083666666,
          47.73
        ]
      },
      "properties": {
        "label": "Puchhamerkanal",
        "type": "Hydraulic structure",
        "entity": "http://www.wikidata.org/entity/Q130223979",
        "country_qid": "Q40"
      }
    },
    {
      "type": "Feature",
      "geometry": {
        "type": "Point",
        "coordinates": [
          12.0619,
          47.1208
        ]
      },
      "properties": {
        "label": "Zillergründl Dam",
        "type": "Hydraulic structure",
        "entity": "http://www.wikidata.org/entity/Q8071913",
        "country_qid": "Q40"
      }
    },
    {
      "type": "Feature",
      "geometry": {
        "type": "Point",
        "coordinates": [
          15.230382,
          47.402348
        ]
      },
      "properties": {
        "label": "Wehranlage Oberaich",
        "type": "Hydraulic structure",
        "entity": "http://www.wikidata.org/entity/Q106995602",
        "country_qid": "Q40"
      }
    },
    {
      "type": "Feature",
      "geometry": {
        "type": "Point",
        "coordinates": [
          16.2515,
          47.98333
        ]
      },
      "properties": {
        "label": "Q64485497",
        "type": "Hydraulic structure",
        "entity": "http://www.wikidata.org/entity/Q64485497",
        "country_qid": "Q40"
      }
    },
    {
      "type": "Feature",
      "geometry": {
        "type": "Point",
        "coordinates": [
          9.631056,
          47.36904
        ]
      },
      "properties": {
        "label": "Lustenau Channel",
        "type": "Hydraulic structure",
        "entity": "http://www.wikidata.org/entity/Q124663835",
        "country_qid": "Q40"
      }
    },
    {
      "type": "Feature",
      "geometry": {
        "type": "Point",
        "coordinates": [
          16.28146,
          48.02587
        ]
      },
      "properties": {
        "label": "Q64485503",
        "type": "Hydraulic structure",
        "entity": "http://www.wikidata.org/entity/Q64485503",
        "country_qid": "Q40"
      }
    },
    {
      "type": "Feature",
      "geometry": {
        "type": "Point",
        "coordinates": [
          16.0314,
          48.10695
        ]
      },
      "properties": {
        "label": "Hainbachklause, Klausen-Leopoldsdorf",
        "type": "Hydraulic structure",
        "entity": "http://www.wikidata.org/entity/Q57975732",
        "country_qid": "Q40"
      }
    },
    {
      "type": "Feature",
      "geometry": {
        "type": "Point",
        "coordinates": [
          15.337506,
          47.129503
        ]
      },
      "properties": {
        "label": "Triebwasserkanal Leykam II",
        "type": "Hydraulic structure",
        "entity": "http://www.wikidata.org/entity/Q104025841",
        "country_qid": "Q40"
      }
    },
    {
      "type": "Feature",
      "geometry": {
        "type": "Point",
        "coordinates": [
          12.72473,
          47.16751
        ]
      },
      "properties": {
        "label": "Staudamm Moserboden",
        "type": "Hydraulic structure",
        "entity": "http://www.wikidata.org/entity/Q21877805",
        "country_qid": "Q40"
      }
    },
    {
      "type": "Feature",
      "geometry": {
        "type": "Point",
        "coordinates": [
          16.235,
          48.716388888
        ]
      },
      "properties": {
        "label": "Schütteich",
        "type": "Hydraulic structure",
        "entity": "http://www.wikidata.org/entity/Q21875563",
        "country_qid": "Q40"
      }
    },
    {
      "type": "Feature",
      "geometry": {
        "type": "Point",
        "coordinates": [
          16.10479,
          47.39686
        ]
      },
      "properties": {
        "label": "Pinka-Werkskanal",
        "type": "Hydraulic structure",
        "entity": "http://www.wikidata.org/entity/Q107260870",
        "country_qid": "Q40"
      }
    },
    {
      "type": "Feature",
      "geometry": {
        "type": "Point",
        "coordinates": [
          15.312295,
          47.158245
        ]
      },
      "properties": {
        "label": "Holzriese",
        "type": "Hydraulic structure",
        "entity": "http://www.wikidata.org/entity/Q131340991",
        "country_qid": "Q40"
      }
    },
    {
      "type": "Feature",
      "geometry": {
        "type": "Point",
        "coordinates": [
          16.29889,
          47.81353
        ]
      },
      "properties": {
        "label": "Q64485513",
        "type": "Hydraulic structure",
        "entity": "http://www.wikidata.org/entity/Q64485513",
        "country_qid": "Q40"
      }
    },
    {
      "type": "Feature",
      "geometry": {
        "type": "Point",
        "coordinates": [
          16.267,
          47.829
        ]
      },
      "properties": {
        "label": "Kehrbach",
        "type": "Hydraulic structure",
        "entity": "http://www.wikidata.org/entity/Q1737854",
        "country_qid": "Q40"
      }
    },
    {
      "type": "Feature",
      "geometry": {
        "type": "Point",
        "coordinates": [
          16.26504,
          47.90759
        ]
      },
      "properties": {
        "label": "Q64485516",
        "type": "Hydraulic structure",
        "entity": "http://www.wikidata.org/entity/Q64485516",
        "country_qid": "Q40"
      }
    },
    {
      "type": "Feature",
      "geometry": {
        "type": "Point",
        "coordinates": [
          13.812679,
          48.207049
        ]
      },
      "properties": {
        "label": "Wehranlage Gallspach",
        "type": "Hydraulic structure",
        "entity": "http://www.wikidata.org/entity/Q38185180",
        "country_qid": "Q40"
      }
    },
    {
      "type": "Feature",
      "geometry": {
        "type": "Point",
        "coordinates": [
          16.3497,
          48.0753
        ]
      },
      "properties": {
        "label": "Wiener Neustadt Canal",
        "type": "Hydraulic structure",
        "entity": "http://www.wikidata.org/entity/Q874341",
        "country_qid": "Q40"
      }
    },
    {
      "type": "Feature",
      "geometry": {
        "type": "Point",
        "coordinates": [
          16.25282,
          47.91762
        ]
      },
      "properties": {
        "label": "Q64485501",
        "type": "Hydraulic structure",
        "entity": "http://www.wikidata.org/entity/Q64485501",
        "country_qid": "Q40"
      }
    },
    {
      "type": "Feature",
      "geometry": {
        "type": "Point",
        "coordinates": [
          16.293027,
          48.037888
        ]
      },
      "properties": {
        "label": "Q64485509",
        "type": "Hydraulic structure",
        "entity": "http://www.wikidata.org/entity/Q64485509",
        "country_qid": "Q40"
      }
    },
    {
      "type": "Feature",
      "geometry": {
        "type": "Point",
        "coordinates": [
          15.534001,
          48.096735
        ]
      },
      "properties": {
        "label": "Aigelsbachdüker (EK 74, AK 75), Rohrbrücke",
        "type": "Hydraulic structure",
        "entity": "http://www.wikidata.org/entity/Q37825573",
        "country_qid": "Q40"
      }
    },
    {
      "type": "Feature",
      "geometry": {
        "type": "Point",
        "coordinates": [
          16.339166666,
          48.716944444
        ]
      },
      "properties": {
        "label": "Neusiedler Damm",
        "type": "Hydraulic structure",
        "entity": "http://www.wikidata.org/entity/Q21875374",
        "country_qid": "Q40"
      }
    },
    {
      "type": "Feature",
      "geometry": {
        "type": "Point",
        "coordinates": [
          11.02226,
          47.19908
        ]
      },
      "properties": {
        "label": "Finstertal Staudamm",
        "type": "Hydraulic structure",
        "entity": "http://www.wikidata.org/entity/Q21877807",
        "country_qid": "Q40"
      }
    },
    {
      "type": "Feature",
      "geometry": {
        "type": "Point",
        "coordinates": [
          14.41955,
          48.042669444
        ]
      },
      "properties": {
        "label": "Heindlmühlwehr",
        "type": "Hydraulic structure",
        "entity": "http://www.wikidata.org/entity/Q107088096",
        "country_qid": "Q40"
      }
    },
    {
      "type": "Feature",
      "geometry": {
        "type": "Point",
        "coordinates": [
          16.478044,
          48.176425
        ]
      },
      "properties": {
        "label": "Freudenau lock",
        "type": "Hydraulic structure",
        "entity": "http://www.wikidata.org/entity/Q127963205",
        "country_qid": "Q40"
      }
    },
    {
      "type": "Feature",
      "geometry": {
        "type": "Point",
        "coordinates": [
          10.86261903,
          47.2340535
        ]
      },
      "properties": {
        "label": "Q96481417",
        "type": "Hydraulic structure",
        "entity": "http://www.wikidata.org/entity/Q96481417",
        "country_qid": "Q40"
      }
    },
    {
      "type": "Feature",
      "geometry": {
        "type": "Point",
        "coordinates": [
          16.291667,
          48.346111
        ]
      },
      "properties": {
        "label": "Klosterneuburger Durchstich",
        "type": "Hydraulic structure",
        "entity": "http://www.wikidata.org/entity/Q23689395",
        "country_qid": "Q40"
      }
    },
    {
      "type": "Feature",
      "geometry": {
        "type": "Point",
        "coordinates": [
          14.421491666,
          48.042483333
        ]
      },
      "properties": {
        "label": "Spitalmühlwehr",
        "type": "Hydraulic structure",
        "entity": "http://www.wikidata.org/entity/Q107088347",
        "country_qid": "Q40"
      }
    },
    {
      "type": "Feature",
      "geometry": {
        "type": "Point",
        "coordinates": [
          16.902777777,
          48.208333333
        ]
      },
      "properties": {
        "label": "Breitenseer Kanal",
        "type": "Hydraulic structure",
        "entity": "http://www.wikidata.org/entity/Q21879132",
        "country_qid": "Q40"
      }
    },
    {
      "type": "Feature",
      "geometry": {
        "type": "Point",
        "coordinates": [
          16.207222222,
          48.719722222
        ]
      },
      "properties": {
        "label": "Sulzteich",
        "type": "Hydraulic structure",
        "entity": "http://www.wikidata.org/entity/Q21875556",
        "country_qid": "Q40"
      }
    },
    {
      "type": "Feature",
      "geometry": {
        "type": "Point",
        "coordinates": [
          13.865828,
          47.552373
        ]
      },
      "properties": {
        "label": "Riedlbach-Klause",
        "type": "Hydraulic structure",
        "entity": "http://www.wikidata.org/entity/Q37798755",
        "country_qid": "Q40"
      }
    },
    {
      "type": "Feature",
      "geometry": {
        "type": "Point",
        "coordinates": [
          16.560833333,
          48.193055555
        ]
      },
      "properties": {
        "label": "Projektierter Donau-Oder-Kanal",
        "type": "Hydraulic structure",
        "entity": "http://www.wikidata.org/entity/Q21875112",
        "country_qid": "Q40"
      }
    },
    {
      "type": "Feature",
      "geometry": {
        "type": "Point",
        "coordinates": [
          17.094722222,
          47.707777777
        ]
      },
      "properties": {
        "label": "Torfkanal",
        "type": "Hydraulic structure",
        "entity": "http://www.wikidata.org/entity/Q21879091",
        "country_qid": "Q40"
      }
    },
    {
      "type": "Feature",
      "geometry": {
        "type": "Point",
        "coordinates": [
          9.746891,
          47.293946
        ]
      },
      "properties": {
        "label": "Q37728085",
        "type": "Hydraulic structure",
        "entity": "http://www.wikidata.org/entity/Q37728085",
        "country_qid": "Q40"
      }
    },
    {
      "type": "Feature",
      "geometry": {
        "type": "Point",
        "coordinates": [
          13.210459,
          47.441296
        ]
      },
      "properties": {
        "label": "Kreuzbergmaut Hydroelectric Power Station",
        "type": "Hydraulic structure",
        "entity": "http://www.wikidata.org/entity/Q26834581",
        "country_qid": "Q40"
      }
    },
    {
      "type": "Feature",
      "geometry": {
        "type": "Point",
        "coordinates": [
          16.81667,
          47.66667
        ]
      },
      "properties": {
        "label": "Einser Kanal",
        "type": "Hydraulic structure",
        "entity": "http://www.wikidata.org/entity/Q21873160",
        "country_qid": "Q40"
      }
    },
    {
      "type": "Feature",
      "geometry": {
        "type": "Point",
        "coordinates": [
          14.265825,
          47.971361111
        ]
      },
      "properties": {
        "label": "Q113111154",
        "type": "Hydraulic structure",
        "entity": "http://www.wikidata.org/entity/Q113111154",
        "country_qid": "Q40"
      }
    },
    {
      "type": "Feature",
      "geometry": {
        "type": "Point",
        "coordinates": [
          16.280472,
          47.856525
        ]
      },
      "properties": {
        "label": "Q64485515",
        "type": "Hydraulic structure",
        "entity": "http://www.wikidata.org/entity/Q64485515",
        "country_qid": "Q40"
      }
    },
    {
      "type": "Feature",
      "geometry": {
        "type": "Point",
        "coordinates": [
          15.88215,
          46.95443
        ]
      },
      "properties": {
        "label": "Q38109109",
        "type": "Hydraulic structure",
        "entity": "http://www.wikidata.org/entity/Q38109109",
        "country_qid": "Q40"
      }
    },
    {
      "type": "Feature",
      "geometry": {
        "type": "Point",
        "coordinates": [
          12.590581,
          47.648249
        ]
      },
      "properties": {
        "label": "Q37972158",
        "type": "Hydraulic structure",
        "entity": "http://www.wikidata.org/entity/Q37972158",
        "country_qid": "Q40"
      }
    },
    {
      "type": "Feature",
      "geometry": {
        "type": "Point",
        "coordinates": [
          14.443611111,
          47.746666666
        ]
      },
      "properties": {
        "label": "Sitzenbacher Klause",
        "type": "Hydraulic structure",
        "entity": "http://www.wikidata.org/entity/Q21858329",
        "country_qid": "Q40"
      }
    },
    {
      "type": "Feature",
      "geometry": {
        "type": "Point",
        "coordinates": [
          16.461,
          48.193
        ]
      },
      "properties": {
        "label": "Vienna Watersports Arena",
        "type": "Hydraulic structure",
        "entity": "http://www.wikidata.org/entity/Q18359065",
        "country_qid": "Q40"
      }
    },
    {
      "type": "Feature",
      "geometry": {
        "type": "Point",
        "coordinates": [
          9.716151,
          47.447524
        ]
      },
      "properties": {
        "label": "Fußenau Channel",
        "type": "Hydraulic structure",
        "entity": "http://www.wikidata.org/entity/Q44472562",
        "country_qid": "Q40"
      }
    },
    {
      "type": "Feature",
      "geometry": {
        "type": "Point",
        "coordinates": [
          16.23643,
          47.95099
        ]
      },
      "properties": {
        "label": "Q64485488",
        "type": "Hydraulic structure",
        "entity": "http://www.wikidata.org/entity/Q64485488",
        "country_qid": "Q40"
      }
    },
    {
      "type": "Feature",
      "geometry": {
        "type": "Point",
        "coordinates": [
          16.4475,
          48.3044
        ]
      },
      "properties": {
        "label": "Marchfeldkanal",
        "type": "Hydraulic structure",
        "entity": "http://www.wikidata.org/entity/Q1893474",
        "country_qid": "Q40"
      }
    },
    {
      "type": "Feature",
      "geometry": {
        "type": "Point",
        "coordinates": [
          9.69347,
          47.4511
        ]
      },
      "properties": {
        "label": "Vorarlberger Rheintalbinnenkanal",
        "type": "Hydraulic structure",
        "entity": "http://www.wikidata.org/entity/Q2533534",
        "country_qid": "Q40"
      }
    },
    {
      "type": "Feature",
      "geometry": {
        "type": "Point",
        "coordinates": [
          15.1529,
          47.6585
        ]
      },
      "properties": {
        "label": "Prescenyklause",
        "type": "Hydraulic structure",
        "entity": "http://www.wikidata.org/entity/Q2108791",
        "country_qid": "Q40"
      }
    },
    {
      "type": "Feature",
      "geometry": {
        "type": "Point",
        "coordinates": [
          15.499978,
          46.942966
        ]
      },
      "properties": {
        "label": "Mühlgang, Graz",
        "type": "Hydraulic structure",
        "entity": "http://www.wikidata.org/entity/Q1544108",
        "country_qid": "Q40"
      }
    },
    {
      "type": "Feature",
      "geometry": {
        "type": "Point",
        "coordinates": [
          16.27129,
          48.01503
        ]
      },
      "properties": {
        "label": "Q64485499",
        "type": "Hydraulic structure",
        "entity": "http://www.wikidata.org/entity/Q64485499",
        "country_qid": "Q40"
      }
    },
    {
      "type": "Feature",
      "geometry": {
        "type": "Point",
        "coordinates": [
          15.307411,
          47.374447
        ]
      },
      "properties": {
        "label": "Wehranlage Zlatten",
        "type": "Hydraulic structure",
        "entity": "http://www.wikidata.org/entity/Q116969948",
        "country_qid": "Q40"
      }
    },
    {
      "type": "Feature",
      "geometry": {
        "type": "Point",
        "coordinates": [
          16.82416667,
          47.67722222
        ]
      },
      "properties": {
        "label": "Einser-Kanal",
        "type": "Hydraulic structure",
        "entity": "http://www.wikidata.org/entity/Q179423",
        "country_qid": "Q40"
      }
    },
    {
      "type": "Feature",
      "geometry": {
        "type": "Point",
        "coordinates": [
          14.797828,
          47.217183
        ]
      },
      "properties": {
        "label": "Q38102691",
        "type": "Hydraulic structure",
        "entity": "http://www.wikidata.org/entity/Q38102691",
        "country_qid": "Q40"
      }
    },
    {
      "type": "Feature",
      "geometry": {
        "type": "Point",
        "coordinates": [
          12.720079913,
          47.167619361
        ]
      },
      "properties": {
        "label": "Q2885166",
        "type": "Hydraulic structure",
        "entity": "http://www.wikidata.org/entity/Q2885166",
        "country_qid": "Q40"
      }
    },
    {
      "type": "Feature",
      "geometry": {
        "type": "Point",
        "coordinates": [
          14.032207,
          47.863378
        ]
      },
      "properties": {
        "label": "Q37766264",
        "type": "Hydraulic structure",
        "entity": "http://www.wikidata.org/entity/Q37766264",
        "country_qid": "Q40"
      }
    },
    {
      "type": "Feature",
      "geometry": {
        "type": "Point",
        "coordinates": [
          15.356178,
          47.331839
        ]
      },
      "properties": {
        "label": "Q114842187",
        "type": "Hydraulic structure",
        "entity": "http://www.wikidata.org/entity/Q114842187",
        "country_qid": "Q40"
      }
    },
    {
      "type": "Feature",
      "geometry": {
        "type": "Point",
        "coordinates": [
          16.3799,
          48.2035
        ]
      },
      "properties": {
        "label": "Q1500204",
        "type": "Hydraulic structure",
        "entity": "http://www.wikidata.org/entity/Q1500204",
        "country_qid": "Q40"
      }
    },
    {
      "type": "Feature",
      "geometry": {
        "type": "Point",
        "coordinates": [
          16.277003,
          47.894304
        ]
      },
      "properties": {
        "label": "Q64485511",
        "type": "Hydraulic structure",
        "entity": "http://www.wikidata.org/entity/Q64485511",
        "country_qid": "Q40"
      }
    },
    {
      "type": "Feature",
      "geometry": {
        "type": "Point",
        "coordinates": [
          15.85042,
          47.7155
        ]
      },
      "properties": {
        "label": "Q38125789",
        "type": "Hydraulic structure",
        "entity": "http://www.wikidata.org/entity/Q38125789",
        "country_qid": "Q40"
      }
    },
    {
      "type": "Feature",
      "geometry": {
        "type": "Point",
        "coordinates": [
          16.369167,
          48.259167
        ]
      },
      "properties": {
        "label": "Schleuse der Nußdorfer Wehr- und Schleusenanlage",
        "type": "Hydraulic structure",
        "entity": "http://www.wikidata.org/entity/Q64764960",
        "country_qid": "Q40"
      }
    },
    {
      "type": "Feature",
      "geometry": {
        "type": "Point",
        "coordinates": [
          16.3692,
          48.2592
        ]
      },
      "properties": {
        "label": "Nußdorf weir and lock",
        "type": "Hydraulic structure",
        "entity": "http://www.wikidata.org/entity/Q2005525",
        "country_qid": "Q40"
      }
    },
    {
      "type": "Feature",
      "geometry": {
        "type": "Point",
        "coordinates": [
          16.240872,
          48.35208
        ]
      },
      "properties": {
        "label": "Greifenstein lock",
        "type": "Hydraulic structure",
        "entity": "http://www.wikidata.org/entity/Q127973135",
        "country_qid": "Q40"
      }
    },
    {
      "type": "Feature",
      "geometry": {
        "type": "Point",
        "coordinates": [
          16.3692,
          48.2592
        ]
      },
      "properties": {
        "label": "Schemerlbrücke",
        "type": "Hydraulic structure",
        "entity": "http://www.wikidata.org/entity/Q108806321",
        "country_qid": "Q40"
      }
    },
    {
      "type": "Feature",
      "geometry": {
        "type": "Point",
        "coordinates": [
          16.363888888,
          48.048333333
        ]
      },
      "properties": {
        "label": "Triestingkanal",
        "type": "Hydraulic structure",
        "entity": "http://www.wikidata.org/entity/Q21875137",
        "country_qid": "Q40"
      }
    },
    {
      "type": "Feature",
      "geometry": {
        "type": "Point",
        "coordinates": [
          15.806022,
          47.713385
        ]
      },
      "properties": {
        "label": "Wehranlage Schwarza, Hirschwang",
        "type": "Hydraulic structure",
        "entity": "http://www.wikidata.org/entity/Q64765526",
        "country_qid": "Q40"
      }
    },
    {
      "type": "Feature",
      "geometry": {
        "type": "Point",
        "coordinates": [
          16.26249,
          48.00543
        ]
      },
      "properties": {
        "label": "Q64485505",
        "type": "Hydraulic structure",
        "entity": "http://www.wikidata.org/entity/Q64485505",
        "country_qid": "Q40"
      }
    },
    {
      "type": "Feature",
      "geometry": {
        "type": "Point",
        "coordinates": [
          13.898814,
          46.644175
        ]
      },
      "properties": {
        "label": "Burg Landskron - aqueduct",
        "type": "Hydraulic structure",
        "entity": "http://www.wikidata.org/entity/Q105646737",
        "country_qid": "Q40"
      }
    },
    {
      "type": "Feature",
      "geometry": {
        "type": "Point",
        "coordinates": [
          16.295755,
          48.189533
        ]
      },
      "properties": {
        "label": "Q37826696",
        "type": "Hydraulic structure",
        "entity": "http://www.wikidata.org/entity/Q37826696",
        "country_qid": "Q40"
      }
    },
    {
      "type": "Feature",
      "geometry": {
        "type": "Point",
        "coordinates": [
          9.744142,
          47.530191
        ]
      },
      "properties": {
        "label": "Hafen am Bäumle (port)",
        "type": "Hydraulic structure",
        "entity": "http://www.wikidata.org/entity/Q86438809",
        "country_qid": "Q40"
      }
    },
    {
      "type": "Feature",
      "geometry": {
        "type": "Point",
        "coordinates": [
          16.36694,
          48.244382
        ]
      },
      "properties": {
        "label": "Q37826541",
        "type": "Hydraulic structure",
        "entity": "http://www.wikidata.org/entity/Q37826541",
        "country_qid": "Q40"
      }
    },
    {
      "type": "Feature",
      "geometry": {
        "type": "Point",
        "coordinates": [
          14.04167,
          48.65472
        ]
      },
      "properties": {
        "label": "Schwarzenberg Canal",
        "type": "Hydraulic structure",
        "entity": "http://www.wikidata.org/entity/Q338691",
        "country_qid": "Q40"
      }
    },
    {
      "type": "Feature",
      "geometry": {
        "type": "Point",
        "coordinates": [
          16.334657,
          48.18493
        ]
      },
      "properties": {
        "label": "Q37826754",
        "type": "Hydraulic structure",
        "entity": "http://www.wikidata.org/entity/Q37826754",
        "country_qid": "Q40"
      }
    },
    {
      "type": "Feature",
      "geometry": {
        "type": "Point",
        "coordinates": [
          15.67552,
          48.1452
        ]
      },
      "properties": {
        "label": "Kanalbrücke Reichebner, II HQL, Pyhra",
        "type": "Hydraulic structure",
        "entity": "http://www.wikidata.org/entity/Q37825806",
        "country_qid": "Q40"
      }
    },
    {
      "type": "Feature",
      "geometry": {
        "type": "Point",
        "coordinates": [
          16.7712,
          47.9166
        ]
      },
      "properties": {
        "label": "Yachthafen Breitenbrunn",
        "type": "Hydraulic structure",
        "entity": "http://www.wikidata.org/entity/Q113666152",
        "country_qid": "Q40"
      }
    },
    {
      "type": "Feature",
      "geometry": {
        "type": "Point",
        "coordinates": [
          15.31149,
          48.06665
        ]
      },
      "properties": {
        "label": "Q113565047",
        "type": "Hydraulic structure",
        "entity": "http://www.wikidata.org/entity/Q113565047",
        "country_qid": "Q40"
      }
    },
    {
      "type": "Feature",
      "geometry": {
        "type": "Point",
        "coordinates": [
          10.773888888,
          47.060555555
        ]
      },
      "properties": {
        "label": "Kaunerberger Hangkanal",
        "type": "Hydraulic structure",
        "entity": "http://www.wikidata.org/entity/Q57837647",
        "country_qid": "Q40"
      }
    },
    {
      "type": "Feature",
      "geometry": {
        "type": "Point",
        "coordinates": [
          13.631972,
          47.610512
        ]
      },
      "properties": {
        "label": "Q64765110",
        "type": "Hydraulic structure",
        "entity": "http://www.wikidata.org/entity/Q64765110",
        "country_qid": "Q40"
      }
    },
    {
      "type": "Feature",
      "geometry": {
        "type": "Point",
        "coordinates": [
          13.631972,
          47.610512
        ]
      },
      "properties": {
        "label": "Q64765109",
        "type": "Hydraulic structure",
        "entity": "http://www.wikidata.org/entity/Q64765109",
        "country_qid": "Q40"
      }
    },
    {
      "type": "Feature",
      "geometry": {
        "type": "Point",
        "coordinates": [
          16.304682,
          48.187727
        ]
      },
      "properties": {
        "label": "Q37826705",
        "type": "Hydraulic structure",
        "entity": "http://www.wikidata.org/entity/Q37826705",
        "country_qid": "Q40"
      }
    },
    {
      "type": "Feature",
      "geometry": {
        "type": "Point",
        "coordinates": [
          15.77002,
          48.14757
        ]
      },
      "properties": {
        "label": "Q37825862",
        "type": "Hydraulic structure",
        "entity": "http://www.wikidata.org/entity/Q37825862",
        "country_qid": "Q40"
      }
    },
    {
      "type": "Feature",
      "geometry": {
        "type": "Point",
        "coordinates": [
          15.304,
          48.2245
        ]
      },
      "properties": {
        "label": "Melk power station dam",
        "type": "Hydraulic structure",
        "entity": "http://www.wikidata.org/entity/Q120599863",
        "country_qid": "Q40"
      }
    },
    {
      "type": "Feature",
      "geometry": {
        "type": "Point",
        "coordinates": [
          16.2136,
          48.0064
        ]
      },
      "properties": {
        "label": "Baden Aqueduct",
        "type": "Hydraulic structure",
        "entity": "http://www.wikidata.org/entity/Q623393",
        "country_qid": "Q40"
      }
    },
    {
      "type": "Feature",
      "geometry": {
        "type": "Point",
        "coordinates": [
          15.66707,
          48.14006
        ]
      },
      "properties": {
        "label": "Kanalbrücke Kessel, II HQL, Pyhra",
        "type": "Hydraulic structure",
        "entity": "http://www.wikidata.org/entity/Q113565075",
        "country_qid": "Q40"
      }
    },
    {
      "type": "Feature",
      "geometry": {
        "type": "Point",
        "coordinates": [
          16.383993,
          48.209359
        ]
      },
      "properties": {
        "label": "Q37826614",
        "type": "Hydraulic structure",
        "entity": "http://www.wikidata.org/entity/Q37826614",
        "country_qid": "Q40"
      }
    },
    {
      "type": "Feature",
      "geometry": {
        "type": "Point",
        "coordinates": [
          16.350297,
          48.189683
        ]
      },
      "properties": {
        "label": "Q37826641",
        "type": "Hydraulic structure",
        "entity": "http://www.wikidata.org/entity/Q37826641",
        "country_qid": "Q40"
      }
    },
    {
      "type": "Feature",
      "geometry": {
        "type": "Point",
        "coordinates": [
          16.468228,
          48.178118
        ]
      },
      "properties": {
        "label": "Hafen Freudenau",
        "type": "Hydraulic structure",
        "entity": "http://www.wikidata.org/entity/Q54948315",
        "country_qid": "Q40"
      }
    },
    {
      "type": "Feature",
      "geometry": {
        "type": "Point",
        "coordinates": [
          16.380261182,
          48.20369291
        ]
      },
      "properties": {
        "label": "Q37826624",
        "type": "Hydraulic structure",
        "entity": "http://www.wikidata.org/entity/Q37826624",
        "country_qid": "Q40"
      }
    },
    {
      "type": "Feature",
      "geometry": {
        "type": "Point",
        "coordinates": [
          16.286206,
          48.191295
        ]
      },
      "properties": {
        "label": "Q37826715",
        "type": "Hydraulic structure",
        "entity": "http://www.wikidata.org/entity/Q37826715",
        "country_qid": "Q40"
      }
    },
    {
      "type": "Feature",
      "geometry": {
        "type": "Point",
        "coordinates": [
          16.396738,
          48.206544
        ]
      },
      "properties": {
        "label": "infrastructure for regulation of the Donaukanal in Vienna's third district",
        "type": "Hydraulic structure",
        "entity": "http://www.wikidata.org/entity/Q37826604",
        "country_qid": "Q40"
      }
    },
    {
      "type": "Feature",
      "geometry": {
        "type": "Point",
        "coordinates": [
          16.213705,
          48.209579
        ]
      },
      "properties": {
        "label": "Q37826725",
        "type": "Hydraulic structure",
        "entity": "http://www.wikidata.org/entity/Q37826725",
        "country_qid": "Q40"
      }
    },
    {
      "type": "Feature",
      "geometry": {
        "type": "Point",
        "coordinates": [
          16.364014,
          48.239541
        ]
      },
      "properties": {
        "label": "Q37826514",
        "type": "Hydraulic structure",
        "entity": "http://www.wikidata.org/entity/Q37826514",
        "country_qid": "Q40"
      }
    },
    {
      "type": "Feature",
      "geometry": {
        "type": "Point",
        "coordinates": [
          16.368445,
          48.260509
        ]
      },
      "properties": {
        "label": "Q37826530",
        "type": "Hydraulic structure",
        "entity": "http://www.wikidata.org/entity/Q37826530",
        "country_qid": "Q40"
      }
    },
    {
      "type": "Feature",
      "geometry": {
        "type": "Point",
        "coordinates": [
          16.370178,
          48.200447
        ]
      },
      "properties": {
        "label": "Q37826650",
        "type": "Hydraulic structure",
        "entity": "http://www.wikidata.org/entity/Q37826650",
        "country_qid": "Q40"
      }
    },
    {
      "type": "Feature",
      "geometry": {
        "type": "Point",
        "coordinates": [
          16.385168,
          48.211938
        ]
      },
      "properties": {
        "label": "Q37832263",
        "type": "Hydraulic structure",
        "entity": "http://www.wikidata.org/entity/Q37832263",
        "country_qid": "Q40"
      }
    },
    {
      "type": "Feature",
      "geometry": {
        "type": "Point",
        "coordinates": [
          16.235831,
          48.204413
        ]
      },
      "properties": {
        "label": "Q37826660",
        "type": "Hydraulic structure",
        "entity": "http://www.wikidata.org/entity/Q37826660",
        "country_qid": "Q40"
      }
    },
    {
      "type": "Feature",
      "geometry": {
        "type": "Point",
        "coordinates": [
          16.375278,
          48.213056
        ]
      },
      "properties": {
        "label": "Q37826595",
        "type": "Hydraulic structure",
        "entity": "http://www.wikidata.org/entity/Q37826595",
        "country_qid": "Q40"
      }
    },
    {
      "type": "Feature",
      "geometry": {
        "type": "Point",
        "coordinates": [
          15.54275,
          48.10391
        ]
      },
      "properties": {
        "label": "Kanalbrücken Mühlhofen",
        "type": "Hydraulic structure",
        "entity": "http://www.wikidata.org/entity/Q37825583",
        "country_qid": "Q40"
      }
    },
    {
      "type": "Feature",
      "geometry": {
        "type": "Point",
        "coordinates": [
          15.55099,
          48.10581
        ]
      },
      "properties": {
        "label": "Kanalbrücke Im Tanne",
        "type": "Hydraulic structure",
        "entity": "http://www.wikidata.org/entity/Q113565011",
        "country_qid": "Q40"
      }
    },
    {
      "type": "Feature",
      "geometry": {
        "type": "Point",
        "coordinates": [
          16.261138,
          48.196231
        ]
      },
      "properties": {
        "label": "Q37826687",
        "type": "Hydraulic structure",
        "entity": "http://www.wikidata.org/entity/Q37826687",
        "country_qid": "Q40"
      }
    },
    {
      "type": "Feature",
      "geometry": {
        "type": "Point",
        "coordinates": [
          16.270407,
          48.192931
        ]
      },
      "properties": {
        "label": "Q64026644",
        "type": "Hydraulic structure",
        "entity": "http://www.wikidata.org/entity/Q64026644",
        "country_qid": "Q40"
      }
    },
    {
      "type": "Feature",
      "geometry": {
        "type": "Point",
        "coordinates": [
          16.367869,
          48.220404
        ]
      },
      "properties": {
        "label": "Q37826572",
        "type": "Hydraulic structure",
        "entity": "http://www.wikidata.org/entity/Q37826572",
        "country_qid": "Q40"
      }
    },
    {
      "type": "Feature",
      "geometry": {
        "type": "Point",
        "coordinates": [
          14.3218,
          48.3074
        ]
      },
      "properties": {
        "label": "Linz port",
        "type": "Hydraulic structure",
        "entity": "http://www.wikidata.org/entity/Q20055110",
        "country_qid": "Q40"
      }
    },
    {
      "type": "Feature",
      "geometry": {
        "type": "Point",
        "coordinates": [
          16.316798,
          48.18687
        ]
      },
      "properties": {
        "label": "Q37826746",
        "type": "Hydraulic structure",
        "entity": "http://www.wikidata.org/entity/Q37826746",
        "country_qid": "Q40"
      }
    },
    {
      "type": "Feature",
      "geometry": {
        "type": "Point",
        "coordinates": [
          15.17289,
          48.00472
        ]
      },
      "properties": {
        "label": "Q37825192",
        "type": "Hydraulic structure",
        "entity": "http://www.wikidata.org/entity/Q37825192",
        "country_qid": "Q40"
      }
    },
    {
      "type": "Feature",
      "geometry": {
        "type": "Point",
        "coordinates": [
          15.40565,
          48.08103
        ]
      },
      "properties": {
        "label": "Kanalbrücke Teufelsbach Kilb",
        "type": "Hydraulic structure",
        "entity": "http://www.wikidata.org/entity/Q113565039",
        "country_qid": "Q40"
      }
    },
    {
      "type": "Feature",
      "geometry": {
        "type": "Point",
        "coordinates": [
          16.247295,
          48.201413
        ]
      },
      "properties": {
        "label": "Q37826667",
        "type": "Hydraulic structure",
        "entity": "http://www.wikidata.org/entity/Q37826667",
        "country_qid": "Q40"
      }
    },
    {
      "type": "Feature",
      "geometry": {
        "type": "Point",
        "coordinates": [
          15.68736,
          48.14572
        ]
      },
      "properties": {
        "label": "Kanalbrücke Geißelhofer",
        "type": "Hydraulic structure",
        "entity": "http://www.wikidata.org/entity/Q113565093",
        "country_qid": "Q40"
      }
    },
    {
      "type": "Feature",
      "geometry": {
        "type": "Point",
        "coordinates": [
          16.378051,
          48.212611
        ]
      },
      "properties": {
        "label": "Q37826584",
        "type": "Hydraulic structure",
        "entity": "http://www.wikidata.org/entity/Q37826584",
        "country_qid": "Q40"
      }
    },
    {
      "type": "Feature",
      "geometry": {
        "type": "Point",
        "coordinates": [
          16.247481,
          47.859631
        ]
      },
      "properties": {
        "label": "Tirolerbach",
        "type": "Hydraulic structure",
        "entity": "http://www.wikidata.org/entity/Q2436322",
        "country_qid": "Q40"
      }
    },
    {
      "type": "Feature",
      "geometry": {
        "type": "Point",
        "coordinates": [
          15.0703,
          48.1903
        ]
      },
      "properties": {
        "label": "Persenbeug Dam",
        "type": "Hydraulic structure",
        "entity": "http://www.wikidata.org/entity/Q120599796",
        "country_qid": "Q40"
      }
    },
    {
      "type": "Feature",
      "geometry": {
        "type": "Point",
        "coordinates": [
          16.270222,
          48.192959
        ]
      },
      "properties": {
        "label": "Q37826677",
        "type": "Hydraulic structure",
        "entity": "http://www.wikidata.org/entity/Q37826677",
        "country_qid": "Q40"
      }
    },
    {
      "type": "Feature",
      "geometry": {
        "type": "Point",
        "coordinates": [
          16.1985,
          48.15484
        ]
      },
      "properties": {
        "label": "Kanalbrücke (Lainzer Tiergarten)",
        "type": "Hydraulic structure",
        "entity": "http://www.wikidata.org/entity/Q37826077",
        "country_qid": "Q40"
      }
    },
    {
      "type": "Feature",
      "geometry": {
        "type": "Point",
        "coordinates": [
          15.77438,
          48.14639
        ]
      },
      "properties": {
        "label": "Kanalbrücke Lielach",
        "type": "Hydraulic structure",
        "entity": "http://www.wikidata.org/entity/Q37825863",
        "country_qid": "Q40"
      }
    },
    {
      "type": "Feature",
      "geometry": {
        "type": "Point",
        "coordinates": [
          16.351219,
          48.189639
        ]
      },
      "properties": {
        "label": "Q37826632",
        "type": "Hydraulic structure",
        "entity": "http://www.wikidata.org/entity/Q37826632",
        "country_qid": "Q40"
      }
    },
    {
      "type": "Feature",
      "geometry": {
        "type": "Point",
        "coordinates": [
          16.3298,
          48.183584
        ]
      },
      "properties": {
        "label": "Q37826736",
        "type": "Hydraulic structure",
        "entity": "http://www.wikidata.org/entity/Q37826736",
        "country_qid": "Q40"
      }
    },
    {
      "type": "Feature",
      "geometry": {
        "type": "Point",
        "coordinates": [
          16.429,
          48.209
        ]
      },
      "properties": {
        "label": "Q124044407",
        "type": "Hydraulic structure",
        "entity": "http://www.wikidata.org/entity/Q124044407",
        "country_qid": "Q40"
      }
    },
    {
      "type": "Feature",
      "geometry": {
        "type": "Point",
        "coordinates": [
          14.507777777,
          48.232777777
        ]
      },
      "properties": {
        "label": "Enns harbour",
        "type": "Hydraulic structure",
        "entity": "http://www.wikidata.org/entity/Q100433961",
        "country_qid": "Q40"
      }
    }
  ]
}