{
  "type": "FeatureCollection",
  "features": [
    {
      "type": "Feature",
      "geometry": {
        "type": "Point",
        "coordinates": [
          19.14748,
          44.81642
        ]
      },
      "properties": {
        "label": "Brdnik",
        "type": "Hydraulic structure",
        "entity": "http://www.wikidata.org/entity/Q21725817",
        "country_qid": "Q225"
      }
    },
    {
      "type": "Feature",
      "geometry": {
        "type": "Point",
        "coordinates": [
          18.421111111,
          45.084722222
        ]
      },
      "properties": {
        "label": "Q21742077",
        "type": "Hydraulic structure",
        "entity": "http://www.wikidata.org/entity/Q21742077",
        "country_qid": "Q225"
      }
    },
    {
      "type": "Feature",
      "geometry": {
        "type": "Point",
        "coordinates": [
          17.9925,
          45.034166666
        ]
      },
      "properties": {
        "label": "Q21741665",
        "type": "Hydraulic structure",
        "entity": "http://www.wikidata.org/entity/Q21741665",
        "country_qid": "Q225"
      }
    },
    {
      "type": "Feature",
      "geometry": {
        "type": "Point",
        "coordinates": [
          16.623611111,
          43.990555555
        ]
      },
      "properties": {
        "label": "Q21719640",
        "type": "Hydraulic structure",
        "entity": "http://www.wikidata.org/entity/Q21719640",
        "country_qid": "Q225"
      }
    },
    {
      "type": "Feature",
      "geometry": {
        "type": "Point",
        "coordinates": [
          18.577819444,
          43.173083333
        ]
      },
      "properties": {
        "label": "Klinje dam",
        "type": "Hydraulic structure",
        "entity": "http://www.wikidata.org/entity/Q61133847",
        "country_qid": "Q225"
      }
    },
    {
      "type": "Feature",
      "geometry": {
        "type": "Point",
        "coordinates": [
          17.7325,
          43.6924
        ]
      },
      "properties": {
        "label": "Jablanica Dam",
        "type": "Hydraulic structure",
        "entity": "http://www.wikidata.org/entity/Q6110227",
        "country_qid": "Q225"
      }
    },
    {
      "type": "Feature",
      "geometry": {
        "type": "Point",
        "coordinates": [
          19.10732,
          44.86958
        ]
      },
      "properties": {
        "label": "Bara Toplik",
        "type": "Hydraulic structure",
        "entity": "http://www.wikidata.org/entity/Q21727387",
        "country_qid": "Q225"
      }
    },
    {
      "type": "Feature",
      "geometry": {
        "type": "Point",
        "coordinates": [
          16.901111111,
          43.849722222
        ]
      },
      "properties": {
        "label": "Jaz",
        "type": "Hydraulic structure",
        "entity": "http://www.wikidata.org/entity/Q21736077",
        "country_qid": "Q225"
      }
    },
    {
      "type": "Feature",
      "geometry": {
        "type": "Point",
        "coordinates": [
          17.66921,
          43.74818
        ]
      },
      "properties": {
        "label": "Rama Hydroelectric Power Station",
        "type": "Hydraulic structure",
        "entity": "http://www.wikidata.org/entity/Q3438079",
        "country_qid": "Q225"
      }
    },
    {
      "type": "Feature",
      "geometry": {
        "type": "Point",
        "coordinates": [
          17.57167,
          43.79083
        ]
      },
      "properties": {
        "label": "Rama Dam",
        "type": "Hydraulic structure",
        "entity": "http://www.wikidata.org/entity/Q21744892",
        "country_qid": "Q225"
      }
    },
    {
      "type": "Feature",
      "geometry": {
        "type": "Point",
        "coordinates": [
          18.41863,
          44.88673
        ]
      },
      "properties": {
        "label": "Ist Lateralni Kanal",
        "type": "Hydraulic structure",
        "entity": "http://www.wikidata.org/entity/Q21723276",
        "country_qid": "Q225"
      }
    },
    {
      "type": "Feature",
      "geometry": {
        "type": "Point",
        "coordinates": [
          17.45472,
          43.22861
        ]
      },
      "properties": {
        "label": "Brza Voda",
        "type": "Hydraulic structure",
        "entity": "http://www.wikidata.org/entity/Q21739217",
        "country_qid": "Q225"
      }
    },
    {
      "type": "Feature",
      "geometry": {
        "type": "Point",
        "coordinates": [
          19.0744,
          44.6756
        ]
      },
      "properties": {
        "label": "Janja Kanal",
        "type": "Hydraulic structure",
        "entity": "http://www.wikidata.org/entity/Q21723468",
        "country_qid": "Q225"
      }
    },
    {
      "type": "Feature",
      "geometry": {
        "type": "Point",
        "coordinates": [
          18.38398,
          45.10513
        ]
      },
      "properties": {
        "label": "Sabirni Kanal",
        "type": "Hydraulic structure",
        "entity": "http://www.wikidata.org/entity/Q21742066",
        "country_qid": "Q225"
      }
    },
    {
      "type": "Feature",
      "geometry": {
        "type": "Point",
        "coordinates": [
          18.32,
          44.96611
        ]
      },
      "properties": {
        "label": "Zapadni Lateralni Kanal",
        "type": "Hydraulic structure",
        "entity": "http://www.wikidata.org/entity/Q21723275",
        "country_qid": "Q225"
      }
    },
    {
      "type": "Feature",
      "geometry": {
        "type": "Point",
        "coordinates": [
          17.8370172,
          43.4476692
        ]
      },
      "properties": {
        "label": "Salakovac Hydroelectric Power Station",
        "type": "Hydraulic structure",
        "entity": "http://www.wikidata.org/entity/Q11999146",
        "country_qid": "Q225"
      }
    },
    {
      "type": "Feature",
      "geometry": {
        "type": "Point",
        "coordinates": [
          19.08245,
          44.85786
        ]
      },
      "properties": {
        "label": "Kanal Divlji Konj",
        "type": "Hydraulic structure",
        "entity": "http://www.wikidata.org/entity/Q21727383",
        "country_qid": "Q225"
      }
    },
    {
      "type": "Feature",
      "geometry": {
        "type": "Point",
        "coordinates": [
          16.89726,
          43.8443
        ]
      },
      "properties": {
        "label": "Okolica",
        "type": "Hydraulic structure",
        "entity": "http://www.wikidata.org/entity/Q21742421",
        "country_qid": "Q225"
      }
    },
    {
      "type": "Feature",
      "geometry": {
        "type": "Point",
        "coordinates": [
          16.70528,
          44.96439
        ]
      },
      "properties": {
        "label": "Gomjenica Kanal",
        "type": "Hydraulic structure",
        "entity": "http://www.wikidata.org/entity/Q21718140",
        "country_qid": "Q225"
      }
    },
    {
      "type": "Feature",
      "geometry": {
        "type": "Point",
        "coordinates": [
          18.497027777,
          42.733638888
        ]
      },
      "properties": {
        "label": "Trebinje 1 Hydroelectric Power Station",
        "type": "Hydraulic structure",
        "entity": "http://www.wikidata.org/entity/Q7837375",
        "country_qid": "Q225"
      }
    },
    {
      "type": "Feature",
      "geometry": {
        "type": "Point",
        "coordinates": [
          19.192222222,
          44.726944444
        ]
      },
      "properties": {
        "label": "Q21723790",
        "type": "Hydraulic structure",
        "entity": "http://www.wikidata.org/entity/Q21723790",
        "country_qid": "Q225"
      }
    },
    {
      "type": "Feature",
      "geometry": {
        "type": "Point",
        "coordinates": [
          19.128888888,
          44.825
        ]
      },
      "properties": {
        "label": "Q21725819",
        "type": "Hydraulic structure",
        "entity": "http://www.wikidata.org/entity/Q21725819",
        "country_qid": "Q225"
      }
    },
    {
      "type": "Feature",
      "geometry": {
        "type": "Point",
        "coordinates": [
          19.106777777,
          44.367972222
        ]
      },
      "properties": {
        "label": "Zvornik Hydroelectric Power Station",
        "type": "Hydraulic structure",
        "entity": "http://www.wikidata.org/entity/Q12011284",
        "country_qid": "Q225"
      }
    },
    {
      "type": "Feature",
      "geometry": {
        "type": "Point",
        "coordinates": [
          18.278611111,
          45.074166666
        ]
      },
      "properties": {
        "label": "Q21743709",
        "type": "Hydraulic structure",
        "entity": "http://www.wikidata.org/entity/Q21743709",
        "country_qid": "Q225"
      }
    },
    {
      "type": "Feature",
      "geometry": {
        "type": "Point",
        "coordinates": [
          16.884444444,
          43.805555555
        ]
      },
      "properties": {
        "label": "Q21739613",
        "type": "Hydraulic structure",
        "entity": "http://www.wikidata.org/entity/Q21739613",
        "country_qid": "Q225"
      }
    },
    {
      "type": "Feature",
      "geometry": {
        "type": "Point",
        "coordinates": [
          18.72155,
          44.93356
        ]
      },
      "properties": {
        "label": "Dusine Kanal",
        "type": "Hydraulic structure",
        "entity": "http://www.wikidata.org/entity/Q21727248",
        "country_qid": "Q225"
      }
    },
    {
      "type": "Feature",
      "geometry": {
        "type": "Point",
        "coordinates": [
          16.904722222,
          43.762777777
        ]
      },
      "properties": {
        "label": "Q21718149",
        "type": "Hydraulic structure",
        "entity": "http://www.wikidata.org/entity/Q21718149",
        "country_qid": "Q225"
      }
    },
    {
      "type": "Feature",
      "geometry": {
        "type": "Point",
        "coordinates": [
          16.822222222,
          43.816944444
        ]
      },
      "properties": {
        "label": "Q21739612",
        "type": "Hydraulic structure",
        "entity": "http://www.wikidata.org/entity/Q21739612",
        "country_qid": "Q225"
      }
    },
    {
      "type": "Feature",
      "geometry": {
        "type": "Point",
        "coordinates": [
          16.84881,
          45.18204
        ]
      },
      "properties": {
        "label": "Gornji Obodni Kanal",
        "type": "Hydraulic structure",
        "entity": "http://www.wikidata.org/entity/Q21739786",
        "country_qid": "Q225"
      }
    },
    {
      "type": "Feature",
      "geometry": {
        "type": "Point",
        "coordinates": [
          18.435214812,
          43.717756416
        ]
      },
      "properties": {
        "label": "Bogatići Dam",
        "type": "Hydraulic structure",
        "entity": "http://www.wikidata.org/entity/Q126002859",
        "country_qid": "Q225"
      }
    },
    {
      "type": "Feature",
      "geometry": {
        "type": "Point",
        "coordinates": [
          17.6,
          42.916666666
        ]
      },
      "properties": {
        "label": "Port of Neum",
        "type": "Hydraulic structure",
        "entity": "http://www.wikidata.org/entity/Q105762403",
        "country_qid": "Q225"
      }
    },
    {
      "type": "Feature",
      "geometry": {
        "type": "Point",
        "coordinates": [
          17.455,
          43.228611111
        ]
      },
      "properties": {
        "label": "Q21739216",
        "type": "Hydraulic structure",
        "entity": "http://www.wikidata.org/entity/Q21739216",
        "country_qid": "Q225"
      }
    },
    {
      "type": "Feature",
      "geometry": {
        "type": "Point",
        "coordinates": [
          18.76368,
          44.95445
        ]
      },
      "properties": {
        "label": "Ometa Osatno Kanal",
        "type": "Hydraulic structure",
        "entity": "http://www.wikidata.org/entity/Q21727271",
        "country_qid": "Q225"
      }
    },
    {
      "type": "Feature",
      "geometry": {
        "type": "Point",
        "coordinates": [
          18.815928,
          44.87755
        ]
      },
      "properties": {
        "label": "Port of Brčko",
        "type": "Hydraulic structure",
        "entity": "http://www.wikidata.org/entity/Q88227446",
        "country_qid": "Q225"
      }
    },
    {
      "type": "Feature",
      "geometry": {
        "type": "Point",
        "coordinates": [
          18.722222222,
          44.933888888
        ]
      },
      "properties": {
        "label": "Q21727249",
        "type": "Hydraulic structure",
        "entity": "http://www.wikidata.org/entity/Q21727249",
        "country_qid": "Q225"
      }
    },
    {
      "type": "Feature",
      "geometry": {
        "type": "Point",
        "coordinates": [
          19.12924,
          44.88167
        ]
      },
      "properties": {
        "label": "Q21727384",
        "type": "Hydraulic structure",
        "entity": "http://www.wikidata.org/entity/Q21727384",
        "country_qid": "Q225"
      }
    },
    {
      "type": "Feature",
      "geometry": {
        "type": "Point",
        "coordinates": [
          19.06665,
          44.86035
        ]
      },
      "properties": {
        "label": "Glavni Obodni Kanal",
        "type": "Hydraulic structure",
        "entity": "http://www.wikidata.org/entity/Q21727392",
        "country_qid": "Q225"
      }
    },
    {
      "type": "Feature",
      "geometry": {
        "type": "Point",
        "coordinates": [
          19.41025,
          43.964083333
        ]
      },
      "properties": {
        "label": "Bajina Bašta Hydroelectric Power Plant",
        "type": "Hydraulic structure",
        "entity": "http://www.wikidata.org/entity/Q30974191",
        "country_qid": "Q225"
      }
    }
  ]
}