{
  "type": "FeatureCollection",
  "features": [
    {
      "type": "Feature",
      "geometry": {
        "type": "Point",
        "coordinates": [
          -75.6,
          20.733333333
        ]
      },
      "properties": {
        "label": "Felton",
        "type": "Hydraulic structure",
        "entity": "http://www.wikidata.org/entity/Q111386569",
        "country_qid": "Q241"
      }
    },
    {
      "type": "Feature",
      "geometry": {
        "type": "Point",
        "coordinates": [
          -82.966666666,
          23.0
        ]
      },
      "properties": {
        "label": "Cabanas",
        "type": "Hydraulic structure",
        "entity": "http://www.wikidata.org/entity/Q111386567",
        "country_qid": "Q241"
      }
    },
    {
      "type": "Feature",
      "geometry": {
        "type": "Point",
        "coordinates": [
          -75.833333333,
          20.016666666
        ]
      },
      "properties": {
        "label": "Santiago de Cuba",
        "type": "Hydraulic structure",
        "entity": "http://www.wikidata.org/entity/Q111386654",
        "country_qid": "Q241"
      }
    },
    {
      "type": "Feature",
      "geometry": {
        "type": "Point",
        "coordinates": [
          -80.06740556,
          22.094275
        ]
      },
      "properties": {
        "label": "Hanabanilla Dam",
        "type": "Hydraulic structure",
        "entity": "http://www.wikidata.org/entity/Q17004157",
        "country_qid": "Q241"
      }
    },
    {
      "type": "Feature",
      "geometry": {
        "type": "Point",
        "coordinates": [
          -75.35929167,
          20.12692778
        ]
      },
      "properties": {
        "label": "La Yaya Dam",
        "type": "Hydraulic structure",
        "entity": "http://www.wikidata.org/entity/Q17093160",
        "country_qid": "Q241"
      }
    },
    {
      "type": "Feature",
      "geometry": {
        "type": "Point",
        "coordinates": [
          -83.166666666,
          22.966666666
        ]
      },
      "properties": {
        "label": "Dársena de Buenavista",
        "type": "Hydraulic structure",
        "entity": "http://www.wikidata.org/entity/Q23806304",
        "country_qid": "Q241"
      }
    },
    {
      "type": "Feature",
      "geometry": {
        "type": "Point",
        "coordinates": [
          -80.45,
          22.15
        ]
      },
      "properties": {
        "label": "Cienfuegos",
        "type": "Hydraulic structure",
        "entity": "http://www.wikidata.org/entity/Q111386645",
        "country_qid": "Q241"
      }
    },
    {
      "type": "Feature",
      "geometry": {
        "type": "Point",
        "coordinates": [
          -82.366666666,
          23.133333333
        ]
      },
      "properties": {
        "label": "BAHAI DE LA HABANA",
        "type": "Hydraulic structure",
        "entity": "http://www.wikidata.org/entity/Q111386565",
        "country_qid": "Q241"
      }
    },
    {
      "type": "Feature",
      "geometry": {
        "type": "Point",
        "coordinates": [
          -75.16,
          19.9175
        ]
      },
      "properties": {
        "label": "Guantanamo Bay Naval Base",
        "type": "Hydraulic structure",
        "entity": "http://www.wikidata.org/entity/Q762570",
        "country_qid": "Q241"
      }
    },
    {
      "type": "Feature",
      "geometry": {
        "type": "Point",
        "coordinates": [
          -78.724,
          22.302
        ]
      },
      "properties": {
        "label": "Chicola",
        "type": "Hydraulic structure",
        "entity": "http://www.wikidata.org/entity/Q5096464",
        "country_qid": "Q241"
      }
    },
    {
      "type": "Feature",
      "geometry": {
        "type": "Point",
        "coordinates": [
          -77.600555555,
          21.772222222
        ]
      },
      "properties": {
        "label": "Canal de desague el Río Máximo",
        "type": "Hydraulic structure",
        "entity": "http://www.wikidata.org/entity/Q23790199",
        "country_qid": "Q241"
      }
    },
    {
      "type": "Feature",
      "geometry": {
        "type": "Point",
        "coordinates": [
          -79.3557,
          21.8037
        ]
      },
      "properties": {
        "label": "Zaza Dam",
        "type": "Hydraulic structure",
        "entity": "http://www.wikidata.org/entity/Q16904439",
        "country_qid": "Q241"
      }
    },
    {
      "type": "Feature",
      "geometry": {
        "type": "Point",
        "coordinates": [
          -82.347222222,
          23.130555555
        ]
      },
      "properties": {
        "label": "Margarito Iglesias Marine Terminal",
        "type": "Hydraulic structure",
        "entity": "http://www.wikidata.org/entity/Q23805972",
        "country_qid": "Q241"
      }
    },
    {
      "type": "Feature",
      "geometry": {
        "type": "Point",
        "coordinates": [
          -74.9,
          20.666666666
        ]
      },
      "properties": {
        "label": "Cayo Moa Grande",
        "type": "Hydraulic structure",
        "entity": "http://www.wikidata.org/entity/Q111386524",
        "country_qid": "Q241"
      }
    },
    {
      "type": "Feature",
      "geometry": {
        "type": "Point",
        "coordinates": [
          -77.266666666,
          21.55
        ]
      },
      "properties": {
        "label": "Nuevitas Bay",
        "type": "Hydraulic structure",
        "entity": "http://www.wikidata.org/entity/Q111386568",
        "country_qid": "Q241"
      }
    },
    {
      "type": "Feature",
      "geometry": {
        "type": "Point",
        "coordinates": [
          -75.55,
          20.716666666
        ]
      },
      "properties": {
        "label": "Nicaro",
        "type": "Hydraulic structure",
        "entity": "http://www.wikidata.org/entity/Q111386570",
        "country_qid": "Q241"
      }
    },
    {
      "type": "Feature",
      "geometry": {
        "type": "Point",
        "coordinates": [
          -78.66194,
          21.59111
        ]
      },
      "properties": {
        "label": "Canal Itabo",
        "type": "Hydraulic structure",
        "entity": "http://www.wikidata.org/entity/Q23795597",
        "country_qid": "Q241"
      }
    },
    {
      "type": "Feature",
      "geometry": {
        "type": "Point",
        "coordinates": [
          -80.066666666,
          22.1
        ]
      },
      "properties": {
        "label": "Presa Hanabanilla",
        "type": "Hydraulic structure",
        "entity": "http://www.wikidata.org/entity/Q23795437",
        "country_qid": "Q241"
      }
    },
    {
      "type": "Feature",
      "geometry": {
        "type": "Point",
        "coordinates": [
          -80.066666666,
          22.1
        ]
      },
      "properties": {
        "label": "Presa Antigua",
        "type": "Hydraulic structure",
        "entity": "http://www.wikidata.org/entity/Q23805420",
        "country_qid": "Q241"
      }
    },
    {
      "type": "Feature",
      "geometry": {
        "type": "Point",
        "coordinates": [
          -74.98043056,
          20.55805
        ]
      },
      "properties": {
        "label": "Nuevo Mundo Dam",
        "type": "Hydraulic structure",
        "entity": "http://www.wikidata.org/entity/Q17012819",
        "country_qid": "Q241"
      }
    },
    {
      "type": "Feature",
      "geometry": {
        "type": "Point",
        "coordinates": [
          -80.0,
          22.95
        ]
      },
      "properties": {
        "label": "Isabela de Sagua",
        "type": "Hydraulic structure",
        "entity": "http://www.wikidata.org/entity/Q111386566",
        "country_qid": "Q241"
      }
    },
    {
      "type": "Feature",
      "geometry": {
        "type": "Point",
        "coordinates": [
          -76.816666666,
          21.366666666
        ]
      },
      "properties": {
        "label": "Manati",
        "type": "Hydraulic structure",
        "entity": "http://www.wikidata.org/entity/Q111386628",
        "country_qid": "Q241"
      }
    },
    {
      "type": "Feature",
      "geometry": {
        "type": "Point",
        "coordinates": [
          -76.007796967,
          20.08200068
        ]
      },
      "properties": {
        "label": "Charco Mono Dam",
        "type": "Hydraulic structure",
        "entity": "http://www.wikidata.org/entity/Q119826725",
        "country_qid": "Q241"
      }
    },
    {
      "type": "Feature",
      "geometry": {
        "type": "Point",
        "coordinates": [
          -78.68333,
          22.25
        ]
      },
      "properties": {
        "label": "Canal de Chicola",
        "type": "Hydraulic structure",
        "entity": "http://www.wikidata.org/entity/Q23798418",
        "country_qid": "Q241"
      }
    },
    {
      "type": "Feature",
      "geometry": {
        "type": "Point",
        "coordinates": [
          -75.133333333,
          19.983333333
        ]
      },
      "properties": {
        "label": "Puerto Guantanamo",
        "type": "Hydraulic structure",
        "entity": "http://www.wikidata.org/entity/Q111386662",
        "country_qid": "Q241"
      }
    },
    {
      "type": "Feature",
      "geometry": {
        "type": "Point",
        "coordinates": [
          -82.75,
          22.983333333
        ]
      },
      "properties": {
        "label": "Mariel",
        "type": "Hydraulic structure",
        "entity": "http://www.wikidata.org/entity/Q111386564",
        "country_qid": "Q241"
      }
    },
    {
      "type": "Feature",
      "geometry": {
        "type": "Point",
        "coordinates": [
          -77.992222222,
          21.578333333
        ]
      },
      "properties": {
        "label": "Presa Pontezuela",
        "type": "Hydraulic structure",
        "entity": "http://www.wikidata.org/entity/Q23792609",
        "country_qid": "Q241"
      }
    },
    {
      "type": "Feature",
      "geometry": {
        "type": "Point",
        "coordinates": [
          -82.297777777,
          22.680833333
        ]
      },
      "properties": {
        "label": "Canal de Refugio",
        "type": "Hydraulic structure",
        "entity": "http://www.wikidata.org/entity/Q23806176",
        "country_qid": "Q241"
      }
    },
    {
      "type": "Feature",
      "geometry": {
        "type": "Point",
        "coordinates": [
          -75.66375833,
          20.59883056
        ]
      },
      "properties": {
        "label": "Melones Dam",
        "type": "Hydraulic structure",
        "entity": "http://www.wikidata.org/entity/Q17009842",
        "country_qid": "Q241"
      }
    },
    {
      "type": "Feature",
      "geometry": {
        "type": "Point",
        "coordinates": [
          -81.043055555,
          22.698333333
        ]
      },
      "properties": {
        "label": "Canal Cochino",
        "type": "Hydraulic structure",
        "entity": "http://www.wikidata.org/entity/Q23798506",
        "country_qid": "Q241"
      }
    },
    {
      "type": "Feature",
      "geometry": {
        "type": "Point",
        "coordinates": [
          -75.333333333,
          20.683333333
        ]
      },
      "properties": {
        "label": "Bahía de Sagua de Tánamo",
        "type": "Hydraulic structure",
        "entity": "http://www.wikidata.org/entity/Q23789653",
        "country_qid": "Q241"
      }
    },
    {
      "type": "Feature",
      "geometry": {
        "type": "Point",
        "coordinates": [
          -79.983333333,
          21.75
        ]
      },
      "properties": {
        "label": "Casilda",
        "type": "Hydraulic structure",
        "entity": "http://www.wikidata.org/entity/Q111386688",
        "country_qid": "Q241"
      }
    },
    {
      "type": "Feature",
      "geometry": {
        "type": "Point",
        "coordinates": [
          -82.8,
          21.916666666
        ]
      },
      "properties": {
        "label": "Nueva Gerona port",
        "type": "Hydraulic structure",
        "entity": "http://www.wikidata.org/entity/Q111386573",
        "country_qid": "Q241"
      }
    },
    {
      "type": "Feature",
      "geometry": {
        "type": "Point",
        "coordinates": [
          -82.352777777,
          23.126388888
        ]
      },
      "properties": {
        "label": "Manuel Díaz Marine Terminal",
        "type": "Hydraulic structure",
        "entity": "http://www.wikidata.org/entity/Q23805973",
        "country_qid": "Q241"
      }
    },
    {
      "type": "Feature",
      "geometry": {
        "type": "Point",
        "coordinates": [
          -79.55,
          21.633333333
        ]
      },
      "properties": {
        "label": "Tunas de Zaza",
        "type": "Hydraulic structure",
        "entity": "http://www.wikidata.org/entity/Q111386687",
        "country_qid": "Q241"
      }
    },
    {
      "type": "Feature",
      "geometry": {
        "type": "Point",
        "coordinates": [
          -78.85,
          21.616666666
        ]
      },
      "properties": {
        "label": "Jucaro",
        "type": "Hydraulic structure",
        "entity": "http://www.wikidata.org/entity/Q111386686",
        "country_qid": "Q241"
      }
    },
    {
      "type": "Feature",
      "geometry": {
        "type": "Point",
        "coordinates": [
          -81.051666666,
          22.702222222
        ]
      },
      "properties": {
        "label": "Canal Bermejo",
        "type": "Hydraulic structure",
        "entity": "http://www.wikidata.org/entity/Q23804795",
        "country_qid": "Q241"
      }
    },
    {
      "type": "Feature",
      "geometry": {
        "type": "Point",
        "coordinates": [
          -76.533333333,
          21.283333333
        ]
      },
      "properties": {
        "label": "Puerto Padre",
        "type": "Hydraulic structure",
        "entity": "http://www.wikidata.org/entity/Q111386660",
        "country_qid": "Q241"
      }
    },
    {
      "type": "Feature",
      "geometry": {
        "type": "Point",
        "coordinates": [
          -77.98,
          21.92722
        ]
      },
      "properties": {
        "label": "Canal Aguas Verdes",
        "type": "Hydraulic structure",
        "entity": "http://www.wikidata.org/entity/Q23805283",
        "country_qid": "Q241"
      }
    }
  ]
}