{
  "type": "FeatureCollection",
  "features": [
    {
      "type": "Feature",
      "geometry": {
        "type": "Point",
        "coordinates": [
          -90.705277777,
          13.933611111
        ]
      },
      "properties": {
        "label": "Q25181654",
        "type": "Hydraulic structure",
        "entity": "http://www.wikidata.org/entity/Q25181654",
        "country_qid": "Q774"
      }
    },
    {
      "type": "Feature",
      "geometry": {
        "type": "Point",
        "coordinates": [
          -88.6,
          15.733333333
        ]
      },
      "properties": {
        "label": "Puerto Barrios",
        "type": "Hydraulic structure",
        "entity": "http://www.wikidata.org/entity/Q111386465",
        "country_qid": "Q774"
      }
    },
    {
      "type": "Feature",
      "geometry": {
        "type": "Point",
        "coordinates": [
          -91.116666666,
          13.916666666
        ]
      },
      "properties": {
        "label": "Q25182265",
        "type": "Hydraulic structure",
        "entity": "http://www.wikidata.org/entity/Q25182265",
        "country_qid": "Q774"
      }
    },
    {
      "type": "Feature",
      "geometry": {
        "type": "Point",
        "coordinates": [
          -90.7864,
          15.6928
        ]
      },
      "properties": {
        "label": "Xalalá Dam",
        "type": "Hydraulic structure",
        "entity": "http://www.wikidata.org/entity/Q8042846",
        "country_qid": "Q774"
      }
    },
    {
      "type": "Feature",
      "geometry": {
        "type": "Point",
        "coordinates": [
          -90.816666666,
          13.933333333
        ]
      },
      "properties": {
        "label": "Puerto San José",
        "type": "Hydraulic structure",
        "entity": "http://www.wikidata.org/entity/Q1266746",
        "country_qid": "Q774"
      }
    },
    {
      "type": "Feature",
      "geometry": {
        "type": "Point",
        "coordinates": [
          -91.455,
          14.80305556
        ]
      },
      "properties": {
        "label": "Santa María Hydroelectric Dam",
        "type": "Hydraulic structure",
        "entity": "http://www.wikidata.org/entity/Q7419753",
        "country_qid": "Q774"
      }
    },
    {
      "type": "Feature",
      "geometry": {
        "type": "Point",
        "coordinates": [
          -90.490952,
          15.281536
        ]
      },
      "properties": {
        "label": "Chixoy Hydroelectric Dam",
        "type": "Hydraulic structure",
        "entity": "http://www.wikidata.org/entity/Q2885449",
        "country_qid": "Q774"
      }
    },
    {
      "type": "Feature",
      "geometry": {
        "type": "Point",
        "coordinates": [
          -88.616667,
          15.7
        ]
      },
      "properties": {
        "label": "Saint Thomas of Castilla",
        "type": "Hydraulic structure",
        "entity": "http://www.wikidata.org/entity/Q588048",
        "country_qid": "Q774"
      }
    },
    {
      "type": "Feature",
      "geometry": {
        "type": "Point",
        "coordinates": [
          -90.6007772,
          14.1931464
        ]
      },
      "properties": {
        "label": "Aguacapa Dam",
        "type": "Hydraulic structure",
        "entity": "http://www.wikidata.org/entity/Q113956791",
        "country_qid": "Q774"
      }
    },
    {
      "type": "Feature",
      "geometry": {
        "type": "Point",
        "coordinates": [
          -88.616666666,
          15.7
        ]
      },
      "properties": {
        "label": "Santo Thomas de Castilla",
        "type": "Hydraulic structure",
        "entity": "http://www.wikidata.org/entity/Q111386466",
        "country_qid": "Q774"
      }
    },
    {
      "type": "Feature",
      "geometry": {
        "type": "Point",
        "coordinates": [
          -91.084444444,
          15.622777777
        ]
      },
      "properties": {
        "label": "Xacbal Hydroelectric Dam",
        "type": "Hydraulic structure",
        "entity": "http://www.wikidata.org/entity/Q8343538",
        "country_qid": "Q774"
      }
    },
    {
      "type": "Feature",
      "geometry": {
        "type": "Point",
        "coordinates": [
          -90.78777778,
          13.92055556
        ]
      },
      "properties": {
        "label": "Puerto Quetzal",
        "type": "Hydraulic structure",
        "entity": "http://www.wikidata.org/entity/Q14474061",
        "country_qid": "Q774"
      }
    },
    {
      "type": "Feature",
      "geometry": {
        "type": "Point",
        "coordinates": [
          -90.71055556,
          14.38916667
        ]
      },
      "properties": {
        "label": "Jurún Marinalá Hydroelectric Dam",
        "type": "Hydraulic structure",
        "entity": "http://www.wikidata.org/entity/Q6315528",
        "country_qid": "Q774"
      }
    },
    {
      "type": "Feature",
      "geometry": {
        "type": "Point",
        "coordinates": [
          -90.661111111,
          13.958333333
        ]
      },
      "properties": {
        "label": "Q25181657",
        "type": "Hydraulic structure",
        "entity": "http://www.wikidata.org/entity/Q25181657",
        "country_qid": "Q774"
      }
    },
    {
      "type": "Feature",
      "geometry": {
        "type": "Point",
        "coordinates": [
          -90.50305556,
          14.76111111
        ]
      },
      "properties": {
        "label": "Las Vacas Hydroelectric Dam",
        "type": "Hydraulic structure",
        "entity": "http://www.wikidata.org/entity/Q6492491",
        "country_qid": "Q774"
      }
    },
    {
      "type": "Feature",
      "geometry": {
        "type": "Point",
        "coordinates": [
          -92.043333333,
          14.423611111
        ]
      },
      "properties": {
        "label": "Q25181704",
        "type": "Hydraulic structure",
        "entity": "http://www.wikidata.org/entity/Q25181704",
        "country_qid": "Q774"
      }
    },
    {
      "type": "Feature",
      "geometry": {
        "type": "Point",
        "coordinates": [
          -90.27666667,
          14.25333333
        ]
      },
      "properties": {
        "label": "Los Esclavos Hydroelectric Dam",
        "type": "Hydraulic structure",
        "entity": "http://www.wikidata.org/entity/Q6682714",
        "country_qid": "Q774"
      }
    },
    {
      "type": "Feature",
      "geometry": {
        "type": "Point",
        "coordinates": [
          -90.6,
          13.955555555
        ]
      },
      "properties": {
        "label": "Canal de La Zona Doce",
        "type": "Hydraulic structure",
        "entity": "http://www.wikidata.org/entity/Q25177618",
        "country_qid": "Q774"
      }
    }
  ]
}