{
  "type": "FeatureCollection",
  "features": [
    {
      "type": "Feature",
      "geometry": {
        "type": "Point",
        "coordinates": [
          -12.504722222,
          17.554444444
        ]
      },
      "properties": {
        "label": "Et Tâchoût",
        "type": "Hydraulic structure",
        "entity": "http://www.wikidata.org/entity/Q27730479",
        "country_qid": "Q1025"
      }
    },
    {
      "type": "Feature",
      "geometry": {
        "type": "Point",
        "coordinates": [
          -11.554166666,
          18.325
        ]
      },
      "properties": {
        "label": "Ederoum",
        "type": "Hydraulic structure",
        "entity": "http://www.wikidata.org/entity/Q27733497",
        "country_qid": "Q1025"
      }
    },
    {
      "type": "Feature",
      "geometry": {
        "type": "Point",
        "coordinates": [
          -10.714166666,
          16.789444444
        ]
      },
      "properties": {
        "label": "Aguerj el Hajar",
        "type": "Hydraulic structure",
        "entity": "http://www.wikidata.org/entity/Q27743712",
        "country_qid": "Q1025"
      }
    },
    {
      "type": "Feature",
      "geometry": {
        "type": "Point",
        "coordinates": [
          -9.8725,
          16.459722222
        ]
      },
      "properties": {
        "label": "Ghlîg Ould 'Abdalla",
        "type": "Hydraulic structure",
        "entity": "http://www.wikidata.org/entity/Q27748456",
        "country_qid": "Q1025"
      }
    },
    {
      "type": "Feature",
      "geometry": {
        "type": "Point",
        "coordinates": [
          -13.121944444,
          17.6475
        ]
      },
      "properties": {
        "label": "Gleïbât Ndoûfna",
        "type": "Hydraulic structure",
        "entity": "http://www.wikidata.org/entity/Q27748421",
        "country_qid": "Q1025"
      }
    },
    {
      "type": "Feature",
      "geometry": {
        "type": "Point",
        "coordinates": [
          -10.429166666,
          17.119444444
        ]
      },
      "properties": {
        "label": "El Medroum",
        "type": "Hydraulic structure",
        "entity": "http://www.wikidata.org/entity/Q27731598",
        "country_qid": "Q1025"
      }
    },
    {
      "type": "Feature",
      "geometry": {
        "type": "Point",
        "coordinates": [
          -10.5004,
          17.0825
        ]
      },
      "properties": {
        "label": "Q27730039",
        "type": "Hydraulic structure",
        "entity": "http://www.wikidata.org/entity/Q27730039",
        "country_qid": "Q1025"
      }
    },
    {
      "type": "Feature",
      "geometry": {
        "type": "Point",
        "coordinates": [
          -10.956388888,
          17.037222222
        ]
      },
      "properties": {
        "label": "Khandrié",
        "type": "Hydraulic structure",
        "entity": "http://www.wikidata.org/entity/Q27748536",
        "country_qid": "Q1025"
      }
    },
    {
      "type": "Feature",
      "geometry": {
        "type": "Point",
        "coordinates": [
          -17.05,
          20.916666666
        ]
      },
      "properties": {
        "label": "Nouadhibou",
        "type": "Hydraulic structure",
        "entity": "http://www.wikidata.org/entity/Q111387297",
        "country_qid": "Q1025"
      }
    },
    {
      "type": "Feature",
      "geometry": {
        "type": "Point",
        "coordinates": [
          -10.77153,
          16.92059
        ]
      },
      "properties": {
        "label": "Q27730514",
        "type": "Hydraulic structure",
        "entity": "http://www.wikidata.org/entity/Q27730514",
        "country_qid": "Q1025"
      }
    },
    {
      "type": "Feature",
      "geometry": {
        "type": "Point",
        "coordinates": [
          -11.371666666,
          16.941666666
        ]
      },
      "properties": {
        "label": "Fara' ej Jerk",
        "type": "Hydraulic structure",
        "entity": "http://www.wikidata.org/entity/Q27732874",
        "country_qid": "Q1025"
      }
    },
    {
      "type": "Feature",
      "geometry": {
        "type": "Point",
        "coordinates": [
          -11.328333333,
          17.005555555
        ]
      },
      "properties": {
        "label": "Ghlîg Oulâd Alamîne",
        "type": "Hydraulic structure",
        "entity": "http://www.wikidata.org/entity/Q27731097",
        "country_qid": "Q1025"
      }
    },
    {
      "type": "Feature",
      "geometry": {
        "type": "Point",
        "coordinates": [
          -16.4149,
          16.21672
        ]
      },
      "properties": {
        "label": "Diama Dam",
        "type": "Hydraulic structure",
        "entity": "http://www.wikidata.org/entity/Q2885103",
        "country_qid": "Q1025"
      }
    },
    {
      "type": "Feature",
      "geometry": {
        "type": "Point",
        "coordinates": [
          -11.090833333,
          16.901944444
        ]
      },
      "properties": {
        "label": "Fouerenni",
        "type": "Hydraulic structure",
        "entity": "http://www.wikidata.org/entity/Q27732871",
        "country_qid": "Q1025"
      }
    },
    {
      "type": "Feature",
      "geometry": {
        "type": "Point",
        "coordinates": [
          -9.560277777,
          16.423055555
        ]
      },
      "properties": {
        "label": "Ghlîg Terenni",
        "type": "Hydraulic structure",
        "entity": "http://www.wikidata.org/entity/Q27730613",
        "country_qid": "Q1025"
      }
    },
    {
      "type": "Feature",
      "geometry": {
        "type": "Point",
        "coordinates": [
          -10.644722222,
          16.968611111
        ]
      },
      "properties": {
        "label": "Aguerj Aglâl",
        "type": "Hydraulic structure",
        "entity": "http://www.wikidata.org/entity/Q27743710",
        "country_qid": "Q1025"
      }
    },
    {
      "type": "Feature",
      "geometry": {
        "type": "Point",
        "coordinates": [
          -11.8947,
          18.0321
        ]
      },
      "properties": {
        "label": "Tegnent",
        "type": "Hydraulic structure",
        "entity": "http://www.wikidata.org/entity/Q27730579",
        "country_qid": "Q1025"
      }
    },
    {
      "type": "Feature",
      "geometry": {
        "type": "Point",
        "coordinates": [
          -10.55,
          17.055277777
        ]
      },
      "properties": {
        "label": "Q27732439",
        "type": "Hydraulic structure",
        "entity": "http://www.wikidata.org/entity/Q27732439",
        "country_qid": "Q1025"
      }
    },
    {
      "type": "Feature",
      "geometry": {
        "type": "Point",
        "coordinates": [
          -11.315,
          16.81
        ]
      },
      "properties": {
        "label": "Arba' Teïdoûm",
        "type": "Hydraulic structure",
        "entity": "http://www.wikidata.org/entity/Q27738065",
        "country_qid": "Q1025"
      }
    },
    {
      "type": "Feature",
      "geometry": {
        "type": "Point",
        "coordinates": [
          -10.954444444,
          16.919166666
        ]
      },
      "properties": {
        "label": "Demba el Atchâne",
        "type": "Hydraulic structure",
        "entity": "http://www.wikidata.org/entity/Q27738193",
        "country_qid": "Q1025"
      }
    },
    {
      "type": "Feature",
      "geometry": {
        "type": "Point",
        "coordinates": [
          -11.5589,
          18.3802
        ]
      },
      "properties": {
        "label": "Noude",
        "type": "Hydraulic structure",
        "entity": "http://www.wikidata.org/entity/Q27731857",
        "country_qid": "Q1025"
      }
    },
    {
      "type": "Feature",
      "geometry": {
        "type": "Point",
        "coordinates": [
          -13.038055555,
          17.686388888
        ]
      },
      "properties": {
        "label": "Ghlîg Ahel Babiyya",
        "type": "Hydraulic structure",
        "entity": "http://www.wikidata.org/entity/Q27748427",
        "country_qid": "Q1025"
      }
    },
    {
      "type": "Feature",
      "geometry": {
        "type": "Point",
        "coordinates": [
          -12.6654,
          16.1576
        ]
      },
      "properties": {
        "label": "Foum Gleita Dam",
        "type": "Hydraulic structure",
        "entity": "http://www.wikidata.org/entity/Q16891400",
        "country_qid": "Q1025"
      }
    },
    {
      "type": "Feature",
      "geometry": {
        "type": "Point",
        "coordinates": [
          -8.216388888,
          16.263888888
        ]
      },
      "properties": {
        "label": "Ghlîg ‘Ali Ould Sidi Mhammed",
        "type": "Hydraulic structure",
        "entity": "http://www.wikidata.org/entity/Q27733573",
        "country_qid": "Q1025"
      }
    },
    {
      "type": "Feature",
      "geometry": {
        "type": "Point",
        "coordinates": [
          -16.033333333,
          18.033333333
        ]
      },
      "properties": {
        "label": "Port of Nouakchott",
        "type": "Hydraulic structure",
        "entity": "http://www.wikidata.org/entity/Q16965304",
        "country_qid": "Q1025"
      }
    },
    {
      "type": "Feature",
      "geometry": {
        "type": "Point",
        "coordinates": [
          -10.577222222,
          16.924166666
        ]
      },
      "properties": {
        "label": "El 'Atchâne",
        "type": "Hydraulic structure",
        "entity": "http://www.wikidata.org/entity/Q27738195",
        "country_qid": "Q1025"
      }
    },
    {
      "type": "Feature",
      "geometry": {
        "type": "Point",
        "coordinates": [
          -10.97593,
          16.97728
        ]
      },
      "properties": {
        "label": "Q27748499",
        "type": "Hydraulic structure",
        "entity": "http://www.wikidata.org/entity/Q27748499",
        "country_qid": "Q1025"
      }
    },
    {
      "type": "Feature",
      "geometry": {
        "type": "Point",
        "coordinates": [
          -9.8425,
          15.98833
        ]
      },
      "properties": {
        "label": "Q27730602",
        "type": "Hydraulic structure",
        "entity": "http://www.wikidata.org/entity/Q27730602",
        "country_qid": "Q1025"
      }
    },
    {
      "type": "Feature",
      "geometry": {
        "type": "Point",
        "coordinates": [
          -11.708055555,
          18.059722222
        ]
      },
      "properties": {
        "label": "Elmer",
        "type": "Hydraulic structure",
        "entity": "http://www.wikidata.org/entity/Q27733601",
        "country_qid": "Q1025"
      }
    },
    {
      "type": "Feature",
      "geometry": {
        "type": "Point",
        "coordinates": [
          -11.5459,
          16.0177
        ]
      },
      "properties": {
        "label": "Q27730968",
        "type": "Hydraulic structure",
        "entity": "http://www.wikidata.org/entity/Q27730968",
        "country_qid": "Q1025"
      }
    },
    {
      "type": "Feature",
      "geometry": {
        "type": "Point",
        "coordinates": [
          -11.790277777,
          17.262222222
        ]
      },
      "properties": {
        "label": "Dakhlet Aourouâr",
        "type": "Hydraulic structure",
        "entity": "http://www.wikidata.org/entity/Q27734546",
        "country_qid": "Q1025"
      }
    },
    {
      "type": "Feature",
      "geometry": {
        "type": "Point",
        "coordinates": [
          -11.6691,
          17.7076
        ]
      },
      "properties": {
        "label": "Q27730630",
        "type": "Hydraulic structure",
        "entity": "http://www.wikidata.org/entity/Q27730630",
        "country_qid": "Q1025"
      }
    },
    {
      "type": "Feature",
      "geometry": {
        "type": "Point",
        "coordinates": [
          -10.619722222,
          16.7525
        ]
      },
      "properties": {
        "label": "Q27748500",
        "type": "Hydraulic structure",
        "entity": "http://www.wikidata.org/entity/Q27748500",
        "country_qid": "Q1025"
      }
    },
    {
      "type": "Feature",
      "geometry": {
        "type": "Point",
        "coordinates": [
          -11.289166666,
          16.824166666
        ]
      },
      "properties": {
        "label": "Aguerj Tagat",
        "type": "Hydraulic structure",
        "entity": "http://www.wikidata.org/entity/Q27748589",
        "country_qid": "Q1025"
      }
    },
    {
      "type": "Feature",
      "geometry": {
        "type": "Point",
        "coordinates": [
          -13.2172,
          17.2307
        ]
      },
      "properties": {
        "label": "Q27748407",
        "type": "Hydraulic structure",
        "entity": "http://www.wikidata.org/entity/Q27748407",
        "country_qid": "Q1025"
      }
    },
    {
      "type": "Feature",
      "geometry": {
        "type": "Point",
        "coordinates": [
          -11.4978,
          18.1748
        ]
      },
      "properties": {
        "label": "Q27748464",
        "type": "Hydraulic structure",
        "entity": "http://www.wikidata.org/entity/Q27748464",
        "country_qid": "Q1025"
      }
    },
    {
      "type": "Feature",
      "geometry": {
        "type": "Point",
        "coordinates": [
          -11.5052,
          17.085
        ]
      },
      "properties": {
        "label": "Q27731052",
        "type": "Hydraulic structure",
        "entity": "http://www.wikidata.org/entity/Q27731052",
        "country_qid": "Q1025"
      }
    },
    {
      "type": "Feature",
      "geometry": {
        "type": "Point",
        "coordinates": [
          -9.9925,
          16.2525
        ]
      },
      "properties": {
        "label": "Akehb Jraïf",
        "type": "Hydraulic structure",
        "entity": "http://www.wikidata.org/entity/Q27743819",
        "country_qid": "Q1025"
      }
    },
    {
      "type": "Feature",
      "geometry": {
        "type": "Point",
        "coordinates": [
          -13.793611111,
          17.026944444
        ]
      },
      "properties": {
        "label": "Q27748397",
        "type": "Hydraulic structure",
        "entity": "http://www.wikidata.org/entity/Q27748397",
        "country_qid": "Q1025"
      }
    }
  ]
}