{
  "type": "FeatureCollection",
  "features": [
    {
      "type": "Feature",
      "geometry": {
        "type": "Point",
        "coordinates": [
          57.59136,
          -20.32447
        ]
      },
      "properties": {
        "label": "Q31871114",
        "type": "Hydraulic structure",
        "entity": "http://www.wikidata.org/entity/Q31871114",
        "country_qid": "Q1027"
      }
    },
    {
      "type": "Feature",
      "geometry": {
        "type": "Point",
        "coordinates": [
          57.445555555,
          -20.330277777
        ]
      },
      "properties": {
        "label": "Magenta Dam",
        "type": "Hydraulic structure",
        "entity": "http://www.wikidata.org/entity/Q27764369",
        "country_qid": "Q1027"
      }
    },
    {
      "type": "Feature",
      "geometry": {
        "type": "Point",
        "coordinates": [
          57.643055555,
          -20.110555555
        ]
      },
      "properties": {
        "label": "Bois Rouge Canal",
        "type": "Hydraulic structure",
        "entity": "http://www.wikidata.org/entity/Q27763579",
        "country_qid": "Q1027"
      }
    },
    {
      "type": "Feature",
      "geometry": {
        "type": "Point",
        "coordinates": [
          57.527222222,
          -20.118055555
        ]
      },
      "properties": {
        "label": "Bethurst Canal",
        "type": "Hydraulic structure",
        "entity": "http://www.wikidata.org/entity/Q27764488",
        "country_qid": "Q1027"
      }
    },
    {
      "type": "Feature",
      "geometry": {
        "type": "Point",
        "coordinates": [
          63.416666666,
          -19.683333333
        ]
      },
      "properties": {
        "label": "Port Mathurin",
        "type": "Hydraulic structure",
        "entity": "http://www.wikidata.org/entity/Q111387344",
        "country_qid": "Q1027"
      }
    },
    {
      "type": "Feature",
      "geometry": {
        "type": "Point",
        "coordinates": [
          57.616666666,
          -20.133333333
        ]
      },
      "properties": {
        "label": "Villebague Canal",
        "type": "Hydraulic structure",
        "entity": "http://www.wikidata.org/entity/Q27759756",
        "country_qid": "Q1027"
      }
    },
    {
      "type": "Feature",
      "geometry": {
        "type": "Point",
        "coordinates": [
          57.49831,
          -20.16139
        ]
      },
      "properties": {
        "label": "Caudan Waterfront",
        "type": "Hydraulic structure",
        "entity": "http://www.wikidata.org/entity/Q2943077",
        "country_qid": "Q1027"
      }
    },
    {
      "type": "Feature",
      "geometry": {
        "type": "Point",
        "coordinates": [
          57.5,
          -20.15
        ]
      },
      "properties": {
        "label": "Port Louis",
        "type": "Hydraulic structure",
        "entity": "http://www.wikidata.org/entity/Q111387343",
        "country_qid": "Q1027"
      }
    },
    {
      "type": "Feature",
      "geometry": {
        "type": "Point",
        "coordinates": [
          57.471388888,
          -20.166944444
        ]
      },
      "properties": {
        "label": "Dyot Canal",
        "type": "Hydraulic structure",
        "entity": "http://www.wikidata.org/entity/Q27763643",
        "country_qid": "Q1027"
      }
    }
  ]
}