{
  "type": "FeatureCollection",
  "features": [
    {
      "type": "Feature",
      "geometry": {
        "type": "Point",
        "coordinates": [
          150.45,
          -10.316666666
        ]
      },
      "properties": {
        "label": "Alotoa",
        "type": "Hydraulic structure",
        "entity": "http://www.wikidata.org/entity/Q111386843",
        "country_qid": "Q691"
      }
    },
    {
      "type": "Feature",
      "geometry": {
        "type": "Point",
        "coordinates": [
          144.3,
          -1.216666666
        ]
      },
      "properties": {
        "label": "Longan Island",
        "type": "Hydraulic structure",
        "entity": "http://www.wikidata.org/entity/Q111387167",
        "country_qid": "Q691"
      }
    },
    {
      "type": "Feature",
      "geometry": {
        "type": "Point",
        "coordinates": [
          147.0168328,
          -9.3381102
        ]
      },
      "properties": {
        "label": "Papua New Guinea LNG",
        "type": "Hydraulic structure",
        "entity": "http://www.wikidata.org/entity/Q2050949",
        "country_qid": "Q691"
      }
    },
    {
      "type": "Feature",
      "geometry": {
        "type": "Point",
        "coordinates": [
          152.166666666,
          -4.216666666
        ]
      },
      "properties": {
        "label": "Simpson Harbour",
        "type": "Hydraulic structure",
        "entity": "http://www.wikidata.org/entity/Q7521102",
        "country_qid": "Q691"
      }
    },
    {
      "type": "Feature",
      "geometry": {
        "type": "Point",
        "coordinates": [
          152.183333333,
          -4.2
        ]
      },
      "properties": {
        "label": "Rabaul",
        "type": "Hydraulic structure",
        "entity": "http://www.wikidata.org/entity/Q111386766",
        "country_qid": "Q691"
      }
    },
    {
      "type": "Feature",
      "geometry": {
        "type": "Point",
        "coordinates": [
          150.416666666,
          -10.416666666
        ]
      },
      "properties": {
        "label": "Discovery Bay",
        "type": "Hydraulic structure",
        "entity": "http://www.wikidata.org/entity/Q111386848",
        "country_qid": "Q691"
      }
    },
    {
      "type": "Feature",
      "geometry": {
        "type": "Point",
        "coordinates": [
          149.966666666,
          -1.633333333
        ]
      },
      "properties": {
        "label": "Hamburg Harbor",
        "type": "Hydraulic structure",
        "entity": "http://www.wikidata.org/entity/Q111387105",
        "country_qid": "Q691"
      }
    },
    {
      "type": "Feature",
      "geometry": {
        "type": "Point",
        "coordinates": [
          147.133333333,
          -9.466666666
        ]
      },
      "properties": {
        "label": "Port Moresby",
        "type": "Hydraulic structure",
        "entity": "http://www.wikidata.org/entity/Q111386841",
        "country_qid": "Q691"
      }
    },
    {
      "type": "Feature",
      "geometry": {
        "type": "Point",
        "coordinates": [
          145.98,
          -6.25139
        ]
      },
      "properties": {
        "label": "Yonki Dam",
        "type": "Hydraulic structure",
        "entity": "http://www.wikidata.org/entity/Q8055097",
        "country_qid": "Q691"
      }
    },
    {
      "type": "Feature",
      "geometry": {
        "type": "Point",
        "coordinates": [
          150.983333333,
          -5.3
        ]
      },
      "properties": {
        "label": "Bialla",
        "type": "Hydraulic structure",
        "entity": "http://www.wikidata.org/entity/Q111386673",
        "country_qid": "Q691"
      }
    },
    {
      "type": "Feature",
      "geometry": {
        "type": "Point",
        "coordinates": [
          154.55,
          -5.166666666
        ]
      },
      "properties": {
        "label": "Queen Carola Harbor",
        "type": "Hydraulic structure",
        "entity": "http://www.wikidata.org/entity/Q111386670",
        "country_qid": "Q691"
      }
    },
    {
      "type": "Feature",
      "geometry": {
        "type": "Point",
        "coordinates": [
          150.8312725,
          -9.6773228
        ]
      },
      "properties": {
        "label": "Fergusson Island PT Boat Base",
        "type": "Hydraulic structure",
        "entity": "http://www.wikidata.org/entity/Q104368990",
        "country_qid": "Q691"
      }
    },
    {
      "type": "Feature",
      "geometry": {
        "type": "Point",
        "coordinates": [
          155.633333333,
          -6.216666666
        ]
      },
      "properties": {
        "label": "Kieta",
        "type": "Hydraulic structure",
        "entity": "http://www.wikidata.org/entity/Q111387109",
        "country_qid": "Q691"
      }
    },
    {
      "type": "Feature",
      "geometry": {
        "type": "Point",
        "coordinates": [
          145.816666666,
          -5.216666666
        ]
      },
      "properties": {
        "label": "Madang",
        "type": "Hydraulic structure",
        "entity": "http://www.wikidata.org/entity/Q111386854",
        "country_qid": "Q691"
      }
    },
    {
      "type": "Feature",
      "geometry": {
        "type": "Point",
        "coordinates": [
          150.8,
          -2.583333333
        ]
      },
      "properties": {
        "label": "Kavieng Harbor",
        "type": "Hydraulic structure",
        "entity": "http://www.wikidata.org/entity/Q111386765",
        "country_qid": "Q691"
      }
    },
    {
      "type": "Feature",
      "geometry": {
        "type": "Point",
        "coordinates": [
          141.133333333,
          -2.683333333
        ]
      },
      "properties": {
        "label": "Vanimo",
        "type": "Hydraulic structure",
        "entity": "http://www.wikidata.org/entity/Q111386776",
        "country_qid": "Q691"
      }
    },
    {
      "type": "Feature",
      "geometry": {
        "type": "Point",
        "coordinates": [
          152.766666944,
          -9.216666666
        ]
      },
      "properties": {
        "label": "Suloga Harbor",
        "type": "Hydraulic structure",
        "entity": "http://www.wikidata.org/entity/Q111386845",
        "country_qid": "Q691"
      }
    },
    {
      "type": "Feature",
      "geometry": {
        "type": "Point",
        "coordinates": [
          148.483333333,
          -8.883333333
        ]
      },
      "properties": {
        "label": "Oro Bay",
        "type": "Hydraulic structure",
        "entity": "http://www.wikidata.org/entity/Q111386851",
        "country_qid": "Q691"
      }
    },
    {
      "type": "Feature",
      "geometry": {
        "type": "Point",
        "coordinates": [
          155.550277777,
          -6.186944444
        ]
      },
      "properties": {
        "label": "Anewa Bay",
        "type": "Hydraulic structure",
        "entity": "http://www.wikidata.org/entity/Q34953522",
        "country_qid": "Q691"
      }
    },
    {
      "type": "Feature",
      "geometry": {
        "type": "Point",
        "coordinates": [
          152.266666666,
          -4.333333333
        ]
      },
      "properties": {
        "label": "Kokopo",
        "type": "Hydraulic structure",
        "entity": "http://www.wikidata.org/entity/Q111387106",
        "country_qid": "Q691"
      }
    },
    {
      "type": "Feature",
      "geometry": {
        "type": "Point",
        "coordinates": [
          143.633333333,
          -3.566666666
        ]
      },
      "properties": {
        "label": "Wewak Harbor",
        "type": "Hydraulic structure",
        "entity": "http://www.wikidata.org/entity/Q111387169",
        "country_qid": "Q691"
      }
    },
    {
      "type": "Feature",
      "geometry": {
        "type": "Point",
        "coordinates": [
          143.2,
          -9.066666666
        ]
      },
      "properties": {
        "label": "Daru",
        "type": "Hydraulic structure",
        "entity": "http://www.wikidata.org/entity/Q111386839",
        "country_qid": "Q691"
      }
    },
    {
      "type": "Feature",
      "geometry": {
        "type": "Point",
        "coordinates": [
          150.533333333,
          -5.133333333
        ]
      },
      "properties": {
        "label": "Kimbe",
        "type": "Hydraulic structure",
        "entity": "http://www.wikidata.org/entity/Q111387107",
        "country_qid": "Q691"
      }
    },
    {
      "type": "Feature",
      "geometry": {
        "type": "Point",
        "coordinates": [
          150.666666666,
          -10.616666666
        ]
      },
      "properties": {
        "label": "Samarai",
        "type": "Hydraulic structure",
        "entity": "http://www.wikidata.org/entity/Q111386844",
        "country_qid": "Q691"
      }
    }
  ]
}