{
  "type": "FeatureCollection",
  "features": [
    {
      "type": "Feature",
      "geometry": {
        "type": "Point",
        "coordinates": [
          121.7565823,
          14.2286837
        ]
      },
      "properties": {
        "label": "Q19385979",
        "type": "Coal-fired power station",
        "entity": "http://www.wikidata.org/entity/Q19385979",
        "country_qid": "Q928"
      }
    },
    {
      "type": "Feature",
      "geometry": {
        "type": "Point",
        "coordinates": [
          120.101,
          16.125
        ]
      },
      "properties": {
        "label": "Sual Power Station",
        "type": "Coal-fired power station",
        "entity": "http://www.wikidata.org/entity/Q7630459",
        "country_qid": "Q928"
      }
    },
    {
      "type": "Feature",
      "geometry": {
        "type": "Point",
        "coordinates": [
          120.536583333,
          14.424777777
        ]
      },
      "properties": {
        "label": "Q113128639",
        "type": "Coal-fired power station",
        "entity": "http://www.wikidata.org/entity/Q113128639",
        "country_qid": "Q928"
      }
    },
    {
      "type": "Feature",
      "geometry": {
        "type": "Point",
        "coordinates": [
          120.98896,
          14.5886
        ]
      },
      "properties": {
        "label": "Manila Thermal Power Plant",
        "type": "Coal-fired power station",
        "entity": "http://www.wikidata.org/entity/Q6749710",
        "country_qid": "Q928"
      }
    },
    {
      "type": "Feature",
      "geometry": {
        "type": "Point",
        "coordinates": [
          121.745317,
          13.8940148
        ]
      },
      "properties": {
        "label": "Pagbilao Power Station",
        "type": "Coal-fired power station",
        "entity": "http://www.wikidata.org/entity/Q104857140",
        "country_qid": "Q928"
      }
    },
    {
      "type": "Feature",
      "geometry": {
        "type": "Point",
        "coordinates": [
          119.9227372,
          15.5639239
        ]
      },
      "properties": {
        "label": "Masinloc Power Plant",
        "type": "Coal-fired power station",
        "entity": "http://www.wikidata.org/entity/Q11988604",
        "country_qid": "Q928"
      }
    },
    {
      "type": "Feature",
      "geometry": {
        "type": "Point",
        "coordinates": [
          120.826861111,
          13.919083333
        ]
      },
      "properties": {
        "label": "SLTEC Calaca Power Station",
        "type": "Coal-fired power station",
        "entity": "http://www.wikidata.org/entity/Q123982775",
        "country_qid": "Q928"
      }
    },
    {
      "type": "Feature",
      "geometry": {
        "type": "Point",
        "coordinates": [
          120.536583333,
          14.424777777
        ]
      },
      "properties": {
        "label": "Mariveles Coal-Fired Power Plant",
        "type": "Coal-fired power station",
        "entity": "http://www.wikidata.org/entity/Q21852409",
        "country_qid": "Q928"
      }
    },
    {
      "type": "Feature",
      "geometry": {
        "type": "Point",
        "coordinates": [
          120.603472222,
          14.519861111
        ]
      },
      "properties": {
        "label": "Limay Coal Power Plant",
        "type": "Coal-fired power station",
        "entity": "http://www.wikidata.org/entity/Q117480272",
        "country_qid": "Q928"
      }
    }
  ]
}