{
  "type": "FeatureCollection",
  "features": [
    {
      "type": "Feature",
      "geometry": {
        "type": "Point",
        "coordinates": [
          27.6303,
          39.1936
        ]
      },
      "properties": {
        "label": "Soma A power station",
        "type": "Coal-fired power station",
        "entity": "http://www.wikidata.org/entity/Q97666430",
        "country_qid": "Q43"
      }
    },
    {
      "type": "Feature",
      "geometry": {
        "type": "Point",
        "coordinates": [
          37.005,
          38.3525
        ]
      },
      "properties": {
        "label": "Afşin-Elbistan C power station",
        "type": "Coal-fired power station",
        "entity": "http://www.wikidata.org/entity/Q60569577",
        "country_qid": "Q43"
      }
    },
    {
      "type": "Feature",
      "geometry": {
        "type": "Point",
        "coordinates": [
          30.8111143,
          40.2522067
        ]
      },
      "properties": {
        "label": "Bolu Göynük power station",
        "type": "Coal-fired power station",
        "entity": "http://www.wikidata.org/entity/Q97640811",
        "country_qid": "Q43"
      }
    },
    {
      "type": "Feature",
      "geometry": {
        "type": "Point",
        "coordinates": [
          27.635359833,
          39.19509
        ]
      },
      "properties": {
        "label": "Soma power station",
        "type": "Coal-fired power station",
        "entity": "http://www.wikidata.org/entity/Q56755056",
        "country_qid": "Q43"
      }
    },
    {
      "type": "Feature",
      "geometry": {
        "type": "Point",
        "coordinates": [
          26.929166666,
          38.741666666
        ]
      },
      "properties": {
        "label": "İzdemir power station",
        "type": "Coal-fired power station",
        "entity": "http://www.wikidata.org/entity/Q97642134",
        "country_qid": "Q43"
      }
    },
    {
      "type": "Feature",
      "geometry": {
        "type": "Point",
        "coordinates": [
          31.8862295,
          41.5032985
        ]
      },
      "properties": {
        "label": "ZETES 2",
        "type": "Coal-fired power station",
        "entity": "http://www.wikidata.org/entity/Q97709075",
        "country_qid": "Q43"
      }
    },
    {
      "type": "Feature",
      "geometry": {
        "type": "Point",
        "coordinates": [
          37.2951722,
          39.0777171
        ]
      },
      "properties": {
        "label": "Kangal power station",
        "type": "Coal-fired power station",
        "entity": "http://www.wikidata.org/entity/Q85773487",
        "country_qid": "Q43"
      }
    },
    {
      "type": "Feature",
      "geometry": {
        "type": "Point",
        "coordinates": [
          31.8953651,
          41.5074244
        ]
      },
      "properties": {
        "label": "ZETES 1",
        "type": "Coal-fired power station",
        "entity": "http://www.wikidata.org/entity/Q97708818",
        "country_qid": "Q43"
      }
    },
    {
      "type": "Feature",
      "geometry": {
        "type": "Point",
        "coordinates": [
          26.9744,
          40.0218
        ]
      },
      "properties": {
        "label": "18 Mart Çan power station",
        "type": "Coal-fired power station",
        "entity": "http://www.wikidata.org/entity/Q97613544",
        "country_qid": "Q43"
      }
    },
    {
      "type": "Feature",
      "geometry": {
        "type": "Point",
        "coordinates": [
          31.8895554,
          41.5057492
        ]
      },
      "properties": {
        "label": "ZETES power stations",
        "type": "Coal-fired power station",
        "entity": "http://www.wikidata.org/entity/Q60313985",
        "country_qid": "Q43"
      }
    },
    {
      "type": "Feature",
      "geometry": {
        "type": "Point",
        "coordinates": [
          37.025,
          38.3475
        ]
      },
      "properties": {
        "label": "Afşin-Elbistan A power station",
        "type": "Coal-fired power station",
        "entity": "http://www.wikidata.org/entity/Q85967587",
        "country_qid": "Q43"
      }
    },
    {
      "type": "Feature",
      "geometry": {
        "type": "Point",
        "coordinates": [
          27.9007,
          37.0355
        ]
      },
      "properties": {
        "label": "Kemerköy power station",
        "type": "Coal-fired power station",
        "entity": "http://www.wikidata.org/entity/Q31191365",
        "country_qid": "Q43"
      }
    },
    {
      "type": "Feature",
      "geometry": {
        "type": "Point",
        "coordinates": [
          27.1305334,
          40.4435505
        ]
      },
      "properties": {
        "label": "Bekirli‑1",
        "type": "Coal-fired power station",
        "entity": "http://www.wikidata.org/entity/Q97640059",
        "country_qid": "Q43"
      }
    },
    {
      "type": "Feature",
      "geometry": {
        "type": "Point",
        "coordinates": [
          35.85481,
          36.81609
        ]
      },
      "properties": {
        "label": "Emba Hunutlu power station",
        "type": "Coal-fired power station",
        "entity": "http://www.wikidata.org/entity/Q63656905",
        "country_qid": "Q43"
      }
    },
    {
      "type": "Feature",
      "geometry": {
        "type": "Point",
        "coordinates": [
          36.2686157,
          38.1856784
        ]
      },
      "properties": {
        "label": "Tufanbeyli power station",
        "type": "Coal-fired power station",
        "entity": "http://www.wikidata.org/entity/Q97666447",
        "country_qid": "Q43"
      }
    },
    {
      "type": "Feature",
      "geometry": {
        "type": "Point",
        "coordinates": [
          29.882336833,
          39.574254
        ]
      },
      "properties": {
        "label": "Seyitömer power station",
        "type": "Coal-fired power station",
        "entity": "http://www.wikidata.org/entity/Q85800540",
        "country_qid": "Q43"
      }
    },
    {
      "type": "Feature",
      "geometry": {
        "type": "Point",
        "coordinates": [
          26.9504928,
          40.0344576
        ]
      },
      "properties": {
        "label": "Çan-2 power station",
        "type": "Coal-fired power station",
        "entity": "http://www.wikidata.org/entity/Q97641152",
        "country_qid": "Q43"
      }
    },
    {
      "type": "Feature",
      "geometry": {
        "type": "Point",
        "coordinates": [
          36.20909,
          36.69028
        ]
      },
      "properties": {
        "label": "Atlas power station",
        "type": "Coal-fired power station",
        "entity": "http://www.wikidata.org/entity/Q97613608",
        "country_qid": "Q43"
      }
    },
    {
      "type": "Feature",
      "geometry": {
        "type": "Point",
        "coordinates": [
          27.7479887,
          39.3169103
        ]
      },
      "properties": {
        "label": "Soma Kolin power station",
        "type": "Coal-fired power station",
        "entity": "http://www.wikidata.org/entity/Q97666426",
        "country_qid": "Q43"
      }
    },
    {
      "type": "Feature",
      "geometry": {
        "type": "Point",
        "coordinates": [
          29.4431877,
          39.6160695
        ]
      },
      "properties": {
        "label": "Polat power station",
        "type": "Coal-fired power station",
        "entity": "http://www.wikidata.org/entity/Q97666406",
        "country_qid": "Q43"
      }
    },
    {
      "type": "Feature",
      "geometry": {
        "type": "Point",
        "coordinates": [
          29.4626,
          39.6281
        ]
      },
      "properties": {
        "label": "Tunçbilek power station",
        "type": "Coal-fired power station",
        "entity": "http://www.wikidata.org/entity/Q85811080",
        "country_qid": "Q43"
      }
    },
    {
      "type": "Feature",
      "geometry": {
        "type": "Point",
        "coordinates": [
          28.8708,
          39.9515
        ]
      },
      "properties": {
        "label": "Orhaneli power station",
        "type": "Coal-fired power station",
        "entity": "http://www.wikidata.org/entity/Q85973759",
        "country_qid": "Q43"
      }
    },
    {
      "type": "Feature",
      "geometry": {
        "type": "Point",
        "coordinates": [
          42.594696,
          37.3100249
        ]
      },
      "properties": {
        "label": "Şırnak Silopi power station",
        "type": "Coal-fired power station",
        "entity": "http://www.wikidata.org/entity/Q85817274",
        "country_qid": "Q43"
      }
    },
    {
      "type": "Feature",
      "geometry": {
        "type": "Point",
        "coordinates": [
          31.636111111,
          39.985
        ]
      },
      "properties": {
        "label": "Yunus Emre Power Station",
        "type": "Coal-fired power station",
        "entity": "http://www.wikidata.org/entity/Q97285076",
        "country_qid": "Q43"
      }
    },
    {
      "type": "Feature",
      "geometry": {
        "type": "Point",
        "coordinates": [
          27.04973,
          40.399529833
        ]
      },
      "properties": {
        "label": "Bekirli-2",
        "type": "Coal-fired power station",
        "entity": "http://www.wikidata.org/entity/Q97640270",
        "country_qid": "Q43"
      }
    },
    {
      "type": "Feature",
      "geometry": {
        "type": "Point",
        "coordinates": [
          31.9007027,
          41.5172137
        ]
      },
      "properties": {
        "label": "ZETES 3",
        "type": "Coal-fired power station",
        "entity": "http://www.wikidata.org/entity/Q97709205",
        "country_qid": "Q43"
      }
    },
    {
      "type": "Feature",
      "geometry": {
        "type": "Point",
        "coordinates": [
          27.3195,
          40.4201
        ]
      },
      "properties": {
        "label": "Cenal power station",
        "type": "Coal-fired power station",
        "entity": "http://www.wikidata.org/entity/Q97641013",
        "country_qid": "Q43"
      }
    },
    {
      "type": "Feature",
      "geometry": {
        "type": "Point",
        "coordinates": [
          35.88,
          36.835
        ]
      },
      "properties": {
        "label": "İsken Sugözü power station",
        "type": "Coal-fired power station",
        "entity": "http://www.wikidata.org/entity/Q85817252",
        "country_qid": "Q43"
      }
    },
    {
      "type": "Feature",
      "geometry": {
        "type": "Point",
        "coordinates": [
          28.1022,
          37.3314
        ]
      },
      "properties": {
        "label": "Yatağan Thermal Power Plant",
        "type": "Coal-fired power station",
        "entity": "http://www.wikidata.org/entity/Q12010956",
        "country_qid": "Q43"
      }
    },
    {
      "type": "Feature",
      "geometry": {
        "type": "Point",
        "coordinates": [
          27.87275,
          37.141
        ]
      },
      "properties": {
        "label": "Yeniköy power station",
        "type": "Coal-fired power station",
        "entity": "http://www.wikidata.org/entity/Q6022911",
        "country_qid": "Q43"
      }
    },
    {
      "type": "Feature",
      "geometry": {
        "type": "Point",
        "coordinates": [
          31.9007778,
          41.5173181
        ]
      },
      "properties": {
        "label": "Çatalağzı power station",
        "type": "Coal-fired power station",
        "entity": "http://www.wikidata.org/entity/Q6099668",
        "country_qid": "Q43"
      }
    },
    {
      "type": "Feature",
      "geometry": {
        "type": "Point",
        "coordinates": [
          31.695,
          40.097
        ]
      },
      "properties": {
        "label": "Çayırhan power station",
        "type": "Coal-fired power station",
        "entity": "http://www.wikidata.org/entity/Q6077955",
        "country_qid": "Q43"
      }
    },
    {
      "type": "Feature",
      "geometry": {
        "type": "Point",
        "coordinates": [
          36.98,
          38.3525
        ]
      },
      "properties": {
        "label": "Afşin-Elbistan B power station",
        "type": "Coal-fired power station",
        "entity": "http://www.wikidata.org/entity/Q6101862",
        "country_qid": "Q43"
      }
    }
  ]
}