{
  "type": "FeatureCollection",
  "features": [
    {
      "type": "Feature",
      "geometry": {
        "type": "Point",
        "coordinates": [
          152.9370717,
          -26.7069349
        ]
      },
      "properties": {
        "label": "Palmwoods",
        "type": "electrical substation",
        "substation": "http://www.wikidata.org/entity/Q29020045",
        "country_qid": "Q408"
      }
    },
    {
      "type": "Feature",
      "geometry": {
        "type": "Point",
        "coordinates": [
          152.785833333,
          -27.541388888
        ]
      },
      "properties": {
        "label": "Blackwall substation",
        "type": "electrical substation",
        "substation": "http://www.wikidata.org/entity/Q29020054",
        "country_qid": "Q408"
      }
    },
    {
      "type": "Feature",
      "geometry": {
        "type": "Point",
        "coordinates": [
          153.083055555,
          -27.39
        ]
      },
      "properties": {
        "label": "Nudgee",
        "type": "electrical substation",
        "substation": "http://www.wikidata.org/entity/Q29020059",
        "country_qid": "Q408"
      }
    },
    {
      "type": "Feature",
      "geometry": {
        "type": "Point",
        "coordinates": [
          150.628162,
          -24.3345432
        ]
      },
      "properties": {
        "label": "Callide A Power Station",
        "type": "electrical substation",
        "substation": "http://www.wikidata.org/entity/Q29020035",
        "country_qid": "Q408"
      }
    },
    {
      "type": "Feature",
      "geometry": {
        "type": "Point",
        "coordinates": [
          150.0655577,
          -24.5140298
        ]
      },
      "properties": {
        "label": "Moura",
        "type": "electrical substation",
        "substation": "http://www.wikidata.org/entity/Q29020042",
        "country_qid": "Q408"
      }
    },
    {
      "type": "Feature",
      "geometry": {
        "type": "Point",
        "coordinates": [
          150.5078716,
          -24.5015934
        ]
      },
      "properties": {
        "label": "Biloela",
        "type": "electrical substation",
        "substation": "http://www.wikidata.org/entity/Q29020041",
        "country_qid": "Q408"
      }
    },
    {
      "type": "Feature",
      "geometry": {
        "type": "Point",
        "coordinates": [
          152.970277777,
          -27.323888888
        ]
      },
      "properties": {
        "label": "South Pine substation",
        "type": "electrical substation",
        "substation": "http://www.wikidata.org/entity/Q29020062",
        "country_qid": "Q408"
      }
    },
    {
      "type": "Feature",
      "geometry": {
        "type": "Point",
        "coordinates": [
          153.050277777,
          -27.330833333
        ]
      },
      "properties": {
        "label": "Sandgate",
        "type": "electrical substation",
        "substation": "http://www.wikidata.org/entity/Q29020058",
        "country_qid": "Q408"
      }
    },
    {
      "type": "Feature",
      "geometry": {
        "type": "Point",
        "coordinates": [
          150.6271554,
          -24.342552
        ]
      },
      "properties": {
        "label": "Calvale",
        "type": "electrical substation",
        "substation": "http://www.wikidata.org/entity/Q29020034",
        "country_qid": "Q408"
      }
    },
    {
      "type": "Feature",
      "geometry": {
        "type": "Point",
        "coordinates": [
          153.018888888,
          -27.333611111
        ]
      },
      "properties": {
        "label": "Bald Hills substation",
        "type": "electrical substation",
        "substation": "http://www.wikidata.org/entity/Q29020057",
        "country_qid": "Q408"
      }
    },
    {
      "type": "Feature",
      "geometry": {
        "type": "Point",
        "coordinates": [
          147.2126543,
          -19.8384136
        ]
      },
      "properties": {
        "label": "Clare South",
        "type": "electrical substation",
        "substation": "http://www.wikidata.org/entity/Q29019942",
        "country_qid": "Q408"
      }
    },
    {
      "type": "Feature",
      "geometry": {
        "type": "Point",
        "coordinates": [
          149.2691846,
          -21.2962628
        ]
      },
      "properties": {
        "label": "Louisa Creek",
        "type": "electrical substation",
        "substation": "http://www.wikidata.org/entity/Q29019940",
        "country_qid": "Q408"
      }
    },
    {
      "type": "Feature",
      "geometry": {
        "type": "Point",
        "coordinates": [
          149.0398877,
          -23.5881904
        ]
      },
      "properties": {
        "label": "Bluff",
        "type": "electrical substation",
        "substation": "http://www.wikidata.org/entity/Q29019984",
        "country_qid": "Q408"
      }
    },
    {
      "type": "Feature",
      "geometry": {
        "type": "Point",
        "coordinates": [
          145.75029,
          -16.91381
        ]
      },
      "properties": {
        "label": "Cairns North",
        "type": "electrical substation",
        "substation": "http://www.wikidata.org/entity/Q29019928",
        "country_qid": "Q408"
      }
    },
    {
      "type": "Feature",
      "geometry": {
        "type": "Point",
        "coordinates": [
          148.4061474,
          -22.5474349
        ]
      },
      "properties": {
        "label": "Dysart",
        "type": "electrical substation",
        "substation": "http://www.wikidata.org/entity/Q29019961",
        "country_qid": "Q408"
      }
    },
    {
      "type": "Feature",
      "geometry": {
        "type": "Point",
        "coordinates": [
          149.4040046,
          -22.8207428
        ]
      },
      "properties": {
        "label": "Broadsound",
        "type": "electrical substation",
        "substation": "http://www.wikidata.org/entity/Q29019969",
        "country_qid": "Q408"
      }
    },
    {
      "type": "Feature",
      "geometry": {
        "type": "Point",
        "coordinates": [
          146.72644,
          -19.40428
        ]
      },
      "properties": {
        "label": "Ross",
        "type": "electrical substation",
        "substation": "http://www.wikidata.org/entity/Q29019918",
        "country_qid": "Q408"
      }
    },
    {
      "type": "Feature",
      "geometry": {
        "type": "Point",
        "coordinates": [
          152.2997412,
          -24.9171967
        ]
      },
      "properties": {
        "label": "Bundaberg",
        "type": "electrical substation",
        "substation": "http://www.wikidata.org/entity/Q29020017",
        "country_qid": "Q408"
      }
    },
    {
      "type": "Feature",
      "geometry": {
        "type": "Point",
        "coordinates": [
          148.5396935,
          -20.3885288
        ]
      },
      "properties": {
        "label": "Proserpine",
        "type": "electrical substation",
        "substation": "http://www.wikidata.org/entity/Q29019935",
        "country_qid": "Q408"
      }
    },
    {
      "type": "Feature",
      "geometry": {
        "type": "Point",
        "coordinates": [
          148.42548,
          -23.13795
        ]
      },
      "properties": {
        "label": "Gregory",
        "type": "electrical substation",
        "substation": "http://www.wikidata.org/entity/Q29019982",
        "country_qid": "Q408"
      }
    },
    {
      "type": "Feature",
      "geometry": {
        "type": "Point",
        "coordinates": [
          147.8055428,
          -20.5427889
        ]
      },
      "properties": {
        "label": "Collinsville North",
        "type": "electrical substation",
        "substation": "http://www.wikidata.org/entity/Q29019952",
        "country_qid": "Q408"
      }
    },
    {
      "type": "Feature",
      "geometry": {
        "type": "Point",
        "coordinates": [
          145.57896,
          -17.76738
        ]
      },
      "properties": {
        "label": "Kareeya Power Station",
        "type": "electrical substation",
        "substation": "http://www.wikidata.org/entity/Q29019924",
        "country_qid": "Q408"
      }
    },
    {
      "type": "Feature",
      "geometry": {
        "type": "Point",
        "coordinates": [
          147.7753451,
          -20.4993268
        ]
      },
      "properties": {
        "label": "Strathmore",
        "type": "electrical substation",
        "substation": "http://www.wikidata.org/entity/Q29019949",
        "country_qid": "Q408"
      }
    },
    {
      "type": "Feature",
      "geometry": {
        "type": "Point",
        "coordinates": [
          145.3425571,
          -16.6939858
        ]
      },
      "properties": {
        "label": "Yalkula",
        "type": "electrical substation",
        "substation": "http://www.wikidata.org/entity/Q29019930",
        "country_qid": "Q408"
      }
    },
    {
      "type": "Feature",
      "geometry": {
        "type": "Point",
        "coordinates": [
          149.6790691,
          -23.710744
        ]
      },
      "properties": {
        "label": "Duringa",
        "type": "electrical substation",
        "substation": "http://www.wikidata.org/entity/Q29019988",
        "country_qid": "Q408"
      }
    },
    {
      "type": "Feature",
      "geometry": {
        "type": "Point",
        "coordinates": [
          147.61112,
          -22.84955
        ]
      },
      "properties": {
        "label": "Clermont",
        "type": "electrical substation",
        "substation": "http://www.wikidata.org/entity/Q29019981",
        "country_qid": "Q408"
      }
    },
    {
      "type": "Feature",
      "geometry": {
        "type": "Point",
        "coordinates": [
          145.7767235,
          -16.9266608
        ]
      },
      "properties": {
        "label": "Cairns City",
        "type": "electrical substation",
        "substation": "http://www.wikidata.org/entity/Q29019927",
        "country_qid": "Q408"
      }
    },
    {
      "type": "Feature",
      "geometry": {
        "type": "Point",
        "coordinates": [
          147.942100111,
          -21.288238888
        ]
      },
      "properties": {
        "label": "Newlands",
        "type": "electrical substation",
        "substation": "http://www.wikidata.org/entity/Q29019953",
        "country_qid": "Q408"
      }
    },
    {
      "type": "Feature",
      "geometry": {
        "type": "Point",
        "coordinates": [
          147.8929359,
          -20.9565399
        ]
      },
      "properties": {
        "label": "Stony Creek",
        "type": "electrical substation",
        "substation": "http://www.wikidata.org/entity/Q29019965",
        "country_qid": "Q408"
      }
    },
    {
      "type": "Feature",
      "geometry": {
        "type": "Point",
        "coordinates": [
          146.02562,
          -17.80984
        ]
      },
      "properties": {
        "label": "El Arish",
        "type": "electrical substation",
        "substation": "http://www.wikidata.org/entity/Q29019921",
        "country_qid": "Q408"
      }
    },
    {
      "type": "Feature",
      "geometry": {
        "type": "Point",
        "coordinates": [
          148.0234023,
          -21.7179929
        ]
      },
      "properties": {
        "label": "North Goonyella",
        "type": "electrical substation",
        "substation": "http://www.wikidata.org/entity/Q29019966",
        "country_qid": "Q408"
      }
    },
    {
      "type": "Feature",
      "geometry": {
        "type": "Point",
        "coordinates": [
          149.4093432,
          -23.6597041
        ]
      },
      "properties": {
        "label": "Dingo",
        "type": "electrical substation",
        "substation": "http://www.wikidata.org/entity/Q29019987",
        "country_qid": "Q408"
      }
    },
    {
      "type": "Feature",
      "geometry": {
        "type": "Point",
        "coordinates": [
          148.2080377,
          -22.2320342
        ]
      },
      "properties": {
        "label": "Peak Downs",
        "type": "electrical substation",
        "substation": "http://www.wikidata.org/entity/Q29019960",
        "country_qid": "Q408"
      }
    },
    {
      "type": "Feature",
      "geometry": {
        "type": "Point",
        "coordinates": [
          151.1925871,
          -23.8559887
        ]
      },
      "properties": {
        "label": "Calliope River",
        "type": "electrical substation",
        "substation": "http://www.wikidata.org/entity/Q29019994",
        "country_qid": "Q408"
      }
    },
    {
      "type": "Feature",
      "geometry": {
        "type": "Point",
        "coordinates": [
          145.97323,
          -17.5352
        ]
      },
      "properties": {
        "label": "Innisfail",
        "type": "electrical substation",
        "substation": "http://www.wikidata.org/entity/Q29019923",
        "country_qid": "Q408"
      }
    },
    {
      "type": "Feature",
      "geometry": {
        "type": "Point",
        "coordinates": [
          145.45789,
          -16.53087
        ]
      },
      "properties": {
        "label": "Craiglie",
        "type": "electrical substation",
        "substation": "http://www.wikidata.org/entity/Q29019929",
        "country_qid": "Q408"
      }
    },
    {
      "type": "Feature",
      "geometry": {
        "type": "Point",
        "coordinates": [
          148.1674989,
          -20.018175
        ]
      },
      "properties": {
        "label": "Bowen North",
        "type": "electrical substation",
        "substation": "http://www.wikidata.org/entity/Q29019943",
        "country_qid": "Q408"
      }
    },
    {
      "type": "Feature",
      "geometry": {
        "type": "Point",
        "coordinates": [
          148.6787646,
          -24.1346046
        ]
      },
      "properties": {
        "label": "Memooloo",
        "type": "electrical substation",
        "substation": "http://www.wikidata.org/entity/Q29019990",
        "country_qid": "Q408"
      }
    },
    {
      "type": "Feature",
      "geometry": {
        "type": "Point",
        "coordinates": [
          149.0141456,
          -21.1596209
        ]
      },
      "properties": {
        "label": "Pioneer Valley",
        "type": "electrical substation",
        "substation": "http://www.wikidata.org/entity/Q29019944",
        "country_qid": "Q408"
      }
    },
    {
      "type": "Feature",
      "geometry": {
        "type": "Point",
        "coordinates": [
          145.7517481,
          -16.9560721
        ]
      },
      "properties": {
        "label": "Woree",
        "type": "electrical substation",
        "substation": "http://www.wikidata.org/entity/Q29019926",
        "country_qid": "Q408"
      }
    },
    {
      "type": "Feature",
      "geometry": {
        "type": "Point",
        "coordinates": [
          148.3526846,
          -21.9131634
        ]
      },
      "properties": {
        "label": "Coppabella",
        "type": "electrical substation",
        "substation": "http://www.wikidata.org/entity/Q29019956",
        "country_qid": "Q408"
      }
    },
    {
      "type": "Feature",
      "geometry": {
        "type": "Point",
        "coordinates": [
          145.7547804,
          -16.9461564
        ]
      },
      "properties": {
        "label": "Cairns",
        "type": "electrical substation",
        "substation": "http://www.wikidata.org/entity/Q29019925",
        "country_qid": "Q408"
      }
    },
    {
      "type": "Feature",
      "geometry": {
        "type": "Point",
        "coordinates": [
          148.0961068,
          -21.9372676
        ]
      },
      "properties": {
        "label": "Wotonga",
        "type": "electrical substation",
        "substation": "http://www.wikidata.org/entity/Q29019957",
        "country_qid": "Q408"
      }
    },
    {
      "type": "Feature",
      "geometry": {
        "type": "Point",
        "coordinates": [
          145.31234,
          -23.55142
        ]
      },
      "properties": {
        "label": "Barcaldine",
        "type": "electrical substation",
        "substation": "http://www.wikidata.org/entity/Q29019989",
        "country_qid": "Q408"
      }
    },
    {
      "type": "Feature",
      "geometry": {
        "type": "Point",
        "coordinates": [
          148.4360596,
          -24.3894919
        ]
      },
      "properties": {
        "label": "Rolleston",
        "type": "electrical substation",
        "substation": "http://www.wikidata.org/entity/Q29019991",
        "country_qid": "Q408"
      }
    },
    {
      "type": "Feature",
      "geometry": {
        "type": "Point",
        "coordinates": [
          149.1914948,
          -21.324268
        ]
      },
      "properties": {
        "label": "Alligator Creek",
        "type": "electrical substation",
        "substation": "http://www.wikidata.org/entity/Q29019938",
        "country_qid": "Q408"
      }
    },
    {
      "type": "Feature",
      "geometry": {
        "type": "Point",
        "coordinates": [
          147.6992216,
          -22.4785741
        ]
      },
      "properties": {
        "label": "Mt McLaren",
        "type": "electrical substation",
        "substation": "http://www.wikidata.org/entity/Q29019963",
        "country_qid": "Q408"
      }
    },
    {
      "type": "Feature",
      "geometry": {
        "type": "Point",
        "coordinates": [
          146.57456,
          -19.25115
        ]
      },
      "properties": {
        "label": "Yabulu South",
        "type": "electrical substation",
        "substation": "http://www.wikidata.org/entity/Q29019920",
        "country_qid": "Q408"
      }
    },
    {
      "type": "Feature",
      "geometry": {
        "type": "Point",
        "coordinates": [
          152.2585103,
          -26.0813701
        ]
      },
      "properties": {
        "label": "Kilkivan",
        "type": "electrical substation",
        "substation": "http://www.wikidata.org/entity/Q29020028",
        "country_qid": "Q408"
      }
    },
    {
      "type": "Feature",
      "geometry": {
        "type": "Point",
        "coordinates": [
          148.4887774,
          -21.7993927
        ]
      },
      "properties": {
        "label": "Kemmis",
        "type": "electrical substation",
        "substation": "http://www.wikidata.org/entity/Q29019954",
        "country_qid": "Q408"
      }
    },
    {
      "type": "Feature",
      "geometry": {
        "type": "Point",
        "coordinates": [
          144.143116,
          -18.8745052
        ]
      },
      "properties": {
        "label": "Kidston substation",
        "type": "electrical substation",
        "substation": "http://www.wikidata.org/entity/Q29019919",
        "country_qid": "Q408"
      }
    },
    {
      "type": "Feature",
      "geometry": {
        "type": "Point",
        "coordinates": [
          148.0248658,
          -21.9865254
        ]
      },
      "properties": {
        "label": "Moranbah",
        "type": "electrical substation",
        "substation": "http://www.wikidata.org/entity/Q29019962",
        "country_qid": "Q408"
      }
    },
    {
      "type": "Feature",
      "geometry": {
        "type": "Point",
        "coordinates": [
          149.158749,
          -21.1451114
        ]
      },
      "properties": {
        "label": "Mackay",
        "type": "electrical substation",
        "substation": "http://www.wikidata.org/entity/Q29019936",
        "country_qid": "Q408"
      }
    },
    {
      "type": "Feature",
      "geometry": {
        "type": "Point",
        "coordinates": [
          147.1074282,
          -19.5172319
        ]
      },
      "properties": {
        "label": "Invicta Mill",
        "type": "electrical substation",
        "substation": "http://www.wikidata.org/entity/Q29019941",
        "country_qid": "Q408"
      }
    },
    {
      "type": "Feature",
      "geometry": {
        "type": "Point",
        "coordinates": [
          147.9920133,
          -22.0603127
        ]
      },
      "properties": {
        "label": "Moranbah South",
        "type": "electrical substation",
        "substation": "http://www.wikidata.org/entity/Q29019968",
        "country_qid": "Q408"
      }
    },
    {
      "type": "Feature",
      "geometry": {
        "type": "Point",
        "coordinates": [
          149.8742588,
          -24.1908348
        ]
      },
      "properties": {
        "label": "Baralaba",
        "type": "electrical substation",
        "substation": "http://www.wikidata.org/entity/Q29020002",
        "country_qid": "Q408"
      }
    },
    {
      "type": "Feature",
      "geometry": {
        "type": "Point",
        "coordinates": [
          148.885376,
          -21.7759965
        ]
      },
      "properties": {
        "label": "Wandoo",
        "type": "electrical substation",
        "substation": "http://www.wikidata.org/entity/Q29019950",
        "country_qid": "Q408"
      }
    },
    {
      "type": "Feature",
      "geometry": {
        "type": "Point",
        "coordinates": [
          149.2208715,
          -21.4228618
        ]
      },
      "properties": {
        "label": "Oonooie",
        "type": "electrical substation",
        "substation": "http://www.wikidata.org/entity/Q29019939",
        "country_qid": "Q408"
      }
    },
    {
      "type": "Feature",
      "geometry": {
        "type": "Point",
        "coordinates": [
          148.8258862,
          -23.5871928
        ]
      },
      "properties": {
        "label": "Blackwater",
        "type": "electrical substation",
        "substation": "http://www.wikidata.org/entity/Q29019983",
        "country_qid": "Q408"
      }
    },
    {
      "type": "Feature",
      "geometry": {
        "type": "Point",
        "coordinates": [
          146.2804194,
          -20.1013418
        ]
      },
      "properties": {
        "label": "Millchester",
        "type": "electrical substation",
        "substation": "http://www.wikidata.org/entity/Q29019917",
        "country_qid": "Q408"
      }
    },
    {
      "type": "Feature",
      "geometry": {
        "type": "Point",
        "coordinates": [
          147.4728471,
          -20.3652769
        ]
      },
      "properties": {
        "label": "King Creek",
        "type": "electrical substation",
        "substation": "http://www.wikidata.org/entity/Q29019951",
        "country_qid": "Q408"
      }
    },
    {
      "type": "Feature",
      "geometry": {
        "type": "Point",
        "coordinates": [
          148.1890619,
          -22.1749633
        ]
      },
      "properties": {
        "label": "Eagle Downs",
        "type": "electrical substation",
        "substation": "http://www.wikidata.org/entity/Q29019959",
        "country_qid": "Q408"
      }
    },
    {
      "type": "Feature",
      "geometry": {
        "type": "Point",
        "coordinates": [
          148.6831807,
          -21.6315124
        ]
      },
      "properties": {
        "label": "Nebo",
        "type": "electrical substation",
        "substation": "http://www.wikidata.org/entity/Q29019947",
        "country_qid": "Q408"
      }
    },
    {
      "type": "Feature",
      "geometry": {
        "type": "Point",
        "coordinates": [
          148.4414386,
          -22.7056037
        ]
      },
      "properties": {
        "label": "Norwich Park",
        "type": "electrical substation",
        "substation": "http://www.wikidata.org/entity/Q29019975",
        "country_qid": "Q408"
      }
    },
    {
      "type": "Feature",
      "geometry": {
        "type": "Point",
        "coordinates": [
          145.435167,
          -17.0629197
        ]
      },
      "properties": {
        "label": "Turkinje",
        "type": "electrical substation",
        "substation": "http://www.wikidata.org/entity/Q29019931",
        "country_qid": "Q408"
      }
    },
    {
      "type": "Feature",
      "geometry": {
        "type": "Point",
        "coordinates": [
          148.42826,
          -23.12925
        ]
      },
      "properties": {
        "label": "Lilyvale",
        "type": "electrical substation",
        "substation": "http://www.wikidata.org/entity/Q29019976",
        "country_qid": "Q408"
      }
    },
    {
      "type": "Feature",
      "geometry": {
        "type": "Point",
        "coordinates": [
          146.85098,
          -19.33781
        ]
      },
      "properties": {
        "label": "Mt Stuart GT Power Station",
        "type": "electrical substation",
        "substation": "http://www.wikidata.org/entity/Q29019916",
        "country_qid": "Q408"
      }
    },
    {
      "type": "Feature",
      "geometry": {
        "type": "Point",
        "coordinates": [
          149.2764338,
          -21.3024793
        ]
      },
      "properties": {
        "label": "Mackay Ports",
        "type": "electrical substation",
        "substation": "http://www.wikidata.org/entity/Q29019937",
        "country_qid": "Q408"
      }
    },
    {
      "type": "Feature",
      "geometry": {
        "type": "Point",
        "coordinates": [
          148.2103421,
          -21.6917656
        ]
      },
      "properties": {
        "label": "Burton Downs",
        "type": "electrical substation",
        "substation": "http://www.wikidata.org/entity/Q29019955",
        "country_qid": "Q408"
      }
    },
    {
      "type": "Feature",
      "geometry": {
        "type": "Point",
        "coordinates": [
          145.75091,
          -17.00239
        ]
      },
      "properties": {
        "label": "Edmonton",
        "type": "electrical substation",
        "substation": "http://www.wikidata.org/entity/Q29019922",
        "country_qid": "Q408"
      }
    },
    {
      "type": "Feature",
      "geometry": {
        "type": "Point",
        "coordinates": [
          145.52659,
          -17.80076
        ]
      },
      "properties": {
        "label": "Chalumbin",
        "type": "electrical substation",
        "substation": "http://www.wikidata.org/entity/Q29019934",
        "country_qid": "Q408"
      }
    },
    {
      "type": "Feature",
      "geometry": {
        "type": "Point",
        "coordinates": [
          152.818055555,
          -27.594166666
        ]
      },
      "properties": {
        "label": "Bundamba substation",
        "type": "electrical substation",
        "substation": "http://www.wikidata.org/entity/Q29020141",
        "country_qid": "Q408"
      }
    },
    {
      "type": "Feature",
      "geometry": {
        "type": "Point",
        "coordinates": [
          150.924722222,
          -31.131666666
        ]
      },
      "properties": {
        "label": "Tamworth",
        "type": "electrical substation",
        "substation": "http://www.wikidata.org/entity/Q29020223",
        "country_qid": "Q408"
      }
    },
    {
      "type": "Feature",
      "geometry": {
        "type": "Point",
        "coordinates": [
          153.131111111,
          -27.664444444
        ]
      },
      "properties": {
        "label": "Loganlea",
        "type": "electrical substation",
        "substation": "http://www.wikidata.org/entity/Q29020168",
        "country_qid": "Q408"
      }
    },
    {
      "type": "Feature",
      "geometry": {
        "type": "Point",
        "coordinates": [
          150.808888888,
          -33.900555555
        ]
      },
      "properties": {
        "label": "Kemps Creek substation",
        "type": "electrical substation",
        "substation": "http://www.wikidata.org/entity/Q29020261",
        "country_qid": "Q408"
      }
    },
    {
      "type": "Feature",
      "geometry": {
        "type": "Point",
        "coordinates": [
          151.525,
          -33.049722222
        ]
      },
      "properties": {
        "label": "Eraring 132 substation",
        "type": "electrical substation",
        "substation": "http://www.wikidata.org/entity/Q29020254",
        "country_qid": "Q408"
      }
    },
    {
      "type": "Feature",
      "geometry": {
        "type": "Point",
        "coordinates": [
          151.074444444,
          -33.856388888
        ]
      },
      "properties": {
        "label": "Mason Park substation",
        "type": "electrical substation",
        "substation": "http://www.wikidata.org/entity/Q29020277",
        "country_qid": "Q408"
      }
    },
    {
      "type": "Feature",
      "geometry": {
        "type": "Point",
        "coordinates": [
          151.561666666,
          -32.927777777
        ]
      },
      "properties": {
        "label": "Newcastle substation",
        "type": "electrical substation",
        "substation": "http://www.wikidata.org/entity/Q29020253",
        "country_qid": "Q408"
      }
    },
    {
      "type": "Feature",
      "geometry": {
        "type": "Point",
        "coordinates": [
          151.065833333,
          -33.878888888
        ]
      },
      "properties": {
        "label": "Chullora substation",
        "type": "electrical substation",
        "substation": "http://www.wikidata.org/entity/Q29020278",
        "country_qid": "Q408"
      }
    },
    {
      "type": "Feature",
      "geometry": {
        "type": "Point",
        "coordinates": [
          151.115833333,
          -33.921666666
        ]
      },
      "properties": {
        "label": "Canterbury substation",
        "type": "electrical substation",
        "substation": "http://www.wikidata.org/entity/Q29020285",
        "country_qid": "Q408"
      }
    },
    {
      "type": "Feature",
      "geometry": {
        "type": "Point",
        "coordinates": [
          151.204166666,
          -33.903055555
        ]
      },
      "properties": {
        "label": "Zetland",
        "type": "electrical substation",
        "substation": "http://www.wikidata.org/entity/Q29020305",
        "country_qid": "Q408"
      }
    },
    {
      "type": "Feature",
      "geometry": {
        "type": "Point",
        "coordinates": [
          151.515555555,
          -33.061666666
        ]
      },
      "properties": {
        "label": "Eraring substation",
        "type": "electrical substation",
        "substation": "http://www.wikidata.org/entity/Q29020256",
        "country_qid": "Q408"
      }
    },
    {
      "type": "Feature",
      "geometry": {
        "type": "Point",
        "coordinates": [
          149.095555555,
          -35.384166666
        ]
      },
      "properties": {
        "label": "Wanniassa",
        "type": "electrical substation",
        "substation": "http://www.wikidata.org/entity/Q29020413",
        "country_qid": "Q408"
      }
    },
    {
      "type": "Feature",
      "geometry": {
        "type": "Point",
        "coordinates": [
          149.15007,
          -35.26937
        ]
      },
      "properties": {
        "label": "City East",
        "type": "electrical substation",
        "substation": "http://www.wikidata.org/entity/Q29020411",
        "country_qid": "Q408"
      }
    },
    {
      "type": "Feature",
      "geometry": {
        "type": "Point",
        "coordinates": [
          149.0377,
          -35.21534
        ]
      },
      "properties": {
        "label": "Latham",
        "type": "electrical substation",
        "substation": "http://www.wikidata.org/entity/Q29020421",
        "country_qid": "Q408"
      }
    },
    {
      "type": "Feature",
      "geometry": {
        "type": "Point",
        "coordinates": [
          148.996944444,
          -35.219166666
        ]
      },
      "properties": {
        "label": "Canberra",
        "type": "electrical substation",
        "substation": "http://www.wikidata.org/entity/Q29020412",
        "country_qid": "Q408"
      }
    },
    {
      "type": "Feature",
      "geometry": {
        "type": "Point",
        "coordinates": [
          149.11667,
          -35.17234
        ]
      },
      "properties": {
        "label": "Gold Creek",
        "type": "electrical substation",
        "substation": "http://www.wikidata.org/entity/Q29020420",
        "country_qid": "Q408"
      }
    },
    {
      "type": "Feature",
      "geometry": {
        "type": "Point",
        "coordinates": [
          149.10873,
          -35.24625
        ]
      },
      "properties": {
        "label": "Bruce",
        "type": "electrical substation",
        "substation": "http://www.wikidata.org/entity/Q29020416",
        "country_qid": "Q408"
      }
    },
    {
      "type": "Feature",
      "geometry": {
        "type": "Point",
        "coordinates": [
          149.08229,
          -35.22902
        ]
      },
      "properties": {
        "label": "Belconnen",
        "type": "electrical substation",
        "substation": "http://www.wikidata.org/entity/Q29020417",
        "country_qid": "Q408"
      }
    },
    {
      "type": "Feature",
      "geometry": {
        "type": "Point",
        "coordinates": [
          149.109,
          -35.26954
        ]
      },
      "properties": {
        "label": "Civic",
        "type": "electrical substation",
        "substation": "http://www.wikidata.org/entity/Q29020414",
        "country_qid": "Q408"
      }
    },
    {
      "type": "Feature",
      "geometry": {
        "type": "Point",
        "coordinates": [
          149.3981961,
          -34.7952732
        ]
      },
      "properties": {
        "label": "Cullerin Range",
        "type": "electrical substation",
        "substation": "http://www.wikidata.org/entity/Q29020395",
        "country_qid": "Q408"
      }
    },
    {
      "type": "Feature",
      "geometry": {
        "type": "Point",
        "coordinates": [
          146.396388888,
          -34.602777777
        ]
      },
      "properties": {
        "label": "Yanco",
        "type": "electrical substation",
        "substation": "http://www.wikidata.org/entity/Q29020427",
        "country_qid": "Q408"
      }
    },
    {
      "type": "Feature",
      "geometry": {
        "type": "Point",
        "coordinates": [
          148.385833333,
          -35.911111111
        ]
      },
      "properties": {
        "label": "Upper Tumut",
        "type": "electrical substation",
        "substation": "http://www.wikidata.org/entity/Q29020450",
        "country_qid": "Q408"
      }
    },
    {
      "type": "Feature",
      "geometry": {
        "type": "Point",
        "coordinates": [
          149.14903,
          -35.31528
        ]
      },
      "properties": {
        "label": "Causeway",
        "type": "electrical substation",
        "substation": "http://www.wikidata.org/entity/Q29020410",
        "country_qid": "Q408"
      }
    },
    {
      "type": "Feature",
      "geometry": {
        "type": "Point",
        "coordinates": [
          148.509166666,
          -36.294444444
        ]
      },
      "properties": {
        "label": "Snowy Adit",
        "type": "electrical substation",
        "substation": "http://www.wikidata.org/entity/Q29020402",
        "country_qid": "Q408"
      }
    },
    {
      "type": "Feature",
      "geometry": {
        "type": "Point",
        "coordinates": [
          151.013055555,
          -33.978611111
        ]
      },
      "properties": {
        "label": "Sydney South substation",
        "type": "electrical substation",
        "substation": "http://www.wikidata.org/entity/Q29020351",
        "country_qid": "Q408"
      }
    },
    {
      "type": "Feature",
      "geometry": {
        "type": "Point",
        "coordinates": [
          149.14,
          -36.218055555
        ]
      },
      "properties": {
        "label": "Cooma",
        "type": "electrical substation",
        "substation": "http://www.wikidata.org/entity/Q29020401",
        "country_qid": "Q408"
      }
    },
    {
      "type": "Feature",
      "geometry": {
        "type": "Point",
        "coordinates": [
          150.743888888,
          -34.4475
        ]
      },
      "properties": {
        "label": "Avon substation",
        "type": "electrical substation",
        "substation": "http://www.wikidata.org/entity/Q29020378",
        "country_qid": "Q408"
      }
    },
    {
      "type": "Feature",
      "geometry": {
        "type": "Point",
        "coordinates": [
          149.16451,
          -35.3153
        ]
      },
      "properties": {
        "label": "East Lake",
        "type": "electrical substation",
        "substation": "http://www.wikidata.org/entity/Q29020415",
        "country_qid": "Q408"
      }
    },
    {
      "type": "Feature",
      "geometry": {
        "type": "Point",
        "coordinates": [
          148.288611111,
          -35.606666666
        ]
      },
      "properties": {
        "label": "Lower Tumut",
        "type": "electrical substation",
        "substation": "http://www.wikidata.org/entity/Q29020446",
        "country_qid": "Q408"
      }
    },
    {
      "type": "Feature",
      "geometry": {
        "type": "Point",
        "coordinates": [
          150.781111111,
          -34.534166666
        ]
      },
      "properties": {
        "label": "Dapto substation",
        "type": "electrical substation",
        "substation": "http://www.wikidata.org/entity/Q29020357",
        "country_qid": "Q408"
      }
    },
    {
      "type": "Feature",
      "geometry": {
        "type": "Point",
        "coordinates": [
          149.070555555,
          -35.333888888
        ]
      },
      "properties": {
        "label": "Woden",
        "type": "electrical substation",
        "substation": "http://www.wikidata.org/entity/Q29020419",
        "country_qid": "Q408"
      }
    },
    {
      "type": "Feature",
      "geometry": {
        "type": "Point",
        "coordinates": [
          150.766111111,
          -34.085277777
        ]
      },
      "properties": {
        "label": "Macarthur substation",
        "type": "electrical substation",
        "substation": "http://www.wikidata.org/entity/Q29020384",
        "country_qid": "Q408"
      }
    },
    {
      "type": "Feature",
      "geometry": {
        "type": "Point",
        "coordinates": [
          149.133333333,
          -35.585277777
        ]
      },
      "properties": {
        "label": "Williamsdale",
        "type": "electrical substation",
        "substation": "http://www.wikidata.org/entity/Q29020399",
        "country_qid": "Q408"
      }
    },
    {
      "type": "Feature",
      "geometry": {
        "type": "Point",
        "coordinates": [
          149.117222222,
          -35.459722222
        ]
      },
      "properties": {
        "label": "Theodore",
        "type": "electrical substation",
        "substation": "http://www.wikidata.org/entity/Q29020400",
        "country_qid": "Q408"
      }
    },
    {
      "type": "Feature",
      "geometry": {
        "type": "Point",
        "coordinates": [
          149.141388888,
          -35.410277777
        ]
      },
      "properties": {
        "label": "Gilmore",
        "type": "electrical substation",
        "substation": "http://www.wikidata.org/entity/Q29020409",
        "country_qid": "Q408"
      }
    },
    {
      "type": "Feature",
      "geometry": {
        "type": "Point",
        "coordinates": [
          148.411666666,
          -36.351111111
        ]
      },
      "properties": {
        "label": "Munyang",
        "type": "electrical substation",
        "substation": "http://www.wikidata.org/entity/Q29020404",
        "country_qid": "Q408"
      }
    },
    {
      "type": "Feature",
      "geometry": {
        "type": "Point",
        "coordinates": [
          143.847222222,
          -37.534722222
        ]
      },
      "properties": {
        "label": "Ballarat North",
        "type": "electrical substation",
        "substation": "http://www.wikidata.org/entity/Q29020459",
        "country_qid": "Q408"
      }
    },
    {
      "type": "Feature",
      "geometry": {
        "type": "Point",
        "coordinates": [
          146.608055555,
          -38.2625
        ]
      },
      "properties": {
        "label": "Basslink L.C.",
        "type": "electrical substation",
        "substation": "http://www.wikidata.org/entity/Q29020540",
        "country_qid": "Q408"
      }
    },
    {
      "type": "Feature",
      "geometry": {
        "type": "Point",
        "coordinates": [
          143.921666666,
          -37.5675
        ]
      },
      "properties": {
        "label": "Ballarat",
        "type": "electrical substation",
        "substation": "http://www.wikidata.org/entity/Q29020460",
        "country_qid": "Q408"
      }
    },
    {
      "type": "Feature",
      "geometry": {
        "type": "Point",
        "coordinates": [
          147.18564,
          -36.75999
        ]
      },
      "properties": {
        "label": "West Kiewa",
        "type": "electrical substation",
        "substation": "http://www.wikidata.org/entity/Q29020523",
        "country_qid": "Q408"
      }
    },
    {
      "type": "Feature",
      "geometry": {
        "type": "Point",
        "coordinates": [
          145.949027777,
          -38.746944444
        ]
      },
      "properties": {
        "label": "Bald Hills (Wind Farm) substation",
        "type": "electrical substation",
        "substation": "http://www.wikidata.org/entity/Q29020554",
        "country_qid": "Q408"
      }
    },
    {
      "type": "Feature",
      "geometry": {
        "type": "Point",
        "coordinates": [
          144.747777777,
          -37.676388888
        ]
      },
      "properties": {
        "label": "Sydenham substation",
        "type": "electrical substation",
        "substation": "http://www.wikidata.org/entity/Q29020482",
        "country_qid": "Q408"
      }
    },
    {
      "type": "Feature",
      "geometry": {
        "type": "Point",
        "coordinates": [
          146.70308,
          -36.56537
        ]
      },
      "properties": {
        "label": "Myrtleford",
        "type": "electrical substation",
        "substation": "http://www.wikidata.org/entity/Q29020514",
        "country_qid": "Q408"
      }
    },
    {
      "type": "Feature",
      "geometry": {
        "type": "Point",
        "coordinates": [
          148.313611111,
          -36.301666666
        ]
      },
      "properties": {
        "label": "Geehi Dam",
        "type": "electrical substation",
        "substation": "http://www.wikidata.org/entity/Q29020528",
        "country_qid": "Q408"
      }
    },
    {
      "type": "Feature",
      "geometry": {
        "type": "Point",
        "coordinates": [
          145.171111111,
          -37.748611111
        ]
      },
      "properties": {
        "label": "Templestowe substation",
        "type": "electrical substation",
        "substation": "http://www.wikidata.org/entity/Q29020530",
        "country_qid": "Q408"
      }
    },
    {
      "type": "Feature",
      "geometry": {
        "type": "Point",
        "coordinates": [
          145.010277777,
          -37.693333333
        ]
      },
      "properties": {
        "label": "Thomastown substation",
        "type": "electrical substation",
        "substation": "http://www.wikidata.org/entity/Q29020532",
        "country_qid": "Q408"
      }
    },
    {
      "type": "Feature",
      "geometry": {
        "type": "Point",
        "coordinates": [
          142.670277777,
          -38.0625
        ]
      },
      "properties": {
        "label": "Mortlake substation",
        "type": "electrical substation",
        "substation": "http://www.wikidata.org/entity/Q29020471",
        "country_qid": "Q408"
      }
    },
    {
      "type": "Feature",
      "geometry": {
        "type": "Point",
        "coordinates": [
          147.52084,
          -36.55652
        ]
      },
      "properties": {
        "label": "Dartmouth",
        "type": "electrical substation",
        "substation": "http://www.wikidata.org/entity/Q29020522",
        "country_qid": "Q408"
      }
    },
    {
      "type": "Feature",
      "geometry": {
        "type": "Point",
        "coordinates": [
          146.991944444,
          -36.454722222
        ]
      },
      "properties": {
        "label": "Dederang",
        "type": "electrical substation",
        "substation": "http://www.wikidata.org/entity/Q29020525",
        "country_qid": "Q408"
      }
    },
    {
      "type": "Feature",
      "geometry": {
        "type": "Point",
        "coordinates": [
          143.605555555,
          -37.356111111
        ]
      },
      "properties": {
        "label": "Waubra",
        "type": "electrical substation",
        "substation": "http://www.wikidata.org/entity/Q29020463",
        "country_qid": "Q408"
      }
    },
    {
      "type": "Feature",
      "geometry": {
        "type": "Point",
        "coordinates": [
          146.393055555,
          -38.273888888
        ]
      },
      "properties": {
        "label": "Hazelwood Power Station substation",
        "type": "electrical substation",
        "substation": "http://www.wikidata.org/entity/Q29020544",
        "country_qid": "Q408"
      }
    },
    {
      "type": "Feature",
      "geometry": {
        "type": "Point",
        "coordinates": [
          142.238888888,
          -34.291944444
        ]
      },
      "properties": {
        "label": "Red Cliffs",
        "type": "electrical substation",
        "substation": "http://www.wikidata.org/entity/Q29020469",
        "country_qid": "Q408"
      }
    },
    {
      "type": "Feature",
      "geometry": {
        "type": "Point",
        "coordinates": [
          148.413333333,
          -36.349444444
        ]
      },
      "properties": {
        "label": "Guthega",
        "type": "electrical substation",
        "substation": "http://www.wikidata.org/entity/Q29020453",
        "country_qid": "Q408"
      }
    },
    {
      "type": "Feature",
      "geometry": {
        "type": "Point",
        "coordinates": [
          146.420555555,
          -38.257777777
        ]
      },
      "properties": {
        "label": "Morwell substation",
        "type": "electrical substation",
        "substation": "http://www.wikidata.org/entity/Q29020549",
        "country_qid": "Q408"
      }
    },
    {
      "type": "Feature",
      "geometry": {
        "type": "Point",
        "coordinates": [
          146.13251,
          -36.49356
        ]
      },
      "properties": {
        "label": "Glenrowan",
        "type": "electrical substation",
        "substation": "http://www.wikidata.org/entity/Q29020512",
        "country_qid": "Q408"
      }
    },
    {
      "type": "Feature",
      "geometry": {
        "type": "Point",
        "coordinates": [
          144.846944444,
          -37.738055555
        ]
      },
      "properties": {
        "label": "Keilor substation",
        "type": "electrical substation",
        "substation": "http://www.wikidata.org/entity/Q29020484",
        "country_qid": "Q408"
      }
    },
    {
      "type": "Feature",
      "geometry": {
        "type": "Point",
        "coordinates": [
          145.215555555,
          -37.821388888
        ]
      },
      "properties": {
        "label": "Ringwood substation",
        "type": "electrical substation",
        "substation": "http://www.wikidata.org/entity/Q29020533",
        "country_qid": "Q408"
      }
    },
    {
      "type": "Feature",
      "geometry": {
        "type": "Point",
        "coordinates": [
          146.95,
          -36.155
        ]
      },
      "properties": {
        "label": "Wodonga",
        "type": "electrical substation",
        "substation": "http://www.wikidata.org/entity/Q29020526",
        "country_qid": "Q408"
      }
    },
    {
      "type": "Feature",
      "geometry": {
        "type": "Point",
        "coordinates": [
          146.31443,
          -36.36456
        ]
      },
      "properties": {
        "label": "Wangaratta",
        "type": "electrical substation",
        "substation": "http://www.wikidata.org/entity/Q29020513",
        "country_qid": "Q408"
      }
    },
    {
      "type": "Feature",
      "geometry": {
        "type": "Point",
        "coordinates": [
          142.238888888,
          -34.293611111
        ]
      },
      "properties": {
        "label": "Murraylink (Red Cliffs)",
        "type": "electrical substation",
        "substation": "http://www.wikidata.org/entity/Q29020454",
        "country_qid": "Q408"
      }
    },
    {
      "type": "Feature",
      "geometry": {
        "type": "Point",
        "coordinates": [
          144.296388888,
          -38.037222222
        ]
      },
      "properties": {
        "label": "Morrabool substation",
        "type": "electrical substation",
        "substation": "http://www.wikidata.org/entity/Q29020483",
        "country_qid": "Q408"
      }
    },
    {
      "type": "Feature",
      "geometry": {
        "type": "Point",
        "coordinates": [
          147.165555555,
          -36.743611111
        ]
      },
      "properties": {
        "label": "Mount Beauty",
        "type": "electrical substation",
        "substation": "http://www.wikidata.org/entity/Q29020516",
        "country_qid": "Q408"
      }
    },
    {
      "type": "Feature",
      "geometry": {
        "type": "Point",
        "coordinates": [
          146.97021,
          -36.72636
        ]
      },
      "properties": {
        "label": "Bright",
        "type": "electrical substation",
        "substation": "http://www.wikidata.org/entity/Q29020519",
        "country_qid": "Q408"
      }
    },
    {
      "type": "Feature",
      "geometry": {
        "type": "Point",
        "coordinates": [
          147.23399,
          -36.85835
        ]
      },
      "properties": {
        "label": "McKay Creek",
        "type": "electrical substation",
        "substation": "http://www.wikidata.org/entity/Q29020518",
        "country_qid": "Q408"
      }
    },
    {
      "type": "Feature",
      "geometry": {
        "type": "Point",
        "coordinates": [
          147.23082,
          -36.80487
        ]
      },
      "properties": {
        "label": "Bogong",
        "type": "electrical substation",
        "substation": "http://www.wikidata.org/entity/Q29020517",
        "country_qid": "Q408"
      }
    },
    {
      "type": "Feature",
      "geometry": {
        "type": "Point",
        "coordinates": [
          146.428055555,
          -38.281111111
        ]
      },
      "properties": {
        "label": "Hazelwood substation",
        "type": "electrical substation",
        "substation": "http://www.wikidata.org/entity/Q29020541",
        "country_qid": "Q408"
      }
    },
    {
      "type": "Feature",
      "geometry": {
        "type": "Point",
        "coordinates": [
          140.600277777,
          -34.238055555
        ]
      },
      "properties": {
        "label": "Murraylink (Monash)",
        "type": "electrical substation",
        "substation": "http://www.wikidata.org/entity/Q29020605",
        "country_qid": "Q408"
      }
    },
    {
      "type": "Feature",
      "geometry": {
        "type": "Point",
        "coordinates": [
          139.1267725,
          -33.955128
        ]
      },
      "properties": {
        "label": "Robertstown substation",
        "type": "electrical substation",
        "substation": "http://www.wikidata.org/entity/Q29020610",
        "country_qid": "Q408"
      }
    },
    {
      "type": "Feature",
      "geometry": {
        "type": "Point",
        "coordinates": [
          140.596666666,
          -34.237777777
        ]
      },
      "properties": {
        "label": "Monash substation",
        "type": "electrical substation",
        "substation": "http://www.wikidata.org/entity/Q29020607",
        "country_qid": "Q408"
      }
    },
    {
      "type": "Feature",
      "geometry": {
        "type": "Point",
        "coordinates": [
          137.813,
          -32.534
        ]
      },
      "properties": {
        "label": "Davenport substation",
        "type": "electrical substation",
        "substation": "http://www.wikidata.org/entity/Q29020640",
        "country_qid": "Q408"
      }
    },
    {
      "type": "Feature",
      "geometry": {
        "type": "Point",
        "coordinates": [
          115.857414013,
          -31.942724617
        ]
      },
      "properties": {
        "label": "No.4 Substation, Perth",
        "type": "electrical substation",
        "substation": "http://www.wikidata.org/entity/Q120282647",
        "country_qid": "Q408"
      }
    },
    {
      "type": "Feature",
      "geometry": {
        "type": "Point",
        "coordinates": [
          116.060053,
          -33.236183
        ]
      },
      "properties": {
        "label": "Shott's Terminal",
        "type": "electrical substation",
        "substation": "http://www.wikidata.org/entity/Q125469449",
        "country_qid": "Q408"
      }
    },
    {
      "type": "Feature",
      "geometry": {
        "type": "Point",
        "coordinates": [
          115.942916,
          -32.018832
        ]
      },
      "properties": {
        "label": "Cannington Terminal",
        "type": "electrical substation",
        "substation": "http://www.wikidata.org/entity/Q125469339",
        "country_qid": "Q408"
      }
    },
    {
      "type": "Feature",
      "geometry": {
        "type": "Point",
        "coordinates": [
          146.26248,
          -37.1024
        ]
      },
      "properties": {
        "label": "Merrijig",
        "type": "electrical substation",
        "substation": "http://www.wikidata.org/entity/Q123527480",
        "country_qid": "Q408"
      }
    },
    {
      "type": "Feature",
      "geometry": {
        "type": "Point",
        "coordinates": [
          116.2294208,
          -33.330678505
        ]
      },
      "properties": {
        "label": "Bluewaters Power Station substation",
        "type": "electrical substation",
        "substation": "http://www.wikidata.org/entity/Q133882536",
        "country_qid": "Q408"
      }
    },
    {
      "type": "Feature",
      "geometry": {
        "type": "Point",
        "coordinates": [
          116.446273,
          -32.784812
        ]
      },
      "properties": {
        "label": "Well's Terminal",
        "type": "electrical substation",
        "substation": "http://www.wikidata.org/entity/Q125469465",
        "country_qid": "Q408"
      }
    },
    {
      "type": "Feature",
      "geometry": {
        "type": "Point",
        "coordinates": [
          150.872020065,
          -33.931096364
        ]
      },
      "properties": {
        "label": "West Liverpool Transmission Substation",
        "type": "electrical substation",
        "substation": "http://www.wikidata.org/entity/Q116058310",
        "country_qid": "Q408"
      }
    },
    {
      "type": "Feature",
      "geometry": {
        "type": "Point",
        "coordinates": [
          114.6322,
          -28.7245
        ]
      },
      "properties": {
        "label": "Chapman Substation",
        "type": "electrical substation",
        "substation": "http://www.wikidata.org/entity/Q133828197",
        "country_qid": "Q408"
      }
    },
    {
      "type": "Feature",
      "geometry": {
        "type": "Point",
        "coordinates": [
          117.18884,
          -32.9573
        ]
      },
      "properties": {
        "label": "Narrogin South Terminal",
        "type": "electrical substation",
        "substation": "http://www.wikidata.org/entity/Q125469502",
        "country_qid": "Q408"
      }
    },
    {
      "type": "Feature",
      "geometry": {
        "type": "Point",
        "coordinates": [
          114.9603,
          -28.9918
        ]
      },
      "properties": {
        "label": "Mumbida Wind Farm Substation",
        "type": "electrical substation",
        "substation": "http://www.wikidata.org/entity/Q133827921",
        "country_qid": "Q408"
      }
    },
    {
      "type": "Feature",
      "geometry": {
        "type": "Point",
        "coordinates": [
          115.978949,
          -32.044576
        ]
      },
      "properties": {
        "label": "Kenwick Link Terminal",
        "type": "electrical substation",
        "substation": "http://www.wikidata.org/entity/Q125469318",
        "country_qid": "Q408"
      }
    },
    {
      "type": "Feature",
      "geometry": {
        "type": "Point",
        "coordinates": [
          115.765839198,
          -32.223243761
        ]
      },
      "properties": {
        "label": "British Petroleum Refinery substation",
        "type": "electrical substation",
        "substation": "http://www.wikidata.org/entity/Q133887679",
        "country_qid": "Q408"
      }
    },
    {
      "type": "Feature",
      "geometry": {
        "type": "Point",
        "coordinates": [
          115.7645514,
          -32.48436484
        ]
      },
      "properties": {
        "label": "Parklands electrical Substation",
        "type": "electrical substation",
        "substation": "http://www.wikidata.org/entity/Q134290314",
        "country_qid": "Q408"
      }
    },
    {
      "type": "Feature",
      "geometry": {
        "type": "Point",
        "coordinates": [
          150.787857115,
          -33.952413365
        ]
      },
      "properties": {
        "label": "Leppington Substation",
        "type": "electrical substation",
        "substation": "http://www.wikidata.org/entity/Q117313864",
        "country_qid": "Q408"
      }
    },
    {
      "type": "Feature",
      "geometry": {
        "type": "Point",
        "coordinates": [
          116.029,
          -30.6315
        ]
      },
      "properties": {
        "label": "Moora Substation",
        "type": "electrical substation",
        "substation": "http://www.wikidata.org/entity/Q133828277",
        "country_qid": "Q408"
      }
    },
    {
      "type": "Feature",
      "geometry": {
        "type": "Point",
        "coordinates": [
          118.2265,
          -31.5422
        ]
      },
      "properties": {
        "label": "Merredin Power Station Substation",
        "type": "electrical substation",
        "substation": "http://www.wikidata.org/entity/Q133882476",
        "country_qid": "Q408"
      }
    },
    {
      "type": "Feature",
      "geometry": {
        "type": "Point",
        "coordinates": [
          115.766281404,
          -32.223103375
        ]
      },
      "properties": {
        "label": "Kwinana Power Partnership",
        "type": "electrical substation",
        "substation": "http://www.wikidata.org/entity/Q133882829",
        "country_qid": "Q408"
      }
    },
    {
      "type": "Feature",
      "geometry": {
        "type": "Point",
        "coordinates": [
          115.7757214,
          -32.23630081
        ]
      },
      "properties": {
        "label": "CSBP elecrical substation",
        "type": "electrical substation",
        "substation": "http://www.wikidata.org/entity/Q134290237",
        "country_qid": "Q408"
      }
    },
    {
      "type": "Feature",
      "geometry": {
        "type": "Point",
        "coordinates": [
          118.24723,
          -32.45881
        ]
      },
      "properties": {
        "label": "Merredin Terminal",
        "type": "electrical substation",
        "substation": "http://www.wikidata.org/entity/Q125469521",
        "country_qid": "Q408"
      }
    },
    {
      "type": "Feature",
      "geometry": {
        "type": "Point",
        "coordinates": [
          114.6238,
          -28.7856
        ]
      },
      "properties": {
        "label": "Rangeway Substation",
        "type": "electrical substation",
        "substation": "http://www.wikidata.org/entity/Q133828173",
        "country_qid": "Q408"
      }
    },
    {
      "type": "Feature",
      "geometry": {
        "type": "Point",
        "coordinates": [
          150.8901,
          -33.95273
        ]
      },
      "properties": {
        "label": "Casula Zone Substation",
        "type": "electrical substation",
        "substation": "http://www.wikidata.org/entity/Q116119785",
        "country_qid": "Q408"
      }
    },
    {
      "type": "Feature",
      "geometry": {
        "type": "Point",
        "coordinates": [
          115.772601445,
          -32.227443787
        ]
      },
      "properties": {
        "label": "Tiwest Pigment Plant",
        "type": "electrical substation",
        "substation": "http://www.wikidata.org/entity/Q133887637",
        "country_qid": "Q408"
      }
    },
    {
      "type": "Feature",
      "geometry": {
        "type": "Point",
        "coordinates": [
          115.84577,
          -32.09548
        ]
      },
      "properties": {
        "label": "Southern Terminal",
        "type": "electrical substation",
        "substation": "http://www.wikidata.org/entity/Q125469352",
        "country_qid": "Q408"
      }
    },
    {
      "type": "Feature",
      "geometry": {
        "type": "Point",
        "coordinates": [
          115.7810845,
          -31.77296709
        ]
      },
      "properties": {
        "label": "Edgewater Electrical substation",
        "type": "electrical substation",
        "substation": "http://www.wikidata.org/entity/Q134290262",
        "country_qid": "Q408"
      }
    },
    {
      "type": "Feature",
      "geometry": {
        "type": "Point",
        "coordinates": [
          116.2611228,
          -33.34094865
        ]
      },
      "properties": {
        "label": "Collie Power Station Terminal",
        "type": "electrical substation",
        "substation": "http://www.wikidata.org/entity/Q133847273",
        "country_qid": "Q408"
      }
    },
    {
      "type": "Feature",
      "geometry": {
        "type": "Point",
        "coordinates": [
          150.9623265,
          -33.9193129
        ]
      },
      "properties": {
        "label": "Chipping Norton Zone Substation",
        "type": "electrical substation",
        "substation": "http://www.wikidata.org/entity/Q117338119",
        "country_qid": "Q408"
      }
    },
    {
      "type": "Feature",
      "geometry": {
        "type": "Point",
        "coordinates": [
          115.762832636,
          -32.264192696
        ]
      },
      "properties": {
        "label": "Australian Fused Materials",
        "type": "electrical substation",
        "substation": "http://www.wikidata.org/entity/Q133882435",
        "country_qid": "Q408"
      }
    },
    {
      "type": "Feature",
      "geometry": {
        "type": "Point",
        "coordinates": [
          115.7693,
          -29.5175
        ]
      },
      "properties": {
        "label": "Three Springs substation",
        "type": "electrical substation",
        "substation": "http://www.wikidata.org/entity/Q133828212",
        "country_qid": "Q408"
      }
    },
    {
      "type": "Feature",
      "geometry": {
        "type": "Point",
        "coordinates": [
          115.1187,
          -28.8899
        ]
      },
      "properties": {
        "label": "Mungarra Terminal",
        "type": "electrical substation",
        "substation": "http://www.wikidata.org/entity/Q133827896",
        "country_qid": "Q408"
      }
    },
    {
      "type": "Feature",
      "geometry": {
        "type": "Point",
        "coordinates": [
          114.960467294,
          -28.991854521
        ]
      },
      "properties": {
        "label": "Mumbida Wind Farm (WP)",
        "type": "electrical substation",
        "substation": "http://www.wikidata.org/entity/Q133887738",
        "country_qid": "Q408"
      }
    },
    {
      "type": "Feature",
      "geometry": {
        "type": "Point",
        "coordinates": [
          115.3768051,
          -30.48830307
        ]
      },
      "properties": {
        "label": "Emu Downs electrical substation",
        "type": "electrical substation",
        "substation": "http://www.wikidata.org/entity/Q134289812",
        "country_qid": "Q408"
      }
    },
    {
      "type": "Feature",
      "geometry": {
        "type": "Point",
        "coordinates": [
          151.129480388,
          -33.828205818
        ]
      },
      "properties": {
        "label": "Hunters Hill Zone substation No. 129",
        "type": "electrical substation",
        "substation": "http://www.wikidata.org/entity/Q118163501",
        "country_qid": "Q408"
      }
    },
    {
      "type": "Feature",
      "geometry": {
        "type": "Point",
        "coordinates": [
          150.922,
          -33.93052
        ]
      },
      "properties": {
        "label": "Liverpool Transmission Substation",
        "type": "electrical substation",
        "substation": "http://www.wikidata.org/entity/Q116817775",
        "country_qid": "Q408"
      }
    },
    {
      "type": "Feature",
      "geometry": {
        "type": "Point",
        "coordinates": [
          150.728773844,
          -33.939555243
        ]
      },
      "properties": {
        "label": "Bringelly Zone Substation",
        "type": "electrical substation",
        "substation": "http://www.wikidata.org/entity/Q117193316",
        "country_qid": "Q408"
      }
    },
    {
      "type": "Feature",
      "geometry": {
        "type": "Point",
        "coordinates": [
          151.147167,
          -33.83439
        ]
      },
      "properties": {
        "label": "Electricity Substation No. 86",
        "type": "electrical substation",
        "substation": "http://www.wikidata.org/entity/Q116005357",
        "country_qid": "Q408"
      }
    },
    {
      "type": "Feature",
      "geometry": {
        "type": "Point",
        "coordinates": [
          115.9584,
          -31.5579
        ]
      },
      "properties": {
        "label": "Muchea Substation",
        "type": "electrical substation",
        "substation": "http://www.wikidata.org/entity/Q133828440",
        "country_qid": "Q408"
      }
    },
    {
      "type": "Feature",
      "geometry": {
        "type": "Point",
        "coordinates": [
          121.4862636,
          -30.87475484
        ]
      },
      "properties": {
        "label": "Western Mining Smelter electrical substation",
        "type": "electrical substation",
        "substation": "http://www.wikidata.org/entity/Q134290369",
        "country_qid": "Q408"
      }
    },
    {
      "type": "Feature",
      "geometry": {
        "type": "Point",
        "coordinates": [
          116.305348,
          -33.448292
        ]
      },
      "properties": {
        "label": "Muja Terminal",
        "type": "electrical substation",
        "substation": "http://www.wikidata.org/entity/Q125372620",
        "country_qid": "Q408"
      }
    },
    {
      "type": "Feature",
      "geometry": {
        "type": "Point",
        "coordinates": [
          114.9281104,
          -28.92294077
        ]
      },
      "properties": {
        "label": "Walkawy Windfarm electrical substation",
        "type": "electrical substation",
        "substation": "http://www.wikidata.org/entity/Q134290355",
        "country_qid": "Q408"
      }
    },
    {
      "type": "Feature",
      "geometry": {
        "type": "Point",
        "coordinates": [
          115.8021,
          -31.6708
        ]
      },
      "properties": {
        "label": "Generation Newgen Neerabup Substation",
        "type": "electrical substation",
        "substation": "http://www.wikidata.org/entity/Q133828681",
        "country_qid": "Q408"
      }
    },
    {
      "type": "Feature",
      "geometry": {
        "type": "Point",
        "coordinates": [
          115.8222,
          -31.5574
        ]
      },
      "properties": {
        "label": "Pinjar Gas Turbine Terminal",
        "type": "electrical substation",
        "substation": "http://www.wikidata.org/entity/Q133828307",
        "country_qid": "Q408"
      }
    },
    {
      "type": "Feature",
      "geometry": {
        "type": "Point",
        "coordinates": [
          115.77669,
          -32.19691
        ]
      },
      "properties": {
        "label": "Kwinana Terminal",
        "type": "electrical substation",
        "substation": "http://www.wikidata.org/entity/Q125469367",
        "country_qid": "Q408"
      }
    },
    {
      "type": "Feature",
      "geometry": {
        "type": "Point",
        "coordinates": [
          153.59399986,
          -28.672938715
        ]
      },
      "properties": {
        "label": "Suffolk Park 132KV substation",
        "type": "electrical substation",
        "substation": "http://www.wikidata.org/entity/Q130416006",
        "country_qid": "Q408"
      }
    },
    {
      "type": "Feature",
      "geometry": {
        "type": "Point",
        "coordinates": [
          115.4571865,
          -30.65185158
        ]
      },
      "properties": {
        "label": "Kerr McGee Cataby substation",
        "type": "electrical substation",
        "substation": "http://www.wikidata.org/entity/Q134290274",
        "country_qid": "Q408"
      }
    },
    {
      "type": "Feature",
      "geometry": {
        "type": "Point",
        "coordinates": [
          115.880897,
          -31.944536
        ]
      },
      "properties": {
        "label": "East Perth Terminal",
        "type": "electrical substation",
        "substation": "http://www.wikidata.org/entity/Q125469281",
        "country_qid": "Q408"
      }
    },
    {
      "type": "Feature",
      "geometry": {
        "type": "Point",
        "coordinates": [
          150.93836422,
          -33.93090365
        ]
      },
      "properties": {
        "label": "Moorebank Zone Substation",
        "type": "electrical substation",
        "substation": "http://www.wikidata.org/entity/Q117707573",
        "country_qid": "Q408"
      }
    },
    {
      "type": "Feature",
      "geometry": {
        "type": "Point",
        "coordinates": [
          152.6593,
          -31.87774
        ]
      },
      "properties": {
        "label": "Harrington Electricity Substation",
        "type": "electrical substation",
        "substation": "http://www.wikidata.org/entity/Q124473515",
        "country_qid": "Q408"
      }
    },
    {
      "type": "Feature",
      "geometry": {
        "type": "Point",
        "coordinates": [
          115.892767,
          -31.852628
        ]
      },
      "properties": {
        "label": "Northern Terminal",
        "type": "electrical substation",
        "substation": "http://www.wikidata.org/entity/Q125469255",
        "country_qid": "Q408"
      }
    },
    {
      "type": "Feature",
      "geometry": {
        "type": "Point",
        "coordinates": [
          117.8318262,
          -34.97628268
        ]
      },
      "properties": {
        "label": "Albany Substation (ALB)",
        "type": "electrical substation",
        "substation": "http://www.wikidata.org/entity/Q133840714",
        "country_qid": "Q408"
      }
    },
    {
      "type": "Feature",
      "geometry": {
        "type": "Point",
        "coordinates": [
          150.615571135,
          -33.876119325
        ]
      },
      "properties": {
        "label": "North Warragamba Zone Substation",
        "type": "electrical substation",
        "substation": "http://www.wikidata.org/entity/Q119247930",
        "country_qid": "Q408"
      }
    },
    {
      "type": "Feature",
      "geometry": {
        "type": "Point",
        "coordinates": [
          114.6488,
          -28.7691
        ]
      },
      "properties": {
        "label": "Geraldton 33 kV",
        "type": "electrical substation",
        "substation": "http://www.wikidata.org/entity/Q133828189",
        "country_qid": "Q408"
      }
    },
    {
      "type": "Feature",
      "geometry": {
        "type": "Point",
        "coordinates": [
          145.92121,
          -37.22422
        ]
      },
      "properties": {
        "label": "Eildon",
        "type": "electrical substation",
        "substation": "http://www.wikidata.org/entity/Q123527558",
        "country_qid": "Q408"
      }
    },
    {
      "type": "Feature",
      "geometry": {
        "type": "Point",
        "coordinates": [
          115.7053653,
          -33.1297119
        ]
      },
      "properties": {
        "label": "Binningup Desalination Plant  electrical substation",
        "type": "electrical substation",
        "substation": "http://www.wikidata.org/entity/Q134289835",
        "country_qid": "Q408"
      }
    },
    {
      "type": "Feature",
      "geometry": {
        "type": "Point",
        "coordinates": [
          146.07135,
          -37.05047
        ]
      },
      "properties": {
        "label": "Mansfield",
        "type": "electrical substation",
        "substation": "http://www.wikidata.org/entity/Q123527467",
        "country_qid": "Q408"
      }
    },
    {
      "type": "Feature",
      "geometry": {
        "type": "Point",
        "coordinates": [
          115.9667,
          -31.5336
        ]
      },
      "properties": {
        "label": "Kerr-McGee Muchea Substation",
        "type": "electrical substation",
        "substation": "http://www.wikidata.org/entity/Q133828548",
        "country_qid": "Q408"
      }
    },
    {
      "type": "Feature",
      "geometry": {
        "type": "Point",
        "coordinates": [
          150.930555555,
          -33.945055555
        ]
      },
      "properties": {
        "label": "ANZAC Village Zone Substation",
        "type": "electrical substation",
        "substation": "http://www.wikidata.org/entity/Q117321989",
        "country_qid": "Q408"
      }
    },
    {
      "type": "Feature",
      "geometry": {
        "type": "Point",
        "coordinates": [
          145.96183,
          -36.5561
        ]
      },
      "properties": {
        "label": "Benalla",
        "type": "electrical substation",
        "substation": "http://www.wikidata.org/entity/Q123527458",
        "country_qid": "Q408"
      }
    },
    {
      "type": "Feature",
      "geometry": {
        "type": "Point",
        "coordinates": [
          115.778708777,
          -32.196859429
        ]
      },
      "properties": {
        "label": "ALCOA Kwinana substation",
        "type": "electrical substation",
        "substation": "http://www.wikidata.org/entity/Q133887655",
        "country_qid": "Q408"
      }
    },
    {
      "type": "Feature",
      "geometry": {
        "type": "Point",
        "coordinates": [
          115.94684,
          -32.649297
        ]
      },
      "properties": {
        "label": "Oakley Terminal",
        "type": "electrical substation",
        "substation": "http://www.wikidata.org/entity/Q125469382",
        "country_qid": "Q408"
      }
    },
    {
      "type": "Feature",
      "geometry": {
        "type": "Point",
        "coordinates": [
          115.922657,
          -32.91564
        ]
      },
      "properties": {
        "label": "Landwehr Terminal",
        "type": "electrical substation",
        "substation": "http://www.wikidata.org/entity/Q125469399",
        "country_qid": "Q408"
      }
    },
    {
      "type": "Feature",
      "geometry": {
        "type": "Point",
        "coordinates": [
          145.81858,
          -37.29275
        ]
      },
      "properties": {
        "label": "Rubicon A Zone Substation",
        "type": "electrical substation",
        "substation": "http://www.wikidata.org/entity/Q123527626",
        "country_qid": "Q408"
      }
    },
    {
      "type": "Feature",
      "geometry": {
        "type": "Point",
        "coordinates": [
          121.675043208,
          -31.192325972
        ]
      },
      "properties": {
        "label": "Western Mining Kambalda",
        "type": "electrical substation",
        "substation": "http://www.wikidata.org/entity/Q133882878",
        "country_qid": "Q408"
      }
    },
    {
      "type": "Feature",
      "geometry": {
        "type": "Point",
        "coordinates": [
          121.423271,
          -30.781405
        ]
      },
      "properties": {
        "label": "West Kalgoorlie Terminal",
        "type": "electrical substation",
        "substation": "http://www.wikidata.org/entity/Q125469534",
        "country_qid": "Q408"
      }
    },
    {
      "type": "Feature",
      "geometry": {
        "type": "Point",
        "coordinates": [
          115.3329,
          -29.9782
        ]
      },
      "properties": {
        "label": "Eneabba substation",
        "type": "electrical substation",
        "substation": "http://www.wikidata.org/entity/Q133828224",
        "country_qid": "Q408"
      }
    },
    {
      "type": "Feature",
      "geometry": {
        "type": "Point",
        "coordinates": [
          115.8501692,
          -32.0932134
        ]
      },
      "properties": {
        "label": "Glen Iris electrical Substation",
        "type": "electrical substation",
        "substation": "http://www.wikidata.org/entity/Q134290335",
        "country_qid": "Q408"
      }
    },
    {
      "type": "Feature",
      "geometry": {
        "type": "Point",
        "coordinates": [
          150.791815467,
          -33.884150654
        ]
      },
      "properties": {
        "label": "Kemps Creek Zone Substation",
        "type": "electrical substation",
        "substation": "http://www.wikidata.org/entity/Q122375971",
        "country_qid": "Q408"
      }
    },
    {
      "type": "Feature",
      "geometry": {
        "type": "Point",
        "coordinates": [
          115.76447,
          -33.15128
        ]
      },
      "properties": {
        "label": "Kemerton Terminal",
        "type": "electrical substation",
        "substation": "http://www.wikidata.org/entity/Q125469428",
        "country_qid": "Q408"
      }
    },
    {
      "type": "Feature",
      "geometry": {
        "type": "Point",
        "coordinates": [
          150.84828135,
          -33.924005964
        ]
      },
      "properties": {
        "label": "Hinchinbrook Zone Substation",
        "type": "electrical substation",
        "substation": "http://www.wikidata.org/entity/Q115682607",
        "country_qid": "Q408"
      }
    },
    {
      "type": "Feature",
      "geometry": {
        "type": "Point",
        "coordinates": [
          115.79625,
          -29.52529
        ]
      },
      "properties": {
        "label": "Three Springs Terminal",
        "type": "electrical substation",
        "substation": "http://www.wikidata.org/entity/Q125468997",
        "country_qid": "Q408"
      }
    },
    {
      "type": "Feature",
      "geometry": {
        "type": "Point",
        "coordinates": [
          115.949706976,
          -32.017830072
        ]
      },
      "properties": {
        "label": "Beckenham electrical substation",
        "type": "electrical substation",
        "substation": "http://www.wikidata.org/entity/Q133882805",
        "country_qid": "Q408"
      }
    },
    {
      "type": "Feature",
      "geometry": {
        "type": "Point",
        "coordinates": [
          147.3462192,
          -20.4489457
        ]
      },
      "properties": {
        "label": "Blue Valley",
        "type": "electrical substation",
        "substation": "http://www.wikidata.org/entity/Q29588597",
        "country_qid": "Q408"
      }
    },
    {
      "type": "Feature",
      "geometry": {
        "type": "Point",
        "coordinates": [
          151.2605,
          -33.8915
        ]
      },
      "properties": {
        "label": "Electricity Substation No. 269",
        "type": "electrical substation",
        "substation": "http://www.wikidata.org/entity/Q55610705",
        "country_qid": "Q408"
      }
    },
    {
      "type": "Feature",
      "geometry": {
        "type": "Point",
        "coordinates": [
          145.531111111,
          -41.734722222
        ]
      },
      "properties": {
        "label": "Farrell substation",
        "type": "electrical substation",
        "substation": "http://www.wikidata.org/entity/Q29020685",
        "country_qid": "Q408"
      }
    },
    {
      "type": "Feature",
      "geometry": {
        "type": "Point",
        "coordinates": [
          146.846388888,
          -42.609444444
        ]
      },
      "properties": {
        "label": "Meadowbank substation",
        "type": "electrical substation",
        "substation": "http://www.wikidata.org/entity/Q29020732",
        "country_qid": "Q408"
      }
    },
    {
      "type": "Feature",
      "geometry": {
        "type": "Point",
        "coordinates": [
          146.83278,
          -19.26029
        ]
      },
      "properties": {
        "label": "Townsville Port",
        "type": "electrical substation",
        "substation": "http://www.wikidata.org/entity/Q51705531",
        "country_qid": "Q408"
      }
    },
    {
      "type": "Feature",
      "geometry": {
        "type": "Point",
        "coordinates": [
          146.80025,
          -19.28001
        ]
      },
      "properties": {
        "label": "Hermit Park",
        "type": "electrical substation",
        "substation": "http://www.wikidata.org/entity/Q51705521",
        "country_qid": "Q408"
      }
    },
    {
      "type": "Feature",
      "geometry": {
        "type": "Point",
        "coordinates": [
          146.306944444,
          -41.335833333
        ]
      },
      "properties": {
        "label": "Sheffield substation",
        "type": "electrical substation",
        "substation": "http://www.wikidata.org/entity/Q29020684",
        "country_qid": "Q408"
      }
    },
    {
      "type": "Feature",
      "geometry": {
        "type": "Point",
        "coordinates": [
          145.136305555,
          -41.723805555
        ]
      },
      "properties": {
        "label": "Reece substation",
        "type": "electrical substation",
        "substation": "http://www.wikidata.org/entity/Q29020687",
        "country_qid": "Q408"
      }
    },
    {
      "type": "Feature",
      "geometry": {
        "type": "Point",
        "coordinates": [
          146.457777777,
          -42.300555555
        ]
      },
      "properties": {
        "label": "Tarraleah substation",
        "type": "electrical substation",
        "substation": "http://www.wikidata.org/entity/Q29020735",
        "country_qid": "Q408"
      }
    },
    {
      "type": "Feature",
      "geometry": {
        "type": "Point",
        "coordinates": [
          146.457222222,
          -42.297777777
        ]
      },
      "properties": {
        "label": "Tungatinah substation",
        "type": "electrical substation",
        "substation": "http://www.wikidata.org/entity/Q29020726",
        "country_qid": "Q408"
      }
    },
    {
      "type": "Feature",
      "geometry": {
        "type": "Point",
        "coordinates": [
          146.891944444,
          -41.114722222
        ]
      },
      "properties": {
        "label": "Basslink George Town",
        "type": "electrical substation",
        "substation": "http://www.wikidata.org/entity/Q29020705",
        "country_qid": "Q408"
      }
    },
    {
      "type": "Feature",
      "geometry": {
        "type": "Point",
        "coordinates": [
          145.39544,
          -16.50491
        ]
      },
      "properties": {
        "label": "Cassowary",
        "type": "electrical substation",
        "substation": "http://www.wikidata.org/entity/Q51702730",
        "country_qid": "Q408"
      }
    },
    {
      "type": "Feature",
      "geometry": {
        "type": "Point",
        "coordinates": [
          151.1372,
          -33.8847
        ]
      },
      "properties": {
        "label": "St. David's Road Depot",
        "type": "electrical substation",
        "substation": "http://www.wikidata.org/entity/Q55633772",
        "country_qid": "Q408"
      }
    },
    {
      "type": "Feature",
      "geometry": {
        "type": "Point",
        "coordinates": [
          146.72026,
          -19.36382
        ]
      },
      "properties": {
        "label": "Rasmussen",
        "type": "electrical substation",
        "substation": "http://www.wikidata.org/entity/Q33125757",
        "country_qid": "Q408"
      }
    },
    {
      "type": "Feature",
      "geometry": {
        "type": "Point",
        "coordinates": [
          153.051,
          -27.4982
        ]
      },
      "properties": {
        "label": "Coorparoo Substation No. 210",
        "type": "electrical substation",
        "substation": "http://www.wikidata.org/entity/Q19872532",
        "country_qid": "Q408"
      }
    },
    {
      "type": "Feature",
      "geometry": {
        "type": "Point",
        "coordinates": [
          116.9423334,
          -28.74475157
        ]
      },
      "properties": {
        "label": "Golden Grove electrical substation",
        "type": "electrical substation",
        "substation": "http://www.wikidata.org/entity/Q134299825",
        "country_qid": "Q408"
      }
    },
    {
      "type": "Feature",
      "geometry": {
        "type": "Point",
        "coordinates": [
          146.77112,
          -19.29887
        ]
      },
      "properties": {
        "label": "Aitkenvale",
        "type": "electrical substation",
        "substation": "http://www.wikidata.org/entity/Q29019912",
        "country_qid": "Q408"
      }
    },
    {
      "type": "Feature",
      "geometry": {
        "type": "Point",
        "coordinates": [
          115.7776314,
          -32.22410596
        ]
      },
      "properties": {
        "label": "Kwinana Donaldson Road electrical substation",
        "type": "electrical substation",
        "substation": "http://www.wikidata.org/entity/Q134300162",
        "country_qid": "Q408"
      }
    },
    {
      "type": "Feature",
      "geometry": {
        "type": "Point",
        "coordinates": [
          146.61894,
          -19.20152
        ]
      },
      "properties": {
        "label": "Townsville Power Station",
        "type": "electrical substation",
        "substation": "http://www.wikidata.org/entity/Q29019902",
        "country_qid": "Q408"
      }
    },
    {
      "type": "Feature",
      "geometry": {
        "type": "Point",
        "coordinates": [
          151.2064,
          -33.858
        ]
      },
      "properties": {
        "label": "Argyle Street Railway Substation",
        "type": "electrical substation",
        "substation": "http://www.wikidata.org/entity/Q59491745",
        "country_qid": "Q408"
      }
    },
    {
      "type": "Feature",
      "geometry": {
        "type": "Point",
        "coordinates": [
          118.6830282,
          -31.39597457
        ]
      },
      "properties": {
        "label": "Edna May Operations electrical substation",
        "type": "electrical substation",
        "substation": "http://www.wikidata.org/entity/Q134300171",
        "country_qid": "Q408"
      }
    },
    {
      "type": "Feature",
      "geometry": {
        "type": "Point",
        "coordinates": [
          146.74745,
          -19.3115
        ]
      },
      "properties": {
        "label": "Cranbrook",
        "type": "electrical substation",
        "substation": "http://www.wikidata.org/entity/Q29019915",
        "country_qid": "Q408"
      }
    },
    {
      "type": "Feature",
      "geometry": {
        "type": "Point",
        "coordinates": [
          151.2368,
          -33.9102
        ]
      },
      "properties": {
        "label": "Electricity Substation No. 349",
        "type": "electrical substation",
        "substation": "http://www.wikidata.org/entity/Q56755064",
        "country_qid": "Q408"
      }
    },
    {
      "type": "Feature",
      "geometry": {
        "type": "Point",
        "coordinates": [
          146.04684,
          -18.34005
        ]
      },
      "properties": {
        "label": "Cardwell",
        "type": "electrical substation",
        "substation": "http://www.wikidata.org/entity/Q29019901",
        "country_qid": "Q408"
      }
    },
    {
      "type": "Feature",
      "geometry": {
        "type": "Point",
        "coordinates": [
          153.0,
          -27.4586
        ]
      },
      "properties": {
        "label": "Paddington Tramways Substation",
        "type": "electrical substation",
        "substation": "http://www.wikidata.org/entity/Q19876790",
        "country_qid": "Q408"
      }
    },
    {
      "type": "Feature",
      "geometry": {
        "type": "Point",
        "coordinates": [
          151.2254,
          -33.8843
        ]
      },
      "properties": {
        "label": "Paddington Substation",
        "type": "electrical substation",
        "substation": "http://www.wikidata.org/entity/Q56278854",
        "country_qid": "Q408"
      }
    },
    {
      "type": "Feature",
      "geometry": {
        "type": "Point",
        "coordinates": [
          146.88851,
          -19.33536
        ]
      },
      "properties": {
        "label": "Townsville Zinc",
        "type": "electrical substation",
        "substation": "http://www.wikidata.org/entity/Q29019910",
        "country_qid": "Q408"
      }
    },
    {
      "type": "Feature",
      "geometry": {
        "type": "Point",
        "coordinates": [
          115.843072784,
          -31.94717586
        ]
      },
      "properties": {
        "label": "No 3 Electricity Sub Station, West Perth",
        "type": "electrical substation",
        "substation": "http://www.wikidata.org/entity/Q111417727",
        "country_qid": "Q408"
      }
    },
    {
      "type": "Feature",
      "geometry": {
        "type": "Point",
        "coordinates": [
          145.3817006,
          -17.1828305
        ]
      },
      "properties": {
        "label": "Mount Emerald Wind Farm",
        "type": "electrical substation",
        "substation": "http://www.wikidata.org/entity/Q92753001",
        "country_qid": "Q408"
      }
    },
    {
      "type": "Feature",
      "geometry": {
        "type": "Point",
        "coordinates": [
          146.83373,
          -19.2617
        ]
      },
      "properties": {
        "label": "Townsville East",
        "type": "electrical substation",
        "substation": "http://www.wikidata.org/entity/Q29019914",
        "country_qid": "Q408"
      }
    },
    {
      "type": "Feature",
      "geometry": {
        "type": "Point",
        "coordinates": [
          115.7299282,
          -31.666042
        ]
      },
      "properties": {
        "label": "Nowergup electrical substation",
        "type": "electrical substation",
        "substation": "http://www.wikidata.org/entity/Q134299842",
        "country_qid": "Q408"
      }
    },
    {
      "type": "Feature",
      "geometry": {
        "type": "Point",
        "coordinates": [
          145.90944,
          -17.95484
        ]
      },
      "properties": {
        "label": "Tully",
        "type": "electrical substation",
        "substation": "http://www.wikidata.org/entity/Q29019898",
        "country_qid": "Q408"
      }
    },
    {
      "type": "Feature",
      "geometry": {
        "type": "Point",
        "coordinates": [
          118.4566701,
          -31.54094972
        ]
      },
      "properties": {
        "label": "Colgar Wind farm electrical substation",
        "type": "electrical substation",
        "substation": "http://www.wikidata.org/entity/Q134300151",
        "country_qid": "Q408"
      }
    },
    {
      "type": "Feature",
      "geometry": {
        "type": "Point",
        "coordinates": [
          146.71804,
          -19.32049
        ]
      },
      "properties": {
        "label": "Dan Gleeson",
        "type": "electrical substation",
        "substation": "http://www.wikidata.org/entity/Q29019904",
        "country_qid": "Q408"
      }
    },
    {
      "type": "Feature",
      "geometry": {
        "type": "Point",
        "coordinates": [
          146.15641,
          -18.66534
        ]
      },
      "properties": {
        "label": "Ingham South",
        "type": "electrical substation",
        "substation": "http://www.wikidata.org/entity/Q29019899",
        "country_qid": "Q408"
      }
    },
    {
      "type": "Feature",
      "geometry": {
        "type": "Point",
        "coordinates": [
          146.84824,
          -19.34462
        ]
      },
      "properties": {
        "label": "Stuart",
        "type": "electrical substation",
        "substation": "http://www.wikidata.org/entity/Q29019911",
        "country_qid": "Q408"
      }
    },
    {
      "type": "Feature",
      "geometry": {
        "type": "Point",
        "coordinates": [
          151.217,
          -33.8802
        ]
      },
      "properties": {
        "label": "Taylor Square Substation No. 6 and Underground Conveniences",
        "type": "electrical substation",
        "substation": "http://www.wikidata.org/entity/Q58204904",
        "country_qid": "Q408"
      }
    },
    {
      "type": "Feature",
      "geometry": {
        "type": "Point",
        "coordinates": [
          151.196,
          -33.8829
        ]
      },
      "properties": {
        "label": "Ultimo Substation",
        "type": "electrical substation",
        "substation": "http://www.wikidata.org/entity/Q58204857",
        "country_qid": "Q408"
      }
    },
    {
      "type": "Feature",
      "geometry": {
        "type": "Point",
        "coordinates": [
          145.6874509,
          -16.8661404
        ]
      },
      "properties": {
        "label": "Kamerunga",
        "type": "electrical substation",
        "substation": "http://www.wikidata.org/entity/Q29019897",
        "country_qid": "Q408"
      }
    },
    {
      "type": "Feature",
      "geometry": {
        "type": "Point",
        "coordinates": [
          115.946331,
          -32.64901274
        ]
      },
      "properties": {
        "label": "ALCOA Pinjarra electrical substation",
        "type": "electrical substation",
        "substation": "http://www.wikidata.org/entity/Q134290475",
        "country_qid": "Q408"
      }
    },
    {
      "type": "Feature",
      "geometry": {
        "type": "Point",
        "coordinates": [
          146.70805,
          -19.26442
        ]
      },
      "properties": {
        "label": "Bohle",
        "type": "electrical substation",
        "substation": "http://www.wikidata.org/entity/Q29019908",
        "country_qid": "Q408"
      }
    },
    {
      "type": "Feature",
      "geometry": {
        "type": "Point",
        "coordinates": [
          145.64666,
          -16.85034
        ]
      },
      "properties": {
        "label": "Barron Gorge Power Station",
        "type": "electrical substation",
        "substation": "http://www.wikidata.org/entity/Q29019896",
        "country_qid": "Q408"
      }
    },
    {
      "type": "Feature",
      "geometry": {
        "type": "Point",
        "coordinates": [
          144.1394042,
          -18.8884466
        ]
      },
      "properties": {
        "label": "Kidston Solar Farm",
        "type": "electrical substation",
        "substation": "http://www.wikidata.org/entity/Q92766955",
        "country_qid": "Q408"
      }
    },
    {
      "type": "Feature",
      "geometry": {
        "type": "Point",
        "coordinates": [
          146.1558504,
          -18.6648782
        ]
      },
      "properties": {
        "label": "Ingham",
        "type": "electrical substation",
        "substation": "http://www.wikidata.org/entity/Q29019900",
        "country_qid": "Q408"
      }
    },
    {
      "type": "Feature",
      "geometry": {
        "type": "Point",
        "coordinates": [
          153.0324,
          -27.4282
        ]
      },
      "properties": {
        "label": "Windsor Town Quarry Park and Tramways Substation No. 6",
        "type": "electrical substation",
        "substation": "http://www.wikidata.org/entity/Q20861569",
        "country_qid": "Q408"
      }
    },
    {
      "type": "Feature",
      "geometry": {
        "type": "Point",
        "coordinates": [
          146.7779,
          -19.2691
        ]
      },
      "properties": {
        "label": "Garbutt",
        "type": "electrical substation",
        "substation": "http://www.wikidata.org/entity/Q29019909",
        "country_qid": "Q408"
      }
    },
    {
      "type": "Feature",
      "geometry": {
        "type": "Point",
        "coordinates": [
          146.61936,
          -19.2001
        ]
      },
      "properties": {
        "label": "Townsville",
        "type": "electrical substation",
        "substation": "http://www.wikidata.org/entity/Q29019903",
        "country_qid": "Q408"
      }
    },
    {
      "type": "Feature",
      "geometry": {
        "type": "Point",
        "coordinates": [
          115.89181,
          -31.85241
        ]
      },
      "properties": {
        "label": "Malaga substation",
        "type": "electrical substation",
        "substation": "http://www.wikidata.org/entity/Q111132585",
        "country_qid": "Q408"
      }
    },
    {
      "type": "Feature",
      "geometry": {
        "type": "Point",
        "coordinates": [
          153.055,
          -27.4749
        ]
      },
      "properties": {
        "label": "Brisbane City Council Tramway Substation No 9",
        "type": "electrical substation",
        "substation": "http://www.wikidata.org/entity/Q19871584",
        "country_qid": "Q408"
      }
    },
    {
      "type": "Feature",
      "geometry": {
        "type": "Point",
        "coordinates": [
          115.7741382,
          -32.20228543
        ]
      },
      "properties": {
        "label": "NewGen Kwinana Power Station electrical substation",
        "type": "electrical substation",
        "substation": "http://www.wikidata.org/entity/Q134299878",
        "country_qid": "Q408"
      }
    },
    {
      "type": "Feature",
      "geometry": {
        "type": "Point",
        "coordinates": [
          145.3797103,
          -17.1850545
        ]
      },
      "properties": {
        "label": "Walkamin",
        "type": "electrical substation",
        "substation": "http://www.wikidata.org/entity/Q92750255",
        "country_qid": "Q408"
      }
    },
    {
      "type": "Feature",
      "geometry": {
        "type": "Point",
        "coordinates": [
          143.5219478,
          -18.3294122
        ]
      },
      "properties": {
        "label": "Georgetown",
        "type": "electrical substation",
        "substation": "http://www.wikidata.org/entity/Q92770932",
        "country_qid": "Q408"
      }
    },
    {
      "type": "Feature",
      "geometry": {
        "type": "Point",
        "coordinates": [
          151.145,
          -33.7489
        ]
      },
      "properties": {
        "label": "Pymble Substation",
        "type": "electrical substation",
        "substation": "http://www.wikidata.org/entity/Q56755052",
        "country_qid": "Q408"
      }
    },
    {
      "type": "Feature",
      "geometry": {
        "type": "Point",
        "coordinates": [
          146.65312,
          -19.23287
        ]
      },
      "properties": {
        "label": "Black River",
        "type": "electrical substation",
        "substation": "http://www.wikidata.org/entity/Q29019905",
        "country_qid": "Q408"
      }
    },