{
  "type": "FeatureCollection",
  "features": [
    {
      "type": "Feature",
      "geometry": {
        "type": "Point",
        "coordinates": [
          7.788611111,
          17.25
        ]
      },
      "properties": {
        "label": "Anou Araren Thermal Power Station",
        "type": "power plant",
        "entity": "http://www.wikidata.org/entity/Q125796875",
        "country_qid": "Q1032"
      }
    },
    {
      "type": "Feature",
      "geometry": {
        "type": "Point",
        "coordinates": [
          5.512425004,
          13.955556266
        ]
      },
      "properties": {
        "label": "Malbaza Power Station",
        "type": "power plant",
        "entity": "http://www.wikidata.org/entity/Q125813253",
        "country_qid": "Q1032"
      }
    },
    {
      "type": "Feature",
      "geometry": {
        "type": "Point",
        "coordinates": [
          8.785888888,
          14.189138888
        ]
      },
      "properties": {
        "label": "SORAZ power station",
        "type": "power plant",
        "entity": "http://www.wikidata.org/entity/Q56372809",
        "country_qid": "Q1032"
      }
    },
    {
      "type": "Feature",
      "geometry": {
        "type": "Point",
        "coordinates": [
          0.98711,
          14.61281
        ]
      },
      "properties": {
        "label": "Kandadji Dam",
        "type": "power plant",
        "entity": "http://www.wikidata.org/entity/Q6361166",
        "country_qid": "Q1032"
      }
    },
    {
      "type": "Feature",
      "geometry": {
        "type": "Point",
        "coordinates": [
          2.120111111,
          13.430166666
        ]
      },
      "properties": {
        "label": "Gorou Banda power station",
        "type": "power plant",
        "entity": "http://www.wikidata.org/entity/Q56372810",
        "country_qid": "Q1032"
      }
    },
    {
      "type": "Feature",
      "geometry": {
        "type": "Point",
        "coordinates": [
          2.069978,
          13.54585
        ]
      },
      "properties": {
        "label": "Niamey II Goudel Power Plant",
        "type": "power plant",
        "entity": "http://www.wikidata.org/entity/Q134464419",
        "country_qid": "Q1032"
      }
    },
    {
      "type": "Feature",
      "geometry": {
        "type": "Point",
        "coordinates": [
          5.201666666,
          14.903611111
        ]
      },
      "properties": {
        "label": "Savannah Tarka Wind Power Station",
        "type": "power plant",
        "entity": "http://www.wikidata.org/entity/Q111943578",
        "country_qid": "Q1032"
      }
    },
    {
      "type": "Feature",
      "geometry": {
        "type": "Point",
        "coordinates": [
          2.120833333,
          13.425555555
        ]
      },
      "properties": {
        "label": "Gourou Banda Solar Power Station",
        "type": "power plant",
        "entity": "http://www.wikidata.org/entity/Q108685227",
        "country_qid": "Q1032"
      }
    },
    {
      "type": "Feature",
      "geometry": {
        "type": "Point",
        "coordinates": [
          8.950666666,
          13.800416666
        ]
      },
      "properties": {
        "label": "Zinder Power Plant",
        "type": "power plant",
        "entity": "http://www.wikidata.org/entity/Q125813958",
        "country_qid": "Q1032"
      }
    }
  ]
}