{
  "type": "FeatureCollection",
  "features": [
    {
      "type": "Feature",
      "geometry": {
        "type": "Point",
        "coordinates": [
          19.53416667,
          66.70893333
        ]
      },
      "properties": {
        "label": "Q10649584",
        "type": "power plant",
        "entity": "http://www.wikidata.org/entity/Q10649584",
        "country_qid": "Q34"
      }
    },
    {
      "type": "Feature",
      "geometry": {
        "type": "Point",
        "coordinates": [
          20.86343333,
          64.74488333
        ]
      },
      "properties": {
        "label": "Q10551196",
        "type": "power plant",
        "entity": "http://www.wikidata.org/entity/Q10551196",
        "country_qid": "Q34"
      }
    },
    {
      "type": "Feature",
      "geometry": {
        "type": "Point",
        "coordinates": [
          17.41559982,
          60.53079987
        ]
      },
      "properties": {
        "label": "Q10554026",
        "type": "power plant",
        "entity": "http://www.wikidata.org/entity/Q10554026",
        "country_qid": "Q34"
      }
    },
    {
      "type": "Feature",
      "geometry": {
        "type": "Point",
        "coordinates": [
          15.42194444,
          60.53527778
        ]
      },
      "properties": {
        "label": "Forshuvudforsen power plant",
        "type": "power plant",
        "entity": "http://www.wikidata.org/entity/Q10498128",
        "country_qid": "Q34"
      }
    },
    {
      "type": "Feature",
      "geometry": {
        "type": "Point",
        "coordinates": [
          12.69209957,
          57.5564003
        ]
      },
      "properties": {
        "label": "Q10658205",
        "type": "power plant",
        "entity": "http://www.wikidata.org/entity/Q10658205",
        "country_qid": "Q34"
      }
    },
    {
      "type": "Feature",
      "geometry": {
        "type": "Point",
        "coordinates": [
          15.85651944,
          65.47696944
        ]
      },
      "properties": {
        "label": "Gardikfors kraftstation",
        "type": "power plant",
        "entity": "http://www.wikidata.org/entity/Q10502883",
        "country_qid": "Q34"
      }
    },
    {
      "type": "Feature",
      "geometry": {
        "type": "Point",
        "coordinates": [
          20.3826,
          66.5041
        ]
      },
      "properties": {
        "label": "Letsi power station",
        "type": "power plant",
        "entity": "http://www.wikidata.org/entity/Q10559896",
        "country_qid": "Q34"
      }
    },
    {
      "type": "Feature",
      "geometry": {
        "type": "Point",
        "coordinates": [
          16.17292778,
          58.58906667
        ]
      },
      "properties": {
        "label": "Drag power station",
        "type": "power plant",
        "entity": "http://www.wikidata.org/entity/Q10476433",
        "country_qid": "Q34"
      }
    },
    {
      "type": "Feature",
      "geometry": {
        "type": "Point",
        "coordinates": [
          12.895944444,
          59.926944444
        ]
      },
      "properties": {
        "label": "Q10551387",
        "type": "power plant",
        "entity": "http://www.wikidata.org/entity/Q10551387",
        "country_qid": "Q34"
      }
    },
    {
      "type": "Feature",
      "geometry": {
        "type": "Point",
        "coordinates": [
          15.43694444,
          60.50888889
        ]
      },
      "properties": {
        "label": "Bullerforsen power station",
        "type": "power plant",
        "entity": "http://www.wikidata.org/entity/Q10437660",
        "country_qid": "Q34"
      }
    },
    {
      "type": "Feature",
      "geometry": {
        "type": "Point",
        "coordinates": [
          13.525,
          59.95611111
        ]
      },
      "properties": {
        "label": "Forshult hydroelectric power station",
        "type": "power plant",
        "entity": "http://www.wikidata.org/entity/Q10498127",
        "country_qid": "Q34"
      }
    },
    {
      "type": "Feature",
      "geometry": {
        "type": "Point",
        "coordinates": [
          17.472777777,
          67.72
        ]
      },
      "properties": {
        "label": "Ritsem hydropower station",
        "type": "power plant",
        "entity": "http://www.wikidata.org/entity/Q10655892",
        "country_qid": "Q34"
      }
    },
    {
      "type": "Feature",
      "geometry": {
        "type": "Point",
        "coordinates": [
          19.89666667,
          66.80916667
        ]
      },
      "properties": {
        "label": "Ligga Hydroelectric Power Plant",
        "type": "power plant",
        "entity": "http://www.wikidata.org/entity/Q10561514",
        "country_qid": "Q34"
      }
    },
    {
      "type": "Feature",
      "geometry": {
        "type": "Point",
        "coordinates": [
          12.66666667,
          57.03333333
        ]
      },
      "properties": {
        "label": "Q10726112",
        "type": "power plant",
        "entity": "http://www.wikidata.org/entity/Q10726112",
        "country_qid": "Q34"
      }
    },
    {
      "type": "Feature",
      "geometry": {
        "type": "Point",
        "coordinates": [
          13.1076,
          56.499
        ]
      },
      "properties": {
        "label": "Q10544076",
        "type": "power plant",
        "entity": "http://www.wikidata.org/entity/Q10544076",
        "country_qid": "Q34"
      }
    },
    {
      "type": "Feature",
      "geometry": {
        "type": "Point",
        "coordinates": [
          16.9766,
          60.6355
        ]
      },
      "properties": {
        "label": "Q10573555",
        "type": "power plant",
        "entity": "http://www.wikidata.org/entity/Q10573555",
        "country_qid": "Q34"
      }
    },
    {
      "type": "Feature",
      "geometry": {
        "type": "Point",
        "coordinates": [
          12.7602,
          57.033
        ]
      },
      "properties": {
        "label": "Q10723591",
        "type": "power plant",
        "entity": "http://www.wikidata.org/entity/Q10723591",
        "country_qid": "Q34"
      }
    },
    {
      "type": "Feature",
      "geometry": {
        "type": "Point",
        "coordinates": [
          16.98833333,
          63.36833333
        ]
      },
      "properties": {
        "label": "Moforsen Hydroelectric Power Station",
        "type": "power plant",
        "entity": "http://www.wikidata.org/entity/Q10587447",
        "country_qid": "Q34"
      }
    },
    {
      "type": "Feature",
      "geometry": {
        "type": "Point",
        "coordinates": [
          12.373121375,
          58.355627551
        ]
      },
      "properties": {
        "label": "Vargön Hydroelectric Power Station",
        "type": "power plant",
        "entity": "http://www.wikidata.org/entity/Q10713031",
        "country_qid": "Q34"
      }
    },
    {
      "type": "Feature",
      "geometry": {
        "type": "Point",
        "coordinates": [
          17.33888889,
          60.43888889
        ]
      },
      "properties": {
        "label": "Untra power station",
        "type": "power plant",
        "entity": "http://www.wikidata.org/entity/Q10709800",
        "country_qid": "Q34"
      }
    },
    {
      "type": "Feature",
      "geometry": {
        "type": "Point",
        "coordinates": [
          19.46947778,
          65.12645278
        ]
      },
      "properties": {
        "label": "Q10502238",
        "type": "power plant",
        "entity": "http://www.wikidata.org/entity/Q10502238",
        "country_qid": "Q34"
      }
    },
    {
      "type": "Feature",
      "geometry": {
        "type": "Point",
        "coordinates": [
          17.4421,
          60.5637
        ]
      },
      "properties": {
        "label": "Älvkarleby Hydroelectric Power Station",
        "type": "power plant",
        "entity": "http://www.wikidata.org/entity/Q8077057",
        "country_qid": "Q34"
      }
    },
    {
      "type": "Feature",
      "geometry": {
        "type": "Point",
        "coordinates": [
          15.75840664,
          60.01650238
        ]
      },
      "properties": {
        "label": "Semla Area",
        "type": "power plant",
        "entity": "http://www.wikidata.org/entity/Q10665648",
        "country_qid": "Q34"
      }
    },
    {
      "type": "Feature",
      "geometry": {
        "type": "Point",
        "coordinates": [
          17.0318,
          60.6564
        ]
      },
      "properties": {
        "label": "Q10726187",
        "type": "power plant",
        "entity": "http://www.wikidata.org/entity/Q10726187",
        "country_qid": "Q34"
      }
    },
    {
      "type": "Feature",
      "geometry": {
        "type": "Point",
        "coordinates": [
          14.2856,
          63.5474
        ]
      },
      "properties": {
        "label": "Q10572586",
        "type": "power plant",
        "entity": "http://www.wikidata.org/entity/Q10572586",
        "country_qid": "Q34"
      }
    },
    {
      "type": "Feature",
      "geometry": {
        "type": "Point",
        "coordinates": [
          17.13443333,
          60.672675
        ]
      },
      "properties": {
        "label": "Q10682225",
        "type": "power plant",
        "entity": "http://www.wikidata.org/entity/Q10682225",
        "country_qid": "Q34"
      }
    },
    {
      "type": "Feature",
      "geometry": {
        "type": "Point",
        "coordinates": [
          13.56319046,
          59.97900009
        ]
      },
      "properties": {
        "label": "Krakerud hydroelectric power station",
        "type": "power plant",
        "entity": "http://www.wikidata.org/entity/Q10548477",
        "country_qid": "Q34"
      }
    },
    {
      "type": "Feature",
      "geometry": {
        "type": "Point",
        "coordinates": [
          17.1234,
          60.6727
        ]
      },
      "properties": {
        "label": "Q10682192",
        "type": "power plant",
        "entity": "http://www.wikidata.org/entity/Q10682192",
        "country_qid": "Q34"
      }
    },
    {
      "type": "Feature",
      "geometry": {
        "type": "Point",
        "coordinates": [
          17.07694444,
          60.66861111
        ]
      },
      "properties": {
        "label": "Q10641348",
        "type": "power plant",
        "entity": "http://www.wikidata.org/entity/Q10641348",
        "country_qid": "Q34"
      }
    },
    {
      "type": "Feature",
      "geometry": {
        "type": "Point",
        "coordinates": [
          15.1935,
          58.3756
        ]
      },
      "properties": {
        "label": "Q10727193",
        "type": "power plant",
        "entity": "http://www.wikidata.org/entity/Q10727193",
        "country_qid": "Q34"
      }
    },
    {
      "type": "Feature",
      "geometry": {
        "type": "Point",
        "coordinates": [
          17.387611111,
          62.519833333
        ]
      },
      "properties": {
        "label": "Q11960632",
        "type": "power plant",
        "entity": "http://www.wikidata.org/entity/Q11960632",
        "country_qid": "Q34"
      }
    },
    {
      "type": "Feature",
      "geometry": {
        "type": "Point",
        "coordinates": [
          16.8313,
          61.2587
        ]
      },
      "properties": {
        "label": "Bergvik Hydroelectric Power Plant",
        "type": "power plant",
        "entity": "http://www.wikidata.org/entity/Q10428623",
        "country_qid": "Q34"
      }
    },
    {
      "type": "Feature",
      "geometry": {
        "type": "Point",
        "coordinates": [
          17.11158056,
          60.67961111
        ]
      },
      "properties": {
        "label": "Q10699404",
        "type": "power plant",
        "entity": "http://www.wikidata.org/entity/Q10699404",
        "country_qid": "Q34"
      }
    },
    {
      "type": "Feature",
      "geometry": {
        "type": "Point",
        "coordinates": [
          16.90444444,
          60.61277778
        ]
      },
      "properties": {
        "label": "Q10498086",
        "type": "power plant",
        "entity": "http://www.wikidata.org/entity/Q10498086",
        "country_qid": "Q34"
      }
    },
    {
      "type": "Feature",
      "geometry": {
        "type": "Point",
        "coordinates": [
          16.9571,
          60.6365
        ]
      },
      "properties": {
        "label": "Q10531416",
        "type": "power plant",
        "entity": "http://www.wikidata.org/entity/Q10531416",
        "country_qid": "Q34"
      }
    },
    {
      "type": "Feature",
      "geometry": {
        "type": "Point",
        "coordinates": [
          17.57798889,
          64.96206389
        ]
      },
      "properties": {
        "label": "Grundfors",
        "type": "power plant",
        "entity": "http://www.wikidata.org/entity/Q10509120",
        "country_qid": "Q34"
      }
    },
    {
      "type": "Feature",
      "geometry": {
        "type": "Point",
        "coordinates": [
          16.54475,
          59.607233333
        ]
      },
      "properties": {
        "label": "Turbinhuset, Västerås",
        "type": "power plant",
        "entity": "http://www.wikidata.org/entity/Q10706497",
        "country_qid": "Q34"
      }
    },
    {
      "type": "Feature",
      "geometry": {
        "type": "Point",
        "coordinates": [
          18.6741,
          65.4032
        ]
      },
      "properties": {
        "label": "Q10426899",
        "type": "power plant",
        "entity": "http://www.wikidata.org/entity/Q10426899",
        "country_qid": "Q34"
      }
    },
    {
      "type": "Feature",
      "geometry": {
        "type": "Point",
        "coordinates": [
          13.5447,
          57.2975
        ]
      },
      "properties": {
        "label": "Q10511321",
        "type": "power plant",
        "entity": "http://www.wikidata.org/entity/Q10511321",
        "country_qid": "Q34"
      }
    },
    {
      "type": "Feature",
      "geometry": {
        "type": "Point",
        "coordinates": [
          16.66777778,
          62.95083333
        ]
      },
      "properties": {
        "label": "Q10532536",
        "type": "power plant",
        "entity": "http://www.wikidata.org/entity/Q10532536",
        "country_qid": "Q34"
      }
    },
    {
      "type": "Feature",
      "geometry": {
        "type": "Point",
        "coordinates": [
          13.47583333,
          59.60777778
        ]
      },
      "properties": {
        "label": "Dejefors hydroelectric power station",
        "type": "power plant",
        "entity": "http://www.wikidata.org/entity/Q10467770",
        "country_qid": "Q34"
      }
    },
    {
      "type": "Feature",
      "geometry": {
        "type": "Point",
        "coordinates": [
          17.10166667,
          65.095
        ]
      },
      "properties": {
        "label": "Umluspens kraftstation",
        "type": "power plant",
        "entity": "http://www.wikidata.org/entity/Q10709221",
        "country_qid": "Q34"
      }
    },
    {
      "type": "Feature",
      "geometry": {
        "type": "Point",
        "coordinates": [
          14.8975,
          60.48333333
        ]
      },
      "properties": {
        "label": "Lillstup",
        "type": "power plant",
        "entity": "http://www.wikidata.org/entity/Q10561904",
        "country_qid": "Q34"
      }
    },
    {
      "type": "Feature",
      "geometry": {
        "type": "Point",
        "coordinates": [
          12.1194,
          58.1356
        ]
      },
      "properties": {
        "label": "Lilla Edets vattenkraftstation",
        "type": "power plant",
        "entity": "http://www.wikidata.org/entity/Q10561712",
        "country_qid": "Q34"
      }
    },
    {
      "type": "Feature",
      "geometry": {
        "type": "Point",
        "coordinates": [
          18.87829,
          64.47282
        ]
      },
      "properties": {
        "label": "Tuggen Hydroelectric Power Plant",
        "type": "power plant",
        "entity": "http://www.wikidata.org/entity/Q10706011",
        "country_qid": "Q34"
      }
    },
    {
      "type": "Feature",
      "geometry": {
        "type": "Point",
        "coordinates": [
          15.62555556,
          65.50916667
        ]
      },
      "properties": {
        "label": "Ajaure kraftstation",
        "type": "power plant",
        "entity": "http://www.wikidata.org/entity/Q10403894",
        "country_qid": "Q34"
      }
    },
    {
      "type": "Feature",
      "geometry": {
        "type": "Point",
        "coordinates": [
          19.81972222,
          66.63138889
        ]
      },
      "properties": {
        "label": "Akkats Hydroelectric Power Plant",
        "type": "power plant",
        "entity": "http://www.wikidata.org/entity/Q10404022",
        "country_qid": "Q34"
      }
    },
    {
      "type": "Feature",
      "geometry": {
        "type": "Point",
        "coordinates": [
          16.16111111,
          63.14194444
        ]
      },
      "properties": {
        "label": "Q10502607",
        "type": "power plant",
        "entity": "http://www.wikidata.org/entity/Q10502607",
        "country_qid": "Q34"
      }
    },
    {
      "type": "Feature",
      "geometry": {
        "type": "Point",
        "coordinates": [
          18.6905,
          64.5851
        ]
      },
      "properties": {
        "label": "Q10531424",
        "type": "power plant",
        "entity": "http://www.wikidata.org/entity/Q10531424",
        "country_qid": "Q34"
      }
    },
    {
      "type": "Feature",
      "geometry": {
        "type": "Point",
        "coordinates": [
          15.42611111,
          60.52472222
        ]
      },
      "properties": {
        "label": "Kvarnsveden power station",
        "type": "power plant",
        "entity": "http://www.wikidata.org/entity/Q10550929",
        "country_qid": "Q34"
      }
    },
    {
      "type": "Feature",
      "geometry": {
        "type": "Point",
        "coordinates": [
          12.769222222,
          56.966583333
        ]
      },
      "properties": {
        "label": "Q131993226",
        "type": "power plant",
        "entity": "http://www.wikidata.org/entity/Q131993226",
        "country_qid": "Q34"
      }
    },
    {
      "type": "Feature",
      "geometry": {
        "type": "Point",
        "coordinates": [
          17.007694444,
          63.68375
        ]
      },
      "properties": {
        "label": "Q18183404",
        "type": "power plant",
        "entity": "http://www.wikidata.org/entity/Q18183404",
        "country_qid": "Q34"
      }
    },
    {
      "type": "Feature",
      "geometry": {
        "type": "Point",
        "coordinates": [
          12.616024508,
          56.941565184
        ]
      },
      "properties": {
        "label": "Q132036324",
        "type": "power plant",
        "entity": "http://www.wikidata.org/entity/Q132036324",
        "country_qid": "Q34"
      }
    },
    {
      "type": "Feature",
      "geometry": {
        "type": "Point",
        "coordinates": [
          11.804883333,
          57.683822222
        ]
      },
      "properties": {
        "label": "Q60970199",
        "type": "power plant",
        "entity": "http://www.wikidata.org/entity/Q60970199",
        "country_qid": "Q34"
      }
    },
    {
      "type": "Feature",
      "geometry": {
        "type": "Point",
        "coordinates": [
          19.6888,
          65.0233
        ]
      },
      "properties": {
        "label": "Vargfors Hydroelectric Power Station",
        "type": "power plant",
        "entity": "http://www.wikidata.org/entity/Q10713022",
        "country_qid": "Q34"
      }
    },
    {
      "type": "Feature",
      "geometry": {
        "type": "Point",
        "coordinates": [
          12.5472,
          60.9508
        ]
      },
      "properties": {
        "label": "Höljes Hydroelectric Power Station",
        "type": "power plant",
        "entity": "http://www.wikidata.org/entity/Q11976478",
        "country_qid": "Q34"
      }
    },
    {
      "type": "Feature",
      "geometry": {
        "type": "Point",
        "coordinates": [
          15.5595,
          62.487
        ]
      },
      "properties": {
        "label": "Q11979619",
        "type": "power plant",
        "entity": "http://www.wikidata.org/entity/Q11979619",
        "country_qid": "Q34"
      }
    },
    {
      "type": "Feature",
      "geometry": {
        "type": "Point",
        "coordinates": [
          13.881556,
          63.974472
        ]
      },
      "properties": {
        "label": "Stensjö Power Station",
        "type": "power plant",
        "entity": "http://www.wikidata.org/entity/Q19390468",
        "country_qid": "Q34"
      }
    },
    {
      "type": "Feature",
      "geometry": {
        "type": "Point",
        "coordinates": [
          13.040444,
          55.626111
        ]
      },
      "properties": {
        "label": "Öresundsverket, Malmö",
        "type": "power plant",
        "entity": "http://www.wikidata.org/entity/Q10727554",
        "country_qid": "Q34"
      }
    },
    {
      "type": "Feature",
      "geometry": {
        "type": "Point",
        "coordinates": [
          12.15198,
          62.93025
        ]
      },
      "properties": {
        "label": "Sylsjø power station",
        "type": "power plant",
        "entity": "http://www.wikidata.org/entity/Q12004539",
        "country_qid": "Q34"
      }
    },
    {
      "type": "Feature",
      "geometry": {
        "type": "Point",
        "coordinates": [
          13.2819,
          62.4702
        ]
      },
      "properties": {
        "label": "Långå Wind Farm",
        "type": "power plant",
        "entity": "http://www.wikidata.org/entity/Q6710915",
        "country_qid": "Q34"
      }
    },
    {
      "type": "Feature",
      "geometry": {
        "type": "Point",
        "coordinates": [
          16.144194,
          59.822417
        ]
      },
      "properties": {
        "label": "Seglingsberg kraftstation",
        "type": "power plant",
        "entity": "http://www.wikidata.org/entity/Q49097464",
        "country_qid": "Q34"
      }
    },
    {
      "type": "Feature",
      "geometry": {
        "type": "Point",
        "coordinates": [
          16.8181,
          56.9353
        ]
      },
      "properties": {
        "label": "Stora Istad Wind Farm",
        "type": "power plant",
        "entity": "http://www.wikidata.org/entity/Q16900732",
        "country_qid": "Q34"
      }
    },
    {
      "type": "Feature",
      "geometry": {
        "type": "Point",
        "coordinates": [
          13.383806,
          63.389472
        ]
      },
      "properties": {
        "label": "Q11979625",
        "type": "power plant",
        "entity": "http://www.wikidata.org/entity/Q11979625",
        "country_qid": "Q34"
      }
    },
    {
      "type": "Feature",
      "geometry": {
        "type": "Point",
        "coordinates": [
          15.80916691,
          59.98638916
        ]
      },
      "properties": {
        "label": "Västanfors kraftstation",
        "type": "power plant",
        "entity": "http://www.wikidata.org/entity/Q18334891",
        "country_qid": "Q34"
      }
    },
    {
      "type": "Feature",
      "geometry": {
        "type": "Point",
        "coordinates": [
          13.588,
          63.759
        ]
      },
      "properties": {
        "label": "Storrun wind farm",
        "type": "power plant",
        "entity": "http://www.wikidata.org/entity/Q7620337",
        "country_qid": "Q34"
      }
    },
    {
      "type": "Feature",
      "geometry": {
        "type": "Point",
        "coordinates": [
          13.73,
          61.38
        ]
      },
      "properties": {
        "label": "Trängslet Dam",
        "type": "power plant",
        "entity": "http://www.wikidata.org/entity/Q3375596",
        "country_qid": "Q34"
      }
    },
    {
      "type": "Feature",
      "geometry": {
        "type": "Point",
        "coordinates": [
          17.1716,
          65.2846
        ]
      },
      "properties": {
        "label": "Blaiken wind farm",
        "type": "power plant",
        "entity": "http://www.wikidata.org/entity/Q4923904",
        "country_qid": "Q34"
      }
    },
    {
      "type": "Feature",
      "geometry": {
        "type": "Point",
        "coordinates": [
          15.62703,
          58.4377392
        ]
      },
      "properties": {
        "label": "Q99450361",
        "type": "power plant",
        "entity": "http://www.wikidata.org/entity/Q99450361",
        "country_qid": "Q34"
      }
    },
    {
      "type": "Feature",
      "geometry": {
        "type": "Point",
        "coordinates": [
          16.750833333,
          59.625277777
        ]
      },
      "properties": {
        "label": "Solparken, Västerås",
        "type": "power plant",
        "entity": "http://www.wikidata.org/entity/Q18332775",
        "country_qid": "Q34"
      }
    },
    {
      "type": "Feature",
      "geometry": {
        "type": "Point",
        "coordinates": [
          17.6675,
          59.17466
        ]
      },
      "properties": {
        "label": "Igelsta heat and power station",
        "type": "power plant",
        "entity": "http://www.wikidata.org/entity/Q125858115",
        "country_qid": "Q34"
      }
    },
    {
      "type": "Feature",
      "geometry": {
        "type": "Point",
        "coordinates": [
          15.7126,
          64.0691
        ]
      },
      "properties": {
        "label": "Havsnäs Wind Farm",
        "type": "power plant",
        "entity": "http://www.wikidata.org/entity/Q17077578",
        "country_qid": "Q34"
      }
    },
    {
      "type": "Feature",
      "geometry": {
        "type": "Point",
        "coordinates": [
          11.149167,
          58.379167
        ]
      },
      "properties": {
        "label": "Sotenäs Wave Power Station",
        "type": "power plant",
        "entity": "http://www.wikidata.org/entity/Q63388545",
        "country_qid": "Q34"
      }
    },
    {
      "type": "Feature",
      "geometry": {
        "type": "Point",
        "coordinates": [
          21.55472222,
          65.84527778
        ]
      },
      "properties": {
        "label": "Q19979102",
        "type": "power plant",
        "entity": "http://www.wikidata.org/entity/Q19979102",
        "country_qid": "Q34"
      }
    },
    {
      "type": "Feature",
      "geometry": {
        "type": "Point",
        "coordinates": [
          16.28,
          56.343888888
        ]
      },
      "properties": {
        "label": "Utgrunden Offshore Wind Farm",
        "type": "power plant",
        "entity": "http://www.wikidata.org/entity/Q56026049",
        "country_qid": "Q34"
      }
    },
    {
      "type": "Feature",
      "geometry": {
        "type": "Point",
        "coordinates": [
          18.06138333,
          59.25651944
        ]
      },
      "properties": {
        "label": "Högdalenverket",
        "type": "power plant",
        "entity": "http://www.wikidata.org/entity/Q10532252",
        "country_qid": "Q34"
      }
    },
    {
      "type": "Feature",
      "geometry": {
        "type": "Point",
        "coordinates": [
          18.57805556,
          66.97611111
        ]
      },
      "properties": {
        "label": "Seitevare Power Station",
        "type": "power plant",
        "entity": "http://www.wikidata.org/entity/Q2188732",
        "country_qid": "Q34"
      }
    },
    {
      "type": "Feature",
      "geometry": {
        "type": "Point",
        "coordinates": [
          14.92583333,
          60.21583333
        ]
      },
      "properties": {
        "label": "Loforsens kraftstation",
        "type": "power plant",
        "entity": "http://www.wikidata.org/entity/Q18292002",
        "country_qid": "Q34"
      }
    },
    {
      "type": "Feature",
      "geometry": {
        "type": "Point",
        "coordinates": [
          17.67472222,
          59.85333333
        ]
      },
      "properties": {
        "label": "Uppsala Block 5",
        "type": "power plant",
        "entity": "http://www.wikidata.org/entity/Q10710206",
        "country_qid": "Q34"
      }
    },
    {
      "type": "Feature",
      "geometry": {
        "type": "Point",
        "coordinates": [
          16.83277778,
          58.55305556
        ]
      },
      "properties": {
        "label": "R4 nuclear reactor",
        "type": "power plant",
        "entity": "http://www.wikidata.org/entity/Q4357537",
        "country_qid": "Q34"
      }
    },
    {
      "type": "Feature",
      "geometry": {
        "type": "Point",
        "coordinates": [
          20.6525,
          66.42806
        ]
      },
      "properties": {
        "label": "Q2012979",
        "type": "power plant",
        "entity": "http://www.wikidata.org/entity/Q2012979",
        "country_qid": "Q34"
      }
    },
    {
      "type": "Feature",
      "geometry": {
        "type": "Point",
        "coordinates": [
          14.627333,
          62.489389
        ]
      },
      "properties": {
        "label": "Q17265783",
        "type": "power plant",
        "entity": "http://www.wikidata.org/entity/Q17265783",
        "country_qid": "Q34"
      }
    },
    {
      "type": "Feature",
      "geometry": {
        "type": "Point",
        "coordinates": [
          12.704138888,
          57.013916666
        ]
      },
      "properties": {
        "label": "Q131987382",
        "type": "power plant",
        "entity": "http://www.wikidata.org/entity/Q131987382",
        "country_qid": "Q34"
      }
    },
    {
      "type": "Feature",
      "geometry": {
        "type": "Point",
        "coordinates": [
          18.30277778,
          59.225
        ]
      },
      "properties": {
        "label": "Uddby kvarn",
        "type": "power plant",
        "entity": "http://www.wikidata.org/entity/Q18334273",
        "country_qid": "Q34"
      }
    },
    {
      "type": "Feature",
      "geometry": {
        "type": "Point",
        "coordinates": [
          13.57075,
          59.386166666
        ]
      },
      "properties": {
        "label": "Q96241128",
        "type": "power plant",
        "entity": "http://www.wikidata.org/entity/Q96241128",
        "country_qid": "Q34"
      }
    },
    {
      "type": "Feature",
      "geometry": {
        "type": "Point",
        "coordinates": [
          14.284,
          62.0276
        ]
      },
      "properties": {
        "label": "Sveg Hydroelectric Power Plant",
        "type": "power plant",
        "entity": "http://www.wikidata.org/entity/Q18333185",
        "country_qid": "Q34"
      }
    },
    {
      "type": "Feature",
      "geometry": {
        "type": "Point",
        "coordinates": [
          14.8372,
          56.8678
        ]
      },
      "properties": {
        "label": "Sandviksverket",
        "type": "power plant",
        "entity": "http://www.wikidata.org/entity/Q10661272",
        "country_qid": "Q34"
      }
    },
    {
      "type": "Feature",
      "geometry": {
        "type": "Point",
        "coordinates": [
          14.8325,
          56.15222222
        ]
      },
      "properties": {
        "label": "Karlshamn Power Plant",
        "type": "power plant",
        "entity": "http://www.wikidata.org/entity/Q289958",
        "country_qid": "Q34"
      }
    },
    {
      "type": "Feature",
      "geometry": {
        "type": "Point",
        "coordinates": [
          18.16666667,
          60.40333333
        ]
      },
      "properties": {
        "label": "Forsmark Nuclear Power Plant",
        "type": "power plant",
        "entity": "http://www.wikidata.org/entity/Q1575435",
        "country_qid": "Q34"
      }
    },
    {
      "type": "Feature",
      "geometry": {
        "type": "Point",
        "coordinates": [
          20.051667,
          63.8525
        ]
      },
      "properties": {
        "label": "Stornorrfors Hydroelectric Power Station",
        "type": "power plant",
        "entity": "http://www.wikidata.org/entity/Q3499873",
        "country_qid": "Q34"
      }
    },
    {
      "type": "Feature",
      "geometry": {
        "type": "Point",
        "coordinates": [
          13.08,
          55.39
        ]
      },
      "properties": {
        "label": "Q43380434",
        "type": "power plant",
        "entity": "http://www.wikidata.org/entity/Q43380434",
        "country_qid": "Q34"
      }
    },
    {
      "type": "Feature",
      "geometry": {
        "type": "Point",
        "coordinates": [
          16.186722,
          59.708222
        ]
      },
      "properties": {
        "label": "Ramnäs kraftstation",
        "type": "power plant",
        "entity": "http://www.wikidata.org/entity/Q49097449",
        "country_qid": "Q34"
      }
    },
    {
      "type": "Feature",
      "geometry": {
        "type": "Point",
        "coordinates": [
          13.4996203,
          59.525996
        ]
      },
      "properties": {
        "label": "Forshaga hydroelectric power station",
        "type": "power plant",
        "entity": "http://www.wikidata.org/entity/Q49101958",
        "country_qid": "Q34"
      }
    },
    {
      "type": "Feature",
      "geometry": {
        "type": "Point",
        "coordinates": [
          11.86,
          57.78
        ]
      },
      "properties": {
        "label": "Q56301307",
        "type": "power plant",
        "entity": "http://www.wikidata.org/entity/Q56301307",
        "country_qid": "Q34"
      }
    },
    {
      "type": "Feature",
      "geometry": {
        "type": "Point",
        "coordinates": [
          12.783333333,
          55.516666666
        ]
      },
      "properties": {
        "label": "Lillgrund Wind Farm",
        "type": "power plant",
        "entity": "http://www.wikidata.org/entity/Q3012042",
        "country_qid": "Q34"
      }
    },
    {
      "type": "Feature",
      "geometry": {
        "type": "Point",
        "coordinates": [
          11.890517,
          57.692618
        ]
      },
      "properties": {
        "label": "Rya Kraftvärmeverk",
        "type": "power plant",
        "entity": "http://www.wikidata.org/entity/Q10658170",
        "country_qid": "Q34"
      }
    },
    {
      "type": "Feature",
      "geometry": {
        "type": "Point",
        "coordinates": [
          12.92083333,
          55.74444444
        ]
      },
      "properties": {
        "label": "Barsebäck Nuclear Power Plant",
        "type": "power plant",
        "entity": "http://www.wikidata.org/entity/Q656534",
        "country_qid": "Q34"
      }
    },
    {
      "type": "Feature",
      "geometry": {
        "type": "Point",
        "coordinates": [
          19.815833333,
          66.885833333
        ]
      },
      "properties": {
        "label": "Harsprånget hydroelectric power station",
        "type": "power plant",
        "entity": "http://www.wikidata.org/entity/Q3127967",
        "country_qid": "Q34"
      }
    },
    {
      "type": "Feature",
      "geometry": {
        "type": "Point",
        "coordinates": [
          13.174289,
          55.695119
        ]
      },
      "properties": {
        "label": "Q134293493",
        "type": "power plant",
        "entity": "http://www.wikidata.org/entity/Q134293493",
        "country_qid": "Q34"
      }
    },
    {
      "type": "Feature",
      "geometry": {
        "type": "Point",
        "coordinates": [
          18.354555555,
          67.493111111
        ]
      },
      "properties": {
        "label": "Q19398054",
        "type": "power plant",
        "entity": "http://www.wikidata.org/entity/Q19398054",
        "country_qid": "Q34"
      }
    },
    {
      "type": "Feature",
      "geometry": {
        "type": "Point",
        "coordinates": [
          17.0968,
          63.1837
        ]
      },
      "properties": {
        "label": "Q11975546",
        "type": "power plant",
        "entity": "http://www.wikidata.org/entity/Q11975546",
        "country_qid": "Q34"
      }
    },
    {
      "type": "Feature",
      "geometry": {
        "type": "Point",
        "coordinates": [
          15.382583,
          60.145917
        ]
      },
      "properties": {
        "label": "Morgårdshammars kraftstation",
        "type": "power plant",
        "entity": "http://www.wikidata.org/entity/Q49097341",
        "country_qid": "Q34"
      }
    },
    {
      "type": "Feature",
      "geometry": {
        "type": "Point",
        "coordinates": [
          16.11938611,
          63.59738611
        ]
      },
      "properties": {
        "label": "Storfinnforsen Hydroelectric Power Station",
        "type": "power plant",
        "entity": "http://www.wikidata.org/entity/Q10681252",
        "country_qid": "Q34"
      }
    },
    {
      "type": "Feature",
      "geometry": {
        "type": "Point",
        "coordinates": [
          17.82416667,
          59.36222222
        ]
      },
      "properties": {
        "label": "Hässelbyverket",
        "type": "power plant",
        "entity": "http://www.wikidata.org/entity/Q10531796",
        "country_qid": "Q34"
      }
    },
    {
      "type": "Feature",
      "geometry": {
        "type": "Point",
        "coordinates": [
          16.571389,
          63.028417
        ]
      },
      "properties": {
        "label": "Q12004175",
        "type": "power plant",
        "entity": "http://www.wikidata.org/entity/Q12004175",
        "country_qid": "Q34"
      }
    },
    {
      "type": "Feature",
      "geometry": {
        "type": "Point",
        "coordinates": [
          12.453079779,
          57.006285069
        ]
      },
      "properties": {
        "label": "Q132037132",
        "type": "power plant",
        "entity": "http://www.wikidata.org/entity/Q132037132",
        "country_qid": "Q34"
      }
    },
    {
      "type": "Feature",
      "geometry": {
        "type": "Point",
        "coordinates": [
          12.10833333,
          57.26111111
        ]
      },
      "properties": {
        "label": "Ringhals Nuclear Power Plant",
        "type": "power plant",
        "entity": "http://www.wikidata.org/entity/Q205774",
        "country_qid": "Q34"
      }
    },
    {
      "type": "Feature",
      "geometry": {
        "type": "Point",
        "coordinates": [
          12.687138888,
          60.734083333
        ]
      },
      "properties": {
        "label": "Q56374714",
        "type": "power plant",
        "entity": "http://www.wikidata.org/entity/Q56374714",
        "country_qid": "Q34"
      }
    },
    {
      "type": "Feature",
      "geometry": {
        "type": "Point",
        "coordinates": [
          20.86083,
          66.22083
        ]
      },
      "properties": {
        "label": "Q1921812",
        "type": "power plant",
        "entity": "http://www.wikidata.org/entity/Q1921812",
        "country_qid": "Q34"
      }
    },
    {
      "type": "Feature",
      "geometry": {
        "type": "Point",
        "coordinates": [
          17.01997222,
          56.97997222
        ]
      },
      "properties": {
        "label": "Q56026046",
        "type": "power plant",
        "entity": "http://www.wikidata.org/entity/Q56026046",
        "country_qid": "Q34"
      }
    },
    {
      "type": "Feature",
      "geometry": {
        "type": "Point",
        "coordinates": [
          15.82778,
          64.94361
        ]
      },
      "properties": {
        "label": "Q1878566",
        "type": "power plant",
        "entity": "http://www.wikidata.org/entity/Q1878566",
        "country_qid": "Q34"
      }
    },
    {
      "type": "Feature",
      "geometry": {
        "type": "Point",
        "coordinates": [
          19.5529,
          64.0399
        ]
      },
      "properties": {
        "label": "Harrsele dämningsområde",
        "type": "power plant",
        "entity": "http://www.wikidata.org/entity/Q17519191",
        "country_qid": "Q34"
      }
    },
    {
      "type": "Feature",
      "geometry": {
        "type": "Point",
        "coordinates": [
          16.017246,
          56.166423
        ]
      },
      "properties": {
        "label": "Yttre Stengrund offshore wind farm",
        "type": "power plant",
        "entity": "http://www.wikidata.org/entity/Q28233699",
        "country_qid": "Q34"
      }
    },
    {
      "type": "Feature",
      "geometry": {
        "type": "Point",
        "coordinates": [
          19.80416667,
          66.96194444
        ]
      },
      "properties": {
        "label": "Porjus Hydroelectric Power Station",
        "type": "power plant",
        "entity": "http://www.wikidata.org/entity/Q2944573",
        "country_qid": "Q34"
      }
    },
    {
      "type": "Feature",
      "geometry": {
        "type": "Point",
        "coordinates": [
          15.1775,
          59.26555556
        ]
      },
      "properties": {
        "label": "Åbyverket",
        "type": "power plant",
        "entity": "http://www.wikidata.org/entity/Q10726191",
        "country_qid": "Q34"
      }
    },
    {
      "type": "Feature",
      "geometry": {
        "type": "Point",
        "coordinates": [
          16.211306,
          59.710778
        ]
      },
      "properties": {
        "label": "Surahammar kraftstation",
        "type": "power plant",
        "entity": "http://www.wikidata.org/entity/Q49097443",
        "country_qid": "Q34"
      }
    },
    {
      "type": "Feature",
      "geometry": {
        "type": "Point",
        "coordinates": [
          15.408722,
          60.139806
        ]
      },
      "properties": {
        "label": "Smedjebackens kraftstation",
        "type": "power plant",
        "entity": "http://www.wikidata.org/entity/Q49097352",
        "country_qid": "Q34"
      }
    },
    {
      "type": "Feature",
      "geometry": {
        "type": "Point",
        "coordinates": [
          18.130444444,
          59.151472222
        ]
      },
      "properties": {
        "label": "Vattenfalls värmekraftverk. Jordbro",
        "type": "power plant",
        "entity": "http://www.wikidata.org/entity/Q106618141",
        "country_qid": "Q34"
      }
    },
    {
      "type": "Feature",
      "geometry": {
        "type": "Point",
        "coordinates": [
          18.101907,
          59.352865
        ]
      },
      "properties": {
        "label": "Värtaverket",
        "type": "power plant",
        "entity": "http://www.wikidata.org/entity/Q13591559",
        "country_qid": "Q34"
      }
    },
    {
      "type": "Feature",
      "geometry": {
        "type": "Point",
        "coordinates": [
          11.9544,
          57.7027
        ]
      },
      "properties": {
        "label": "Q122312941",
        "type": "power plant",
        "entity": "http://www.wikidata.org/entity/Q122312941",
        "country_qid": "Q34"
      }
    },
    {
      "type": "Feature",
      "geometry": {
        "type": "Point",
        "coordinates": [
          15.72738,
          57.804333
        ]
      },
      "properties": {
        "label": "Gullringen kraftstation",
        "type": "power plant",
        "entity": "http://www.wikidata.org/entity/Q26256952",
        "country_qid": "Q34"
      }
    },
    {
      "type": "Feature",
      "geometry": {
        "type": "Point",
        "coordinates": [
          12.824027777,
          56.919833333
        ]
      },
      "properties": {
        "label": "Q131993402",
        "type": "power plant",
        "entity": "http://www.wikidata.org/entity/Q131993402",
        "country_qid": "Q34"
      }
    },
    {
      "type": "Feature",
      "geometry": {
        "type": "Point",
        "coordinates": [
          16.76166667,
          63.54555556
        ]
      },
      "properties": {
        "label": "Q11980614",
        "type": "power plant",
        "entity": "http://www.wikidata.org/entity/Q11980614",
        "country_qid": "Q34"
      }
    },
    {
      "type": "Feature",
      "geometry": {
        "type": "Point",
        "coordinates": [
          12.754722222,
          56.964861111
        ]
      },
      "properties": {
        "label": "Q131993143",
        "type": "power plant",
        "entity": "http://www.wikidata.org/entity/Q131993143",
        "country_qid": "Q34"
      }
    },
    {
      "type": "Feature",
      "geometry": {
        "type": "Point",
        "coordinates": [
          17.2301,
          65.2902
        ]
      },
      "properties": {
        "label": "Q18291062",
        "type": "power plant",
        "entity": "http://www.wikidata.org/entity/Q18291062",
        "country_qid": "Q34"
      }
    },
    {
      "type": "Feature",
      "geometry": {
        "type": "Point",
        "coordinates": [
          23.537264,
          66.862499
        ]
      },
      "properties": {
        "label": "Aapua Wind Farm",
        "type": "power plant",
        "entity": "http://www.wikidata.org/entity/Q4661647",
        "country_qid": "Q34"
      }
    },
    {
      "type": "Feature",
      "geometry": {
        "type": "Point",
        "coordinates": [
          13.659527777,
          63.222361111
        ]
      },
      "properties": {
        "label": "Q12004637",
        "type": "power plant",
        "entity": "http://www.wikidata.org/entity/Q12004637",
        "country_qid": "Q34"
      }
    },
    {
      "type": "Feature",
      "geometry": {
        "type": "Point",
        "coordinates": [
          13.4435,
          55.486833333
        ]
      },
      "properties": {
        "label": "Skurup Solar PV Park",
        "type": "power plant",
        "entity": "http://www.wikidata.org/entity/Q116373658",
        "country_qid": "Q34"
      }
    },
    {
      "type": "Feature",
      "geometry": {
        "type": "Point",
        "coordinates": [
          13.079306,
          62.463111
        ]
      },
      "properties": {
        "label": "Q11987225",
        "type": "power plant",
        "entity": "http://www.wikidata.org/entity/Q11987225",
        "country_qid": "Q34"
      }
    },
    {
      "type": "Feature",
      "geometry": {
        "type": "Point",
        "coordinates": [
          20.41083333,
          63.86888889
        ]
      },
      "properties": {
        "label": "Q10478614",
        "type": "power plant",
        "entity": "http://www.wikidata.org/entity/Q10478614",
        "country_qid": "Q34"
      }
    },
    {
      "type": "Feature",
      "geometry": {
        "type": "Point",
        "coordinates": [
          16.201685,
          58.59311
        ]
      },
      "properties": {
        "label": "Bråvallaverket",
        "type": "power plant",
        "entity": "http://www.wikidata.org/entity/Q10437028",
        "country_qid": "Q34"
      }
    },
    {
      "type": "Feature",
      "geometry": {
        "type": "Point",
        "coordinates": [
          12.472001677,
          56.994395289
        ]
      },
      "properties": {
        "label": "Q132037998",
        "type": "power plant",
        "entity": "http://www.wikidata.org/entity/Q132037998",
        "country_qid": "Q34"
      }
    },
    {
      "type": "Feature",
      "geometry": {
        "type": "Point",
        "coordinates": [
          16.67111111,
          57.41555556
        ]
      },
      "properties": {
        "label": "Oskarshamn Nuclear Power Plant",
        "type": "power plant",
        "entity": "http://www.wikidata.org/entity/Q1539046",
        "country_qid": "Q34"
      }
    },
    {
      "type": "Feature",
      "geometry": {
        "type": "Point",
        "coordinates": [
          15.637847,
          56.198457
        ]
      },
      "properties": {
        "label": "Q133868748",
        "type": "power plant",
        "entity": "http://www.wikidata.org/entity/Q133868748",
        "country_qid": "Q34"
      }
    },
    {
      "type": "Feature",
      "geometry": {
        "type": "Point",
        "coordinates": [
          16.20725,
          59.624806
        ]
      },
      "properties": {
        "label": "Hallstahammar kraftstation",
        "type": "power plant",
        "entity": "http://www.wikidata.org/entity/Q49097409",
        "country_qid": "Q34"
      }
    },
    {
      "type": "Feature",
      "geometry": {
        "type": "Point",
        "coordinates": [
          15.5189,
          58.5068
        ]
      },
      "properties": {
        "label": "Q15992253",
        "type": "power plant",
        "entity": "http://www.wikidata.org/entity/Q15992253",
        "country_qid": "Q34"
      }
    },
    {
      "type": "Feature",
      "geometry": {
        "type": "Point",
        "coordinates": [
          12.27833333,
          58.28
        ]
      },
      "properties": {
        "label": "Hojum Hydroelectric Power Station",
        "type": "power plant",
        "entity": "http://www.wikidata.org/entity/Q3565673",
        "country_qid": "Q34"
      }
    },
    {
      "type": "Feature",
      "geometry": {
        "type": "Point",
        "coordinates": [
          12.59154,
          59.6786
        ]
      },
      "properties": {
        "label": "Q18816594",
        "type": "power plant",
        "entity": "http://www.wikidata.org/entity/Q18816594",
        "country_qid": "Q34"
      }
    },
    {
      "type": "Feature",
      "geometry": {
        "type": "Point",
        "coordinates": [
          14.236,
          60.436
        ]
      },
      "properties": {
        "label": "Q18289676",
        "type": "power plant",
        "entity": "http://www.wikidata.org/entity/Q18289676",
        "country_qid": "Q34"
      }
    },
    {
      "type": "Feature",
      "geometry": {
        "type": "Point",
        "coordinates": [
          15.1847,
          65.5762
        ]
      },
      "properties": {
        "label": "Q18290098",
        "type": "power plant",
        "entity": "http://www.wikidata.org/entity/Q18290098",
        "country_qid": "Q34"
      }
    },
    {
      "type": "Feature",
      "geometry": {
        "type": "Point",
        "coordinates": [
          11.366666666,
          58.2
        ]
      },
      "properties": {
        "label": "Lysekil Project",
        "type": "power plant",
        "entity": "http://www.wikidata.org/entity/Q6710109",
        "country_qid": "Q34"
      }
    },
    {
      "type": "Feature",
      "geometry": {
        "type": "Point",
        "coordinates": [
          16.07033333,
          63.14663333
        ]
      },
      "properties": {
        "label": "Krångede Hydroelectric Power Station",
        "type": "power plant",
        "entity": "http://www.wikidata.org/entity/Q11982275",
        "country_qid": "Q34"
      }
    },
    {
      "type": "Feature",
      "geometry": {
        "type": "Point",
        "coordinates": [
          13.4013,
          56.5122
        ]
      },
      "properties": {
        "label": "Q18289609",
        "type": "power plant",
        "entity": "http://www.wikidata.org/entity/Q18289609",
        "country_qid": "Q34"
      }
    },
    {
      "type": "Feature",
      "geometry": {
        "type": "Point",
        "coordinates": [
          12.483384315,
          56.947201517
        ]
      },
      "properties": {
        "label": "Q132033666",
        "type": "power plant",
        "entity": "http://www.wikidata.org/entity/Q132033666",
        "country_qid": "Q34"
      }
    },
    {
      "type": "Feature",
      "geometry": {
        "type": "Point",
        "coordinates": [
          14.9895,
          65.8883
        ]
      },
      "properties": {
        "label": "Q18291253",
        "type": "power plant",
        "entity": "http://www.wikidata.org/entity/Q18291253",
        "country_qid": "Q34"
      }
    },
    {
      "type": "Feature",
      "geometry": {
        "type": "Point",
        "coordinates": [
          12.27222222,
          58.27416667
        ]
      },
      "properties": {
        "label": "Olidan Hydroelectric Power Station",
        "type": "power plant",
        "entity": "http://www.wikidata.org/entity/Q450818",
        "country_qid": "Q34"
      }
    },
    {
      "type": "Feature",
      "geometry": {
        "type": "Point",
        "coordinates": [
          15.781,
          60.004694444
        ]
      },
      "properties": {
        "label": "Fagersta kraftstation",
        "type": "power plant",
        "entity": "http://www.wikidata.org/entity/Q49097484",
        "country_qid": "Q34"
      }
    },
    {
      "type": "Feature",
      "geometry": {
        "type": "Point",
        "coordinates": [
          18.15,
          57.033333333
        ]
      },
      "properties": {
        "label": "Bockstigen Offshore Wind Farm",
        "type": "power plant",
        "entity": "http://www.wikidata.org/entity/Q56026051",
        "country_qid": "Q34"
      }
    },
    {
      "type": "Feature",
      "geometry": {
        "type": "Point",
        "coordinates": [
          12.755583333,
          56.927138888
        ]
      },
      "properties": {
        "label": "Q131987426",
        "type": "power plant",
        "entity": "http://www.wikidata.org/entity/Q131987426",
        "country_qid": "Q34"
      }
    },
    {
      "type": "Feature",
      "geometry": {
        "type": "Point",
        "coordinates": [
          17.0815,
          61.2129
        ]
      },
      "properties": {
        "label": "Ljusne Strömmar Hydroelectric Power Plant",
        "type": "power plant",
        "entity": "http://www.wikidata.org/entity/Q18291996",
        "country_qid": "Q34"
      }
    },
    {
      "type": "Feature",
      "geometry": {
        "type": "Point",
        "coordinates": [
          12.382328,
          57.033169
        ]
      },
      "properties": {
        "label": "Q56301169",
        "type": "power plant",
        "entity": "http://www.wikidata.org/entity/Q56301169",
        "country_qid": "Q34"
      }
    },
    {
      "type": "Feature",
      "geometry": {
        "type": "Point",
        "coordinates": [
          12.787145397,
          56.932601016
        ]
      },
      "properties": {
        "label": "Q132037421",
        "type": "power plant",
        "entity": "http://www.wikidata.org/entity/Q132037421",
        "country_qid": "Q34"
      }
    },
    {
      "type": "Feature",
      "geometry": {
        "type": "Point",
        "coordinates": [
          13.01173889,
          55.57791389
        ]
      },
      "properties": {
        "label": "Heleneholmsverket",
        "type": "power plant",
        "entity": "http://www.wikidata.org/entity/Q10519460",
        "country_qid": "Q34"
      }
    },
    {
      "type": "Feature",
      "geometry": {
        "type": "Point",
        "coordinates": [
          21.672527777,
          65.807472222
        ]
      },
      "properties": {
        "label": "Bodens vattenkraftverk",
        "type": "power plant",
        "entity": "http://www.wikidata.org/entity/Q19885732",
        "country_qid": "Q34"
      }
    },
    {
      "type": "Feature",
      "geometry": {
        "type": "Point",
        "coordinates": [
          15.19111111,
          60.15638889
        ]
      },
      "properties": {
        "label": "Ludvika kraftstation",
        "type": "power plant",
        "entity": "http://www.wikidata.org/entity/Q18292034",
        "country_qid": "Q34"
      }
    },
    {
      "type": "Feature",
      "geometry": {
        "type": "Point",
        "coordinates": [
          12.466107155,
          56.889149431
        ]
      },
      "properties": {
        "label": "Q132035501",
        "type": "power plant",
        "entity": "http://www.wikidata.org/entity/Q132035501",
        "country_qid": "Q34"
      }
    },
    {
      "type": "Feature",
      "geometry": {
        "type": "Point",
        "coordinates": [
          14.2925,
          57.785033333
        ]
      },
      "properties": {
        "label": "Ebbe power station",
        "type": "power plant",
        "entity": "http://www.wikidata.org/entity/Q2944559",
        "country_qid": "Q34"
      }
    },
    {
      "type": "Feature",
      "geometry": {
        "type": "Point",
        "coordinates": [
          12.472684122,
          56.945143531
        ]
      },
      "properties": {
        "label": "Q132034696",
        "type": "power plant",
        "entity": "http://www.wikidata.org/entity/Q132034696",
        "country_qid": "Q34"
      }
    },
    {
      "type": "Feature",
      "geometry": {
        "type": "Point",
        "coordinates": [
          20.66666667,
          65.41666667
        ]
      },
      "properties": {
        "label": "Markbygden Wind Farm",
        "type": "power plant",
        "entity": "http://www.wikidata.org/entity/Q12859023",
        "country_qid": "Q34"
      }
    },
    {
      "type": "Feature",
      "geometry": {
        "type": "Point",
        "coordinates": [
          18.0825,
          59.20611111
        ]
      },
      "properties": {
        "label": "Ågesta Nuclear Plant",
        "type": "power plant",
        "entity": "http://www.wikidata.org/entity/Q1739508",
        "country_qid": "Q34"
      }
    },
    {
      "type": "Feature",
      "geometry": {
        "type": "Point",
        "coordinates": [
          18.255,
          64.714
        ]
      },
      "properties": {
        "label": "Q18332309",
        "type": "power plant",
        "entity": "http://www.wikidata.org/entity/Q18332309",
        "country_qid": "Q34"
      }
    },
    {
      "type": "Feature",
      "geometry": {
        "type": "Point",
        "coordinates": [
          18.08555556,
          59.30277778
        ]
      },
      "properties": {
        "label": "Hammarbyverket",
        "type": "power plant",
        "entity": "http://www.wikidata.org/entity/Q10516854",
        "country_qid": "Q34"
      }
    },
    {
      "type": "Feature",
      "geometry": {
        "type": "Point",
        "coordinates": [
          19.202713,
          66.743909
        ]
      },
      "properties": {
        "label": "Q49095969",
        "type": "power plant",
        "entity": "http://www.wikidata.org/entity/Q49095969",
        "country_qid": "Q34"
      }
    },
    {
      "type": "Feature",
      "geometry": {
        "type": "Point",
        "coordinates": [
          20.33333333,
          66.68333333
        ]
      },
      "properties": {
        "label": "Messaure kraftstation",
        "type": "power plant",
        "entity": "http://www.wikidata.org/entity/Q2638665",
        "country_qid": "Q34"
      }
    },
    {
      "type": "Feature",
      "geometry": {
        "type": "Point",
        "coordinates": [
          15.789861111,
          59.997111111
        ]
      },
      "properties": {
        "label": "Uddnäs kraftstation",
        "type": "power plant",
        "entity": "http://www.wikidata.org/entity/Q49097481",
        "country_qid": "Q34"
      }
    },
    {
      "type": "Feature",
      "geometry": {
        "type": "Point",
        "coordinates": [
          13.135671165,
          57.435496858
        ]
      },
      "properties": {
        "label": "Q131833840",
        "type": "power plant",
        "entity": "http://www.wikidata.org/entity/Q131833840",
        "country_qid": "Q34"
      }
    },
    {
      "type": "Feature",
      "geometry": {
        "type": "Point",
        "coordinates": [
          14.009444444,
          56.337361111
        ]
      },
      "properties": {
        "label": "Genastorps kraftverk",
        "type": "power plant",
        "entity": "http://www.wikidata.org/entity/Q122260426",
        "country_qid": "Q34"
      }
    },
    {
      "type": "Feature",
      "geometry": {
        "type": "Point",
        "coordinates": [
          14.0201,
          56.3045
        ]
      },
      "properties": {
        "label": "Östanå kraftverk",
        "type": "power plant",
        "entity": "http://www.wikidata.org/entity/Q121603104",
        "country_qid": "Q34"
      }
    },
    {
      "type": "Feature",
      "geometry": {
        "type": "Point",
        "coordinates": [
          14.98484,
          65.54365
        ]
      },
      "properties": {
        "label": "Q122640209",
        "type": "power plant",
        "entity": "http://www.wikidata.org/entity/Q122640209",
        "country_qid": "Q34"
      }
    },
    {
      "type": "Feature",
      "geometry": {
        "type": "Point",
        "coordinates": [
          17.288825,
          64.102058
        ]
      },
      "properties": {
        "label": "Q123336565",
        "type": "power plant",
        "entity": "http://www.wikidata.org/entity/Q123336565",
        "country_qid": "Q34"
      }
    },
    {
      "type": "Feature",
      "geometry": {
        "type": "Point",
        "coordinates": [
          16.84185,
          58.73
        ]
      },
      "properties": {
        "label": "Q122762414",
        "type": "power plant",
        "entity": "http://www.wikidata.org/entity/Q122762414",
        "country_qid": "Q34"
      }
    },
    {
      "type": "Feature",
      "geometry": {
        "type": "Point",
        "coordinates": [
          13.009604,
          56.841148
        ]
      },
      "properties": {
        "label": "Q130614446",
        "type": "power plant",
        "entity": "http://www.wikidata.org/entity/Q130614446",
        "country_qid": "Q34"
      }
    },
    {
      "type": "Feature",
      "geometry": {
        "type": "Point",
        "coordinates": [
          12.973265,
          56.80839
        ]
      },
      "properties": {
        "label": "Q130614648",
        "type": "power plant",
        "entity": "http://www.wikidata.org/entity/Q130614648",
        "country_qid": "Q34"
      }
    },
    {
      "type": "Feature",
      "geometry": {
        "type": "Point",
        "coordinates": [
          13.368219444,
          57.495
        ]
      },
      "properties": {
        "label": "Q131888753",
        "type": "power plant",
        "entity": "http://www.wikidata.org/entity/Q131888753",
        "country_qid": "Q34"
      }
    },
    {
      "type": "Feature",
      "geometry": {
        "type": "Point",
        "coordinates": [
          13.048789,
          56.870814
        ]
      },
      "properties": {
        "label": "Q130614658",
        "type": "power plant",
        "entity": "http://www.wikidata.org/entity/Q130614658",
        "country_qid": "Q34"
      }
    },
    {
      "type": "Feature",
      "geometry": {
        "type": "Point",
        "coordinates": [
          13.262224,
          57.001727
        ]
      },
      "properties": {
        "label": "Q130614698",
        "type": "power plant",
        "entity": "http://www.wikidata.org/entity/Q130614698",
        "country_qid": "Q34"
      }
    },
    {
      "type": "Feature",
      "geometry": {
        "type": "Point",
        "coordinates": [
          16.743317,
          64.519381
        ]
      },
      "properties": {
        "label": "Q123434343",
        "type": "power plant",
        "entity": "http://www.wikidata.org/entity/Q123434343",
        "country_qid": "Q34"
      }
    },
    {
      "type": "Feature",
      "geometry": {
        "type": "Point",
        "coordinates": [
          13.208355497,
          57.464583121
        ]
      },
      "properties": {
        "label": "Q131834438",
        "type": "power plant",
        "entity": "http://www.wikidata.org/entity/Q131834438",
        "country_qid": "Q34"
      }
    },
    {
      "type": "Feature",
      "geometry": {
        "type": "Point",
        "coordinates": [
          12.3036,
          57.371691
        ]
      },
      "properties": {
        "label": "Q132191341",
        "type": "power plant",
        "entity": "http://www.wikidata.org/entity/Q132191341",
        "country_qid": "Q34"
      }
    },
    {
      "type": "Feature",
      "geometry": {
        "type": "Point",
        "coordinates": [
          12.807,
          57.077
        ]
      },
      "properties": {
        "label": "Q124326932",
        "type": "power plant",
        "entity": "http://www.wikidata.org/entity/Q124326932",
        "country_qid": "Q34"
      }
    },
    {
      "type": "Feature",
      "geometry": {
        "type": "Point",
        "coordinates": [
          12.517,
          56.9
        ]
      },
      "properties": {
        "label": "Q122759183",
        "type": "power plant",
        "entity": "http://www.wikidata.org/entity/Q122759183",
        "country_qid": "Q34"
      }
    },
    {
      "type": "Feature",
      "geometry": {
        "type": "Point",
        "coordinates": [
          12.5514,
          56.9269
        ]
      },
      "properties": {
        "label": "Q132192481",
        "type": "power plant",
        "entity": "http://www.wikidata.org/entity/Q132192481",
        "country_qid": "Q34"
      }
    },
    {
      "type": "Feature",
      "geometry": {
        "type": "Point",
        "coordinates": [
          20.48942,
          64.75601
        ]
      },
      "properties": {
        "label": "Q122763285",
        "type": "power plant",
        "entity": "http://www.wikidata.org/entity/Q122763285",
        "country_qid": "Q34"
      }
    },
    {
      "type": "Feature",
      "geometry": {
        "type": "Point",
        "coordinates": [
          15.32897,
          57.41085
        ]
      },
      "properties": {
        "label": "Q122758721",
        "type": "power plant",
        "entity": "http://www.wikidata.org/entity/Q122758721",
        "country_qid": "Q34"
      }
    },
    {
      "type": "Feature",
      "geometry": {
        "type": "Point",
        "coordinates": [
          12.873183,
          56.691213
        ]
      },
      "properties": {
        "label": "Q130614588",
        "type": "power plant",
        "entity": "http://www.wikidata.org/entity/Q130614588",
        "country_qid": "Q34"
      }
    },
    {
      "type": "Feature",
      "geometry": {
        "type": "Point",
        "coordinates": [
          12.4818,
          58.602
        ]
      },
      "properties": {
        "label": "Q122758790",
        "type": "power plant",
        "entity": "http://www.wikidata.org/entity/Q122758790",
        "country_qid": "Q34"
      }
    },
    {
      "type": "Feature",
      "geometry": {
        "type": "Point",
        "coordinates": [
          12.970353,
          56.794204
        ]
      },
      "properties": {
        "label": "Q130614640",
        "type": "power plant",
        "entity": "http://www.wikidata.org/entity/Q130614640",
        "country_qid": "Q34"
      }
    },
    {
      "type": "Feature",
      "geometry": {
        "type": "Point",
        "coordinates": [
          15.14804,
          60.04762
        ]
      },
      "properties": {
        "label": "Q122764603",
        "type": "power plant",
        "entity": "http://www.wikidata.org/entity/Q122764603",
        "country_qid": "Q34"
      }
    },
    {
      "type": "Feature",
      "geometry": {
        "type": "Point",
        "coordinates": [
          12.5846,
          57.022427
        ]
      },
      "properties": {
        "label": "Q132192823",
        "type": "power plant",
        "entity": "http://www.wikidata.org/entity/Q132192823",
        "country_qid": "Q34"
      }
    },
    {
      "type": "Feature",
      "geometry": {
        "type": "Point",
        "coordinates": [
          12.612625303,
          57.467598499
        ]
      },
      "properties": {
        "label": "Q132176862",
        "type": "power plant",
        "entity": "http://www.wikidata.org/entity/Q132176862",
        "country_qid": "Q34"
      }
    },
    {
      "type": "Feature",
      "geometry": {
        "type": "Point",
        "coordinates": [
          12.64074966,
          57.465761502
        ]
      },
      "properties": {
        "label": "Q132176802",
        "type": "power plant",
        "entity": "http://www.wikidata.org/entity/Q132176802",
        "country_qid": "Q34"
      }
    },
    {
      "type": "Feature",
      "geometry": {
        "type": "Point",
        "coordinates": [
          13.076924,
          56.935046
        ]
      },
      "properties": {
        "label": "Q130614671",
        "type": "power plant",
        "entity": "http://www.wikidata.org/entity/Q130614671",
        "country_qid": "Q34"
      }
    },
    {
      "type": "Feature",
      "geometry": {
        "type": "Point",
        "coordinates": [
          12.869,
          57.0936
        ]
      },
      "properties": {
        "label": "Q124327002",
        "type": "power plant",
        "entity": "http://www.wikidata.org/entity/Q124327002",
        "country_qid": "Q34"
      }
    },
    {
      "type": "Feature",
      "geometry": {
        "type": "Point",
        "coordinates": [
          16.505716,
          64.648398
        ]
      },
      "properties": {
        "label": "Q123434342",
        "type": "power plant",
        "entity": "http://www.wikidata.org/entity/Q123434342",
        "country_qid": "Q34"
      }
    },
    {
      "type": "Feature",
      "geometry": {
        "type": "Point",
        "coordinates": [
          13.1116,
          57.5093
        ]
      },
      "properties": {
        "label": "Q124327047",
        "type": "power plant",
        "entity": "http://www.wikidata.org/entity/Q124327047",
        "country_qid": "Q34"
      }
    },
    {
      "type": "Feature",
      "geometry": {
        "type": "Point",
        "coordinates": [
          12.56469,
          56.960215
        ]
      },
      "properties": {
        "label": "Q132192702",
        "type": "power plant",
        "entity": "http://www.wikidata.org/entity/Q132192702",
        "country_qid": "Q34"
      }
    },
    {
      "type": "Feature",
      "geometry": {
        "type": "Point",
        "coordinates": [
          12.925044,
          56.697889
        ]
      },
      "properties": {
        "label": "Q130614628",
        "type": "power plant",
        "entity": "http://www.wikidata.org/entity/Q130614628",
        "country_qid": "Q34"
      }
    },
    {
      "type": "Feature",
      "geometry": {
        "type": "Point",
        "coordinates": [
          15.1935,
          59.425888888
        ]
      },
      "properties": {
        "label": "Q122762824",
        "type": "power plant",
        "entity": "http://www.wikidata.org/entity/Q122762824",
        "country_qid": "Q34"
      }
    },
    {
      "type": "Feature",
      "geometry": {
        "type": "Point",
        "coordinates": [
          13.098,
          57.441
        ]
      },
      "properties": {
        "label": "Q124327034",
        "type": "power plant",
        "entity": "http://www.wikidata.org/entity/Q124327034",
        "country_qid": "Q34"
      }
    },
    {
      "type": "Feature",
      "geometry": {
        "type": "Point",
        "coordinates": [
          13.222303858,
          57.466689671
        ]
      },
      "properties": {
        "label": "Q131834708",
        "type": "power plant",
        "entity": "http://www.wikidata.org/entity/Q131834708",
        "country_qid": "Q34"
      }
    },
    {
      "type": "Feature",
      "geometry": {
        "type": "Point",
        "coordinates": [
          12.968,
          57.189
        ]
      },
      "properties": {
        "label": "Q124327006",
        "type": "power plant",
        "entity": "http://www.wikidata.org/entity/Q124327006",
        "country_qid": "Q34"
      }
    },
    {
      "type": "Feature",
      "geometry": {
        "type": "Point",
        "coordinates": [
          11.95004,
          59.85439
        ]
      },
      "properties": {
        "label": "Q122758858",
        "type": "power plant",
        "entity": "http://www.wikidata.org/entity/Q122758858",
        "country_qid": "Q34"
      }
    },
    {
      "type": "Feature",
      "geometry": {
        "type": "Point",
        "coordinates": [
          13.144919313,
          57.448530887
        ]
      },
      "properties": {
        "label": "Q131834150",
        "type": "power plant",
        "entity": "http://www.wikidata.org/entity/Q131834150",
        "country_qid": "Q34"
      }
    },
    {
      "type": "Feature",
      "geometry": {
        "type": "Point",
        "coordinates": [
          12.336281608,
          57.262812739
        ]
      },
      "properties": {
        "label": "Q131836894",
        "type": "power plant",
        "entity": "http://www.wikidata.org/entity/Q131836894",
        "country_qid": "Q34"
      }
    },
    {
      "type": "Feature",
      "geometry": {
        "type": "Point",
        "coordinates": [
          14.496111111,
          62.041944444
        ]
      },
      "properties": {
        "label": "Q122764519",
        "type": "power plant",
        "entity": "http://www.wikidata.org/entity/Q122764519",
        "country_qid": "Q34"
      }
    },
    {
      "type": "Feature",
      "geometry": {
        "type": "Point",
        "coordinates": [
          17.194944444,
          63.884416666
        ]
      },
      "properties": {
        "label": "Q56374445",
        "type": "power plant",
        "entity": "http://www.wikidata.org/entity/Q56374445",
        "country_qid": "Q34"
      }
    },
    {
      "type": "Feature",
      "geometry": {
        "type": "Point",
        "coordinates": [
          17.332944444,
          66.389388888
        ]
      },
      "properties": {
        "label": "Q56374529",
        "type": "power plant",
        "entity": "http://www.wikidata.org/entity/Q56374529",
        "country_qid": "Q34"
      }
    },
    {
      "type": "Feature",
      "geometry": {
        "type": "Point",
        "coordinates": [
          13.687021,
          60.032696
        ]
      },
      "properties": {
        "label": "Hagfors hydroelectric power station",
        "type": "power plant",
        "entity": "http://www.wikidata.org/entity/Q96758633",
        "country_qid": "Q34"
      }
    },
    {
      "type": "Feature",
      "geometry": {
        "type": "Point",
        "coordinates": [
          17.021722222,
          63.154944444
        ]
      },
      "properties": {
        "label": "Q56374487",
        "type": "power plant",
        "entity": "http://www.wikidata.org/entity/Q56374487",
        "country_qid": "Q34"
      }
    },
    {
      "type": "Feature",
      "geometry": {
        "type": "Point",
        "coordinates": [
          13.632701,
          60.034484
        ]
      },
      "properties": {
        "label": "Stjern hydroelectric power station",
        "type": "power plant",
        "entity": "http://www.wikidata.org/entity/Q96758629",
        "country_qid": "Q34"
      }
    },
    {
      "type": "Feature",
      "geometry": {
        "type": "Point",
        "coordinates": [
          15.84704,
          60.3944
        ]
      },
      "properties": {
        "label": "Skedvi power station",
        "type": "power plant",
        "entity": "http://www.wikidata.org/entity/Q81055797",
        "country_qid": "Q34"
      }
    },
    {
      "type": "Feature",
      "geometry": {
        "type": "Point",
        "coordinates": [
          13.708539,
          60.069057
        ]
      },
      "properties": {
        "label": "Malta hydroelectric power station",
        "type": "power plant",
        "entity": "http://www.wikidata.org/entity/Q96758636",
        "country_qid": "Q34"
      }
    },
    {
      "type": "Feature",
      "geometry": {
        "type": "Point",
        "coordinates": [
          18.182019444,
          65.588338888
        ]
      },
      "properties": {
        "label": "Slagnäs Hydroelectric Power Station",
        "type": "power plant",
        "entity": "http://www.wikidata.org/entity/Q81135855",
        "country_qid": "Q34"
      }
    },
    {
      "type": "Feature",
      "geometry": {
        "type": "Point",
        "coordinates": [
          16.388389,
          61.477389
        ]
      },
      "properties": {
        "label": "Q56374697",
        "type": "power plant",
        "entity": "http://www.wikidata.org/entity/Q56374697",
        "country_qid": "Q34"
      }
    },
    {
      "type": "Feature",
      "geometry": {
        "type": "Point",
        "coordinates": [
          14.525,
          57.9205
        ]
      },
      "properties": {
        "label": "Q108549049",
        "type": "power plant",
        "entity": "http://www.wikidata.org/entity/Q108549049",
        "country_qid": "Q34"
      }
    },
    {
      "type": "Feature",
      "geometry": {
        "type": "Point",
        "coordinates": [
          20.336,
          64.790916666
        ]
      },
      "properties": {
        "label": "Finnfors Hydroelectric Power Plant",
        "type": "power plant",
        "entity": "http://www.wikidata.org/entity/Q56374530",
        "country_qid": "Q34"
      }
    },
    {
      "type": "Feature",
      "geometry": {
        "type": "Point",
        "coordinates": [
          16.657833333,
          62.977777777
        ]
      },
      "properties": {
        "label": "Q56374427",
        "type": "power plant",
        "entity": "http://www.wikidata.org/entity/Q56374427",
        "country_qid": "Q34"
      }
    },
    {
      "type": "Feature",
      "geometry": {
        "type": "Point",
        "coordinates": [
          15.015,
          60.603888888
        ]
      },
      "properties": {
        "label": "Gråda power station",
        "type": "power plant",
        "entity": "http://www.wikidata.org/entity/Q65194586",
        "country_qid": "Q34"
      }
    },
    {
      "type": "Feature",
      "geometry": {
        "type": "Point",
        "coordinates": [
          13.799364,
          60.350167
        ]
      },
      "properties": {
        "label": "Kvien hydroelectric power station",
        "type": "power plant",
        "entity": "http://www.wikidata.org/entity/Q96758973",
        "country_qid": "Q34"
      }
    },
    {
      "type": "Feature",
      "geometry": {
        "type": "Point",
        "coordinates": [
          13.789834,
          60.1519
        ]
      },
      "properties": {
        "label": "Knon hydroelectric power station",
        "type": "power plant",
        "entity": "http://www.wikidata.org/entity/Q96758943",
        "country_qid": "Q34"
      }
    },
    {
      "type": "Feature",
      "geometry": {
        "type": "Point",
        "coordinates": [
          17.194738888,
          63.884230555
        ]
      },
      "properties": {
        "label": "Hällby Hydroelectric Power Plant",
        "type": "power plant",
        "entity": "http://www.wikidata.org/entity/Q112625121",
        "country_qid": "Q34"
      }
    },
    {
      "type": "Feature",
      "geometry": {
        "type": "Point",
        "coordinates": [
          19.663388888,
          63.930388888
        ]
      },
      "properties": {
        "label": "Q56374525",
        "type": "power plant",
        "entity": "http://www.wikidata.org/entity/Q56374525",
        "country_qid": "Q34"
      }
    },
    {
      "type": "Feature",
      "geometry": {
        "type": "Point",
        "coordinates": [
          13.789724,
          60.298859
        ]
      },
      "properties": {
        "label": "Björnåsen hydroelectric power station",
        "type": "power plant",
        "entity": "http://www.wikidata.org/entity/Q96758964",
        "country_qid": "Q34"
      }
    },
    {
      "type": "Feature",
      "geometry": {
        "type": "Point",
        "coordinates": [
          18.112930555,
          65.677530555
        ]
      },
      "properties": {
        "label": "Bergnäs Hydroelectric Power Station",
        "type": "power plant",
        "entity": "http://www.wikidata.org/entity/Q81066601",
        "country_qid": "Q34"
      }
    },
    {
      "type": "Feature",
      "geometry": {
        "type": "Point",
        "coordinates": [
          13.819356,
          60.197117
        ]
      },
      "properties": {
        "label": "Nain hydroelectric power station",
        "type": "power plant",
        "entity": "http://www.wikidata.org/entity/Q96758957",
        "country_qid": "Q34"
      }
    },
    {
      "type": "Feature",
      "geometry": {
        "type": "Point",
        "coordinates": [
          15.714583,
          60.3965
        ]
      },
      "properties": {
        "label": "Långhag power station",
        "type": "power plant",
        "entity": "http://www.wikidata.org/entity/Q56374707",
        "country_qid": "Q34"
      }
    },
    {
      "type": "Feature",
      "geometry": {
        "type": "Point",
        "coordinates": [
          13.527166666,
          60.044805555
        ]
      },
      "properties": {
        "label": "Skogaforsen hydroelectric power station",
        "type": "power plant",
        "entity": "http://www.wikidata.org/entity/Q96141475",
        "country_qid": "Q34"
      }
    },
    {
      "type": "Feature",
      "geometry": {
        "type": "Point",
        "coordinates": [
          20.631222222,
          64.742305555
        ]
      },
      "properties": {
        "label": "Selsfor powerstation",
        "type": "power plant",
        "entity": "http://www.wikidata.org/entity/Q56374533",
        "country_qid": "Q34"
      }
    },
    {
      "type": "Feature",
      "geometry": {
        "type": "Point",
        "coordinates": [
          14.091666666,
          64.677527777
        ]
      },
      "properties": {
        "label": "Q56374483",
        "type": "power plant",
        "entity": "http://www.wikidata.org/entity/Q56374483",
        "country_qid": "Q34"
      }
    },
    {
      "type": "Feature",
      "geometry": {
        "type": "Point",
        "coordinates": [
          16.017888888,
          62.50125
        ]
      },
      "properties": {
        "label": "Q56374677",
        "type": "power plant",
        "entity": "http://www.wikidata.org/entity/Q56374677",
        "country_qid": "Q34"
      }
    },
    {
      "type": "Feature",
      "geometry": {
        "type": "Point",
        "coordinates": [
          15.237083333,
          63.239527777
        ]
      },
      "properties": {
        "label": "Q56373374",
        "type": "power plant",
        "entity": "http://www.wikidata.org/entity/Q56373374",
        "country_qid": "Q34"
      }
    },
    {
      "type": "Feature",
      "geometry": {
        "type": "Point",
        "coordinates": [
          16.8339,
          66.439680555
        ]
      },
      "properties": {
        "label": "Q80821218",
        "type": "power plant",
        "entity": "http://www.wikidata.org/entity/Q80821218",
        "country_qid": "Q34"
      }
    },
    {
      "type": "Feature",
      "geometry": {
        "type": "Point",
        "coordinates": [
          13.538888888,
          59.847111111
        ]
      },
      "properties": {
        "label": "Munkfors hydroelectric power station",
        "type": "power plant",
        "entity": "http://www.wikidata.org/entity/Q96199028",
        "country_qid": "Q34"
      }
    },
    {
      "type": "Feature",
      "geometry": {
        "type": "Point",
        "coordinates": [
          14.14565,
          61.14683
        ]
      },
      "properties": {
        "label": "Blyberg power station",
        "type": "power plant",
        "entity": "http://www.wikidata.org/entity/Q81049473",
        "country_qid": "Q34"
      }
    },
    {
      "type": "Feature",
      "geometry": {
        "type": "Point",
        "coordinates": [
          16.404111,
          61.395833
        ]
      },
      "properties": {
        "label": "Q56374698",
        "type": "power plant",
        "entity": "http://www.wikidata.org/entity/Q56374698",
        "country_qid": "Q34"
      }
    },
    {
      "type": "Feature",
      "geometry": {
        "type": "Point",
        "coordinates": [
          20.225069444,
          64.831969444
        ]
      },
      "properties": {
        "label": "Båtfors Hydroelectric Power Plant",
        "type": "power plant",
        "entity": "http://www.wikidata.org/entity/Q81879160",
        "country_qid": "Q34"
      }
    },
    {
      "type": "Feature",
      "geometry": {
        "type": "Point",
        "coordinates": [
          17.200230555,
          63.271138888
        ]
      },
      "properties": {
        "label": "Q112584863",
        "type": "power plant",
        "entity": "http://www.wikidata.org/entity/Q112584863",
        "country_qid": "Q34"
      }
    },
    {
      "type": "Feature",
      "geometry": {
        "type": "Point",
        "coordinates": [
          16.174351313,
          58.589782158
        ]
      },
      "properties": {
        "label": "Q101104127",
        "type": "power plant",
        "entity": "http://www.wikidata.org/entity/Q101104127",
        "country_qid": "Q34"
      }
    },
    {
      "type": "Feature",
      "geometry": {
        "type": "Point",
        "coordinates": [
          13.800803,
          60.083802
        ]
      },
      "properties": {
        "label": "Traneberg hydroelectric power station",
        "type": "power plant",
        "entity": "http://www.wikidata.org/entity/Q96758638",
        "country_qid": "Q34"
      }
    },
    {
      "type": "Feature",
      "geometry": {
        "type": "Point",
        "coordinates": [
          13.59263,
          59.999818
        ]
      },
      "properties": {
        "label": "Råda hydroelectric power station",
        "type": "power plant",
        "entity": "http://www.wikidata.org/entity/Q96758628",
        "country_qid": "Q34"
      }
    },
    {
      "type": "Feature",
      "geometry": {
        "type": "Point",
        "coordinates": [
          16.355305555,
          63.113472222
        ]
      },
      "properties": {
        "label": "Q56374428",
        "type": "power plant",
        "entity": "http://www.wikidata.org/entity/Q56374428",
        "country_qid": "Q34"
      }
    },
    {
      "type": "Feature",
      "geometry": {
        "type": "Point",
        "coordinates": [
          16.557805555,
          63.404472222
        ]
      },
      "properties": {
        "label": "Q56374486",
        "type": "power plant",
        "entity": "http://www.wikidata.org/entity/Q56374486",
        "country_qid": "Q34"
      }
    },
    {
      "type": "Feature",
      "geometry": {
        "type": "Point",
        "coordinates": [
          15.45446,
          60.49546
        ]
      },
      "properties": {
        "label": "Domnarvet power station",
        "type": "power plant",
        "entity": "http://www.wikidata.org/entity/Q81054560",
        "country_qid": "Q34"
      }
    },
    {
      "type": "Feature",
      "geometry": {
        "type": "Point",
        "coordinates": [
          20.415569444,
          64.779480555
        ]
      },
      "properties": {
        "label": "Granfors Hydroelectric Power Station",
        "type": "power plant",
        "entity": "http://www.wikidata.org/entity/Q85110342",
        "country_qid": "Q34"
      }
    },
    {
      "type": "Feature",
      "geometry": {
        "type": "Point",
        "coordinates": [
          19.566888888,
          64.102166666
        ]
      },
      "properties": {
        "label": "Bjurfors Nedre Hydroelectric Power Plant",
        "type": "power plant",
        "entity": "http://www.wikidata.org/entity/Q56374522",
        "country_qid": "Q34"
      }
    },
    {
      "type": "Feature",
      "geometry": {
        "type": "Point",
        "coordinates": [
          15.322028,
          63.221111
        ]
      },
      "properties": {
        "label": "Q56373385",
        "type": "power plant",
        "entity": "http://www.wikidata.org/entity/Q56373385",
        "country_qid": "Q34"
      }
    },
    {
      "type": "Feature",
      "geometry": {
        "type": "Point",
        "coordinates": [
          13.76064,
          61.28249
        ]
      },
      "properties": {
        "label": "Åsen dam",
        "type": "power plant",
        "entity": "http://www.wikidata.org/entity/Q81045622",
        "country_qid": "Q34"
      }
    },
    {
      "type": "Feature",
      "geometry": {
        "type": "Point",
        "coordinates": [
          16.475555555,
          59.331388888
        ]
      },
      "properties": {
        "label": "Q82096160",
        "type": "power plant",
        "entity": "http://www.wikidata.org/entity/Q82096160",
        "country_qid": "Q34"
      }
    },
    {
      "type": "Feature",
      "geometry": {
        "type": "Point",
        "coordinates": [
          14.32278,
          61.08361
        ]
      },
      "properties": {
        "label": "Spjutmo power station",
        "type": "power plant",
        "entity": "http://www.wikidata.org/entity/Q81050096",
        "country_qid": "Q34"
      }
    },
    {
      "type": "Feature",
      "geometry": {
        "type": "Point",
        "coordinates": [
          16.663694444,
          62.797361111
        ]
      },
      "properties": {
        "label": "Q56374431",
        "type": "power plant",
        "entity": "http://www.wikidata.org/entity/Q56374431",
        "country_qid": "Q34"
      }
    },
    {
      "type": "Feature",
      "geometry": {
        "type": "Point",
        "coordinates": [
          16.330472222,
          63.581861111
        ]
      },
      "properties": {
        "label": "Q56374485",
        "type": "power plant",
        "entity": "http://www.wikidata.org/entity/Q56374485",
        "country_qid": "Q34"
      }
    },
    {
      "type": "Feature",
      "geometry": {
        "type": "Point",
        "coordinates": [
          16.8337,
          66.4395
        ]
      },
      "properties": {
        "label": "Q80703789",
        "type": "power plant",
        "entity": "http://www.wikidata.org/entity/Q80703789",
        "country_qid": "Q34"
      }
    },
    {
      "type": "Feature",
      "geometry": {
        "type": "Point",
        "coordinates": [
          19.1687,
          65.285061111
        ]
      },
      "properties": {
        "label": "Q83218188",
        "type": "power plant",
        "entity": "http://www.wikidata.org/entity/Q83218188",
        "country_qid": "Q34"
      }
    },
    {
      "type": "Feature",
      "geometry": {
        "type": "Point",
        "coordinates": [
          16.376527777,
          62.508333333
        ]
      },
      "properties": {
        "label": "Q56374679",
        "type": "power plant",
        "entity": "http://www.wikidata.org/entity/Q56374679",
        "country_qid": "Q34"
      }
    },
    {
      "type": "Feature",
      "geometry": {
        "type": "Point",
        "coordinates": [
          15.538306,
          64.457944
        ]
      },
      "properties": {
        "label": "Q56374437",
        "type": "power plant",
        "entity": "http://www.wikidata.org/entity/Q56374437",
        "country_qid": "Q34"
      }
    },
    {
      "type": "Feature",
      "geometry": {
        "type": "Point",
        "coordinates": [
          14.470722222,
          63.332138888
        ]
      },
      "properties": {
        "label": "Q56373347",
        "type": "power plant",
        "entity": "http://www.wikidata.org/entity/Q56373347",
        "country_qid": "Q34"
      }
    },
    {
      "type": "Feature",
      "geometry": {
        "type": "Point",
        "coordinates": [
          19.504768,
          64.155971
        ]
      },
      "properties": {
        "label": "Q110582942",
        "type": "power plant",
        "entity": "http://www.wikidata.org/entity/Q110582942",
        "country_qid": "Q34"
      }
    },
    {
      "type": "Feature",
      "geometry": {
        "type": "Point",
        "coordinates": [
          18.159388888,
          59.344
        ]
      },
      "properties": {
        "label": "Q114799712",
        "type": "power plant",
        "entity": "http://www.wikidata.org/entity/Q114799712",
        "country_qid": "Q34"
      }
    },
    {
      "type": "Feature",
      "geometry": {
        "type": "Point",
        "coordinates": [
          17.233166666,
          65.052277777
        ]
      },
      "properties": {
        "label": "Q56374512",
        "type": "power plant",
        "entity": "http://www.wikidata.org/entity/Q56374512",
        "country_qid": "Q34"
      }
    },
    {
      "type": "Feature",
      "geometry": {
        "type": "Point",
        "coordinates": [
          13.830018,
          60.144776
        ]
      },
      "properties": {
        "label": "Laggåsen hydroelectric power station",
        "type": "power plant",
        "entity": "http://www.wikidata.org/entity/Q96758949",
        "country_qid": "Q34"
      }
    },
    {
      "type": "Feature",
      "geometry": {
        "type": "Point",
        "coordinates": [
          18.628632,
          64.628317
        ]
      },
      "properties": {
        "label": "Betsele Hydroelectric Power Plant",
        "type": "power plant",
        "entity": "http://www.wikidata.org/entity/Q110665977",
        "country_qid": "Q34"
      }
    },
    {
      "type": "Feature",
      "geometry": {
        "type": "Point",
        "coordinates": [
          17.266,
          63.171583333
        ]
      },
      "properties": {
        "label": "Sollefteå Hydroelectric Power Plant",
        "type": "power plant",
        "entity": "http://www.wikidata.org/entity/Q56374468",
        "country_qid": "Q34"
      }
    },
    {
      "type": "Feature",
      "geometry": {
        "type": "Point",
        "coordinates": [
          20.02204,
          64.93176
        ]
      },
      "properties": {
        "label": "Q83384247",
        "type": "power plant",
        "entity": "http://www.wikidata.org/entity/Q83384247",
        "country_qid": "Q34"
      }
    },
    {
      "type": "Feature",
      "geometry": {
        "type": "Point",
        "coordinates": [
          15.009722,
          62.110917
        ]
      },
      "properties": {
        "label": "Q56374696",
        "type": "power plant",
        "entity": "http://www.wikidata.org/entity/Q56374696",
        "country_qid": "Q34"
      }
    },
    {
      "type": "Feature",
      "geometry": {
        "type": "Point",
        "coordinates": [
          13.525805555,
          60.065222222
        ]
      },
      "properties": {
        "label": "Edsforsen hydroelectric power station",
        "type": "power plant",
        "entity": "http://www.wikidata.org/entity/Q96140235",
        "country_qid": "Q34"
      }
    },
    {
      "type": "Feature",
      "geometry": {
        "type": "Point",
        "coordinates": [
          12.786079,
          60.745373
        ]
      },
      "properties": {
        "label": "Q90812268",
        "type": "power plant",
        "entity": "http://www.wikidata.org/entity/Q90812268",
        "country_qid": "Q34"
      }
    },
    {
      "type": "Feature",
      "geometry": {
        "type": "Point",
        "coordinates": [
          14.304916666,
          62.609805555
        ]
      },
      "properties": {
        "label": "Q56374674",
        "type": "power plant",
        "entity": "http://www.wikidata.org/entity/Q56374674",
        "country_qid": "Q34"
      }
    },
    {
      "type": "Feature",
      "geometry": {
        "type": "Point",
        "coordinates": [
          16.668083333,
          62.950694444
        ]
      },
      "properties": {
        "label": "Q56374430",
        "type": "power plant",
        "entity": "http://www.wikidata.org/entity/Q56374430",
        "country_qid": "Q34"
      }
    },
    {
      "type": "Feature",
      "geometry": {
        "type": "Point",
        "coordinates": [
          13.532277777,
          59.944833333
        ]
      },
      "properties": {
        "label": "Skymnäsforsen hydroelectric power plant",
        "type": "power plant",
        "entity": "http://www.wikidata.org/entity/Q96215898",
        "country_qid": "Q34"
      }
    },
    {
      "type": "Feature",
      "geometry": {
        "type": "Point",
        "coordinates": [
          14.09175,
          61.17433
        ]
      },
      "properties": {
        "label": "Väsa power station",
        "type": "power plant",
        "entity": "http://www.wikidata.org/entity/Q81046996",
        "country_qid": "Q34"
      }
    }
  ]
}