{
  "type": "FeatureCollection",
  "features": [
    {
      "type": "Feature",
      "geometry": {
        "type": "Point",
        "coordinates": [
          69.7757,
          34.5865
        ]
      },
      "properties": {
        "label": "Sarobi Dam Hydroelectric Power Plant",
        "type": "Hydroelectric power station",
        "entity": "http://www.wikidata.org/entity/Q21825720",
        "country_qid": "Q889"
      }
    },
    {
      "type": "Feature",
      "geometry": {
        "type": "Point",
        "coordinates": [
          69.76078,
          34.58956
        ]
      },
      "properties": {
        "label": "Naghlu Hydro Power Plant",
        "type": "Hydroelectric power station",
        "entity": "http://www.wikidata.org/entity/Q21825710",
        "country_qid": "Q889"
      }
    },
    {
      "type": "Feature",
      "geometry": {
        "type": "Point",
        "coordinates": [
          70.599166666,
          37.065277777
        ]
      },
      "properties": {
        "label": "Shorabak Dam",
        "type": "Hydroelectric power station",
        "entity": "http://www.wikidata.org/entity/Q125946421",
        "country_qid": "Q889"
      }
    },
    {
      "type": "Feature",
      "geometry": {
        "type": "Point",
        "coordinates": [
          70.36333333,
          34.48472222
        ]
      },
      "properties": {
        "label": "Darunta Dam",
        "type": "Hydroelectric power station",
        "entity": "http://www.wikidata.org/entity/Q5225803",
        "country_qid": "Q889"
      }
    },
    {
      "type": "Feature",
      "geometry": {
        "type": "Point",
        "coordinates": [
          62.820833333,
          32.8825
        ]
      },
      "properties": {
        "label": "Bakhshabad Dam",
        "type": "Hydroelectric power station",
        "entity": "http://www.wikidata.org/entity/Q125966063",
        "country_qid": "Q889"
      }
    },
    {
      "type": "Feature",
      "geometry": {
        "type": "Point",
        "coordinates": [
          65.118472222,
          32.322777777
        ]
      },
      "properties": {
        "label": "Kajaki Dam",
        "type": "Hydroelectric power station",
        "entity": "http://www.wikidata.org/entity/Q1721841",
        "country_qid": "Q889"
      }
    },
    {
      "type": "Feature",
      "geometry": {
        "type": "Point",
        "coordinates": [
          61.91666667,
          30.35
        ]
      },
      "properties": {
        "label": "Kamal Khan Dam",
        "type": "Hydroelectric power station",
        "entity": "http://www.wikidata.org/entity/Q33106226",
        "country_qid": "Q889"
      }
    },
    {
      "type": "Feature",
      "geometry": {
        "type": "Point",
        "coordinates": [
          68.91321,
          33.75764
        ]
      },
      "properties": {
        "label": "Micro-Hydro Power Station",
        "type": "Hydroelectric power station",
        "entity": "http://www.wikidata.org/entity/Q21825716",
        "country_qid": "Q889"
      }
    },
    {
      "type": "Feature",
      "geometry": {
        "type": "Point",
        "coordinates": [
          69.019386,
          34.688028
        ]
      },
      "properties": {
        "label": "Shah wa Arus Dam",
        "type": "Hydroelectric power station",
        "entity": "http://www.wikidata.org/entity/Q7461387",
        "country_qid": "Q889"
      }
    },
    {
      "type": "Feature",
      "geometry": {
        "type": "Point",
        "coordinates": [
          66.19944444,
          33.75083333
        ]
      },
      "properties": {
        "label": "Sokhtak Dam",
        "type": "Hydroelectric power station",
        "entity": "http://www.wikidata.org/entity/Q125843884",
        "country_qid": "Q889"
      }
    },
    {
      "type": "Feature",
      "geometry": {
        "type": "Point",
        "coordinates": [
          69.71694444,
          34.64111111
        ]
      },
      "properties": {
        "label": "Naghlu Dam",
        "type": "Hydroelectric power station",
        "entity": "http://www.wikidata.org/entity/Q4755783",
        "country_qid": "Q889"
      }
    },
    {
      "type": "Feature",
      "geometry": {
        "type": "Point",
        "coordinates": [
          69.50127778,
          34.55833333
        ]
      },
      "properties": {
        "label": "Q11987862",
        "type": "Hydroelectric power station",
        "entity": "http://www.wikidata.org/entity/Q11987862",
        "country_qid": "Q889"
      }
    },
    {
      "type": "Feature",
      "geometry": {
        "type": "Point",
        "coordinates": [
          69.77556,
          34.58639
        ]
      },
      "properties": {
        "label": "Sarobi Dam",
        "type": "Hydroelectric power station",
        "entity": "http://www.wikidata.org/entity/Q21825719",
        "country_qid": "Q889"
      }
    }
  ]
}