{
  "type": "FeatureCollection",
  "features": [
    {
      "type": "Feature",
      "geometry": {
        "type": "Point",
        "coordinates": [
          -74.84055556,
          6.21083333
        ]
      },
      "properties": {
        "label": "Punchiná Dam",
        "type": "Hydroelectric power station",
        "entity": "http://www.wikidata.org/entity/Q7260005",
        "country_qid": "Q739"
      }
    },
    {
      "type": "Feature",
      "geometry": {
        "type": "Point",
        "coordinates": [
          -76.560472222,
          3.881111111
        ]
      },
      "properties": {
        "label": "Calima hydro power plant",
        "type": "Hydroelectric power station",
        "entity": "http://www.wikidata.org/entity/Q61448451",
        "country_qid": "Q739"
      }
    },
    {
      "type": "Feature",
      "geometry": {
        "type": "Point",
        "coordinates": [
          -74.9217,
          6.259
        ]
      },
      "properties": {
        "label": "Playas hydro power station",
        "type": "Hydroelectric power station",
        "entity": "http://www.wikidata.org/entity/Q3215467",
        "country_qid": "Q739"
      }
    },
    {
      "type": "Feature",
      "geometry": {
        "type": "Point",
        "coordinates": [
          -75.5629349,
          2.4506091
        ]
      },
      "properties": {
        "label": "El Quimbo Dam",
        "type": "Hydroelectric power station",
        "entity": "http://www.wikidata.org/entity/Q2884944",
        "country_qid": "Q739"
      }
    },
    {
      "type": "Feature",
      "geometry": {
        "type": "Point",
        "coordinates": [
          -74.402611,
          4.571333
        ]
      },
      "properties": {
        "label": "Paraíso hydro power plant",
        "type": "Hydroelectric power station",
        "entity": "http://www.wikidata.org/entity/Q19385079",
        "country_qid": "Q739"
      }
    },
    {
      "type": "Feature",
      "geometry": {
        "type": "Point",
        "coordinates": [
          -76.209444444,
          8.012222222
        ]
      },
      "properties": {
        "label": "Urra Dam",
        "type": "Hydroelectric power station",
        "entity": "http://www.wikidata.org/entity/Q23713175",
        "country_qid": "Q739"
      }
    },
    {
      "type": "Feature",
      "geometry": {
        "type": "Point",
        "coordinates": [
          -73.40666667,
          7.10083333
        ]
      },
      "properties": {
        "label": "Sogamoso Dam",
        "type": "Hydroelectric power station",
        "entity": "http://www.wikidata.org/entity/Q1360413",
        "country_qid": "Q739"
      }
    },
    {
      "type": "Feature",
      "geometry": {
        "type": "Point",
        "coordinates": [
          -76.70638889,
          2.94138889
        ]
      },
      "properties": {
        "label": "Salvajina Dam",
        "type": "Hydroelectric power station",
        "entity": "http://www.wikidata.org/entity/Q1632104",
        "country_qid": "Q739"
      }
    },
    {
      "type": "Feature",
      "geometry": {
        "type": "Point",
        "coordinates": [
          -76.8915778,
          3.608129
        ]
      },
      "properties": {
        "label": "Alto Anchicayá hydro power plant",
        "type": "Hydroelectric power station",
        "entity": "http://www.wikidata.org/entity/Q17748483",
        "country_qid": "Q739"
      }
    },
    {
      "type": "Feature",
      "geometry": {
        "type": "Point",
        "coordinates": [
          -75.189222222,
          6.839333333
        ]
      },
      "properties": {
        "label": "Guadalupe IV hydro power station",
        "type": "Hydroelectric power station",
        "entity": "http://www.wikidata.org/entity/Q61448447",
        "country_qid": "Q739"
      }
    },
    {
      "type": "Feature",
      "geometry": {
        "type": "Point",
        "coordinates": [
          -74.459833333,
          4.589083333
        ]
      },
      "properties": {
        "label": "La Guaca hydro power plant",
        "type": "Hydroelectric power station",
        "entity": "http://www.wikidata.org/entity/Q19378687",
        "country_qid": "Q739"
      }
    },
    {
      "type": "Feature",
      "geometry": {
        "type": "Point",
        "coordinates": [
          -75.59305556,
          3.80611111
        ]
      },
      "properties": {
        "label": "Río Amoyá - La Esperanza hydro power plant",
        "type": "Hydroelectric power station",
        "entity": "http://www.wikidata.org/entity/Q84761107",
        "country_qid": "Q739"
      }
    },
    {
      "type": "Feature",
      "geometry": {
        "type": "Point",
        "coordinates": [
          -73.2322211,
          4.8812102
        ]
      },
      "properties": {
        "label": "Chivor hydro power plant",
        "type": "Hydroelectric power station",
        "entity": "http://www.wikidata.org/entity/Q5760711",
        "country_qid": "Q739"
      }
    },
    {
      "type": "Feature",
      "geometry": {
        "type": "Point",
        "coordinates": [
          -75.3629172,
          6.5433715
        ]
      },
      "properties": {
        "label": "Riogrande I hydro power station",
        "type": "Hydroelectric power station",
        "entity": "http://www.wikidata.org/entity/Q84761103",
        "country_qid": "Q739"
      }
    },
    {
      "type": "Feature",
      "geometry": {
        "type": "Point",
        "coordinates": [
          -73.230555555,
          7.225555555
        ]
      },
      "properties": {
        "label": "Hidroelectrica Lebrija",
        "type": "Hydroelectric power station",
        "entity": "http://www.wikidata.org/entity/Q23727024",
        "country_qid": "Q739"
      }
    },
    {
      "type": "Feature",
      "geometry": {
        "type": "Point",
        "coordinates": [
          -74.431583333,
          4.602111111
        ]
      },
      "properties": {
        "label": "Dario Valencia Samper hydro power plant",
        "type": "Hydroelectric power station",
        "entity": "http://www.wikidata.org/entity/Q11963960",
        "country_qid": "Q739"
      }
    },
    {
      "type": "Feature",
      "geometry": {
        "type": "Point",
        "coordinates": [
          -75.227055555,
          6.792916666
        ]
      },
      "properties": {
        "label": "Guadalupe III  hydro power station",
        "type": "Hydroelectric power station",
        "entity": "http://www.wikidata.org/entity/Q61448445",
        "country_qid": "Q739"
      }
    },
    {
      "type": "Feature",
      "geometry": {
        "type": "Point",
        "coordinates": [
          -74.891388888,
          3.755
        ]
      },
      "properties": {
        "label": "Hidroprado",
        "type": "Hydroelectric power station",
        "entity": "http://www.wikidata.org/entity/Q23728125",
        "country_qid": "Q739"
      }
    },
    {
      "type": "Feature",
      "geometry": {
        "type": "Point",
        "coordinates": [
          -75.7426429,
          5.0502487
        ]
      },
      "properties": {
        "label": "San Francisco hydro power plant",
        "type": "Hydroelectric power station",
        "entity": "http://www.wikidata.org/entity/Q84766543",
        "country_qid": "Q739"
      }
    },
    {
      "type": "Feature",
      "geometry": {
        "type": "Point",
        "coordinates": [
          -77.047213,
          1.672069
        ]
      },
      "properties": {
        "label": "Río Mayo hydro power plant",
        "type": "Hydroelectric power station",
        "entity": "http://www.wikidata.org/entity/Q23722277",
        "country_qid": "Q739"
      }
    },
    {
      "type": "Feature",
      "geometry": {
        "type": "Point",
        "coordinates": [
          -75.66194444,
          7.13444444
        ]
      },
      "properties": {
        "label": "Ituango D",
        "type": "Hydroelectric power station",
        "entity": "http://www.wikidata.org/entity/Q1675339",
        "country_qid": "Q739"
      }
    },
    {
      "type": "Feature",
      "geometry": {
        "type": "Point",
        "coordinates": [
          -73.3523601,
          4.7357944
        ]
      },
      "properties": {
        "label": "Guavio hydro power plant",
        "type": "Hydroelectric power station",
        "entity": "http://www.wikidata.org/entity/Q5760713",
        "country_qid": "Q739"
      }
    },
    {
      "type": "Feature",
      "geometry": {
        "type": "Point",
        "coordinates": [
          -75.13861111,
          6.93861111
        ]
      },
      "properties": {
        "label": "Porce III Dam",
        "type": "Hydroelectric power station",
        "entity": "http://www.wikidata.org/entity/Q1742615",
        "country_qid": "Q739"
      }
    },
    {
      "type": "Feature",
      "geometry": {
        "type": "Point",
        "coordinates": [
          -74.3335,
          4.592583333
        ]
      },
      "properties": {
        "label": "Laguneta hydro power plant",
        "type": "Hydroelectric power station",
        "entity": "http://www.wikidata.org/entity/Q61448454",
        "country_qid": "Q739"
      }
    },
    {
      "type": "Feature",
      "geometry": {
        "type": "Point",
        "coordinates": [
          -76.918027777,
          3.609194444
        ]
      },
      "properties": {
        "label": "Bajo Anchicayá hydro power plant",
        "type": "Hydroelectric power station",
        "entity": "http://www.wikidata.org/entity/Q61448437",
        "country_qid": "Q739"
      }
    },
    {
      "type": "Feature",
      "geometry": {
        "type": "Point",
        "coordinates": [
          -75.429861,
          2.708111
        ]
      },
      "properties": {
        "label": "Betania hydro power plant",
        "type": "Hydroelectric power station",
        "entity": "http://www.wikidata.org/entity/Q11960886",
        "country_qid": "Q739"
      }
    },
    {
      "type": "Feature",
      "geometry": {
        "type": "Point",
        "coordinates": [
          -74.88333333,
          5.56666667
        ]
      },
      "properties": {
        "label": "Miel I hydro power station",
        "type": "Hydroelectric power station",
        "entity": "http://www.wikidata.org/entity/Q1398455",
        "country_qid": "Q739"
      }
    },
    {
      "type": "Feature",
      "geometry": {
        "type": "Point",
        "coordinates": [
          -75.252,
          6.520472
        ]
      },
      "properties": {
        "label": "Carlos Lleras hydro power plant",
        "type": "Hydroelectric power station",
        "entity": "http://www.wikidata.org/entity/Q67518927",
        "country_qid": "Q739"
      }
    },
    {
      "type": "Feature",
      "geometry": {
        "type": "Point",
        "coordinates": [
          -75.148082,
          6.805898
        ]
      },
      "properties": {
        "label": "Porce II hydro power station",
        "type": "Hydroelectric power station",
        "entity": "http://www.wikidata.org/entity/Q19385564",
        "country_qid": "Q739"
      }
    },
    {
      "type": "Feature",
      "geometry": {
        "type": "Point",
        "coordinates": [
          -75.004111111,
          6.357027777
        ]
      },
      "properties": {
        "label": "Jaguas hydro power plant",
        "type": "Hydroelectric power station",
        "entity": "http://www.wikidata.org/entity/Q61448442",
        "country_qid": "Q739"
      }
    },
    {
      "type": "Feature",
      "geometry": {
        "type": "Point",
        "coordinates": [
          -75.102916666,
          6.274277777
        ]
      },
      "properties": {
        "label": "Guatapé hydro power station",
        "type": "Hydroelectric power station",
        "entity": "http://www.wikidata.org/entity/Q61448448",
        "country_qid": "Q739"
      }
    },
    {
      "type": "Feature",
      "geometry": {
        "type": "Point",
        "coordinates": [
          -76.54722222,
          1.04027778
        ]
      },
      "properties": {
        "label": "Q489988",
        "type": "Hydroelectric power station",
        "entity": "http://www.wikidata.org/entity/Q489988",
        "country_qid": "Q739"
      }
    },
    {
      "type": "Feature",
      "geometry": {
        "type": "Point",
        "coordinates": [
          -74.30861111,
          4.58222222
        ]
      },
      "properties": {
        "label": "Q84761106",
        "type": "Hydroelectric power station",
        "entity": "http://www.wikidata.org/entity/Q84761106",
        "country_qid": "Q739"
      }
    },
    {
      "type": "Feature",
      "geometry": {
        "type": "Point",
        "coordinates": [
          -75.523222222,
          4.013611111
        ]
      },
      "properties": {
        "label": "Cucuana hydro power plant",
        "type": "Hydroelectric power station",
        "entity": "http://www.wikidata.org/entity/Q61448453",
        "country_qid": "Q739"
      }
    },
    {
      "type": "Feature",
      "geometry": {
        "type": "Point",
        "coordinates": [
          -75.429424,
          6.412835
        ]
      },
      "properties": {
        "label": "La Tasajera hydro power station",
        "type": "Hydroelectric power station",
        "entity": "http://www.wikidata.org/entity/Q11982884",
        "country_qid": "Q739"
      }
    }
  ]
}