{
  "type": "FeatureCollection",
  "features": [
    {
      "type": "Feature",
      "geometry": {
        "type": "Point",
        "coordinates": [
          -97.947777777,
          20.210277777
        ]
      },
      "properties": {
        "label": "Tepexic hydroelectric power station",
        "type": "Hydroelectric power station",
        "entity": "http://www.wikidata.org/entity/Q27846431",
        "country_qid": "Q96"
      }
    },
    {
      "type": "Feature",
      "geometry": {
        "type": "Point",
        "coordinates": [
          -107.1513972,
          24.8142
        ]
      },
      "properties": {
        "label": "Sanalona Dam",
        "type": "Hydroelectric power station",
        "entity": "http://www.wikidata.org/entity/Q6085374",
        "country_qid": "Q96"
      }
    },
    {
      "type": "Feature",
      "geometry": {
        "type": "Point",
        "coordinates": [
          -102.011111111,
          19.163333333
        ]
      },
      "properties": {
        "label": "El Cóbano hydroelectric power station",
        "type": "Hydroelectric power station",
        "entity": "http://www.wikidata.org/entity/Q27785309",
        "country_qid": "Q96"
      }
    },
    {
      "type": "Feature",
      "geometry": {
        "type": "Point",
        "coordinates": [
          -102.079722222,
          19.268611111
        ]
      },
      "properties": {
        "label": "Cupatitzio hydroelectric power station",
        "type": "Hydroelectric power station",
        "entity": "http://www.wikidata.org/entity/Q27785178",
        "country_qid": "Q96"
      }
    },
    {
      "type": "Feature",
      "geometry": {
        "type": "Point",
        "coordinates": [
          -92.775,
          16.404444444
        ]
      },
      "properties": {
        "label": "Angostura Dam",
        "type": "Hydroelectric power station",
        "entity": "http://www.wikidata.org/entity/Q624981",
        "country_qid": "Q96"
      }
    },
    {
      "type": "Feature",
      "geometry": {
        "type": "Point",
        "coordinates": [
          -98.0002401,
          20.2170849
        ]
      },
      "properties": {
        "label": "Necaxa hydroelectric power station",
        "type": "Hydroelectric power station",
        "entity": "http://www.wikidata.org/entity/Q6085363",
        "country_qid": "Q96"
      }
    },
    {
      "type": "Feature",
      "geometry": {
        "type": "Point",
        "coordinates": [
          -101.89305556,
          18.27222222
        ]
      },
      "properties": {
        "label": "Infiernillo Dam",
        "type": "Hydroelectric power station",
        "entity": "http://www.wikidata.org/entity/Q655813",
        "country_qid": "Q96"
      }
    },
    {
      "type": "Feature",
      "geometry": {
        "type": "Point",
        "coordinates": [
          -109.64222222,
          28.97722222
        ]
      },
      "properties": {
        "label": "El Novillo Dam",
        "type": "Hydroelectric power station",
        "entity": "http://www.wikidata.org/entity/Q11966985",
        "country_qid": "Q96"
      }
    },
    {
      "type": "Feature",
      "geometry": {
        "type": "Point",
        "coordinates": [
          -97.0340073,
          18.8370034
        ]
      },
      "properties": {
        "label": "Tuxpango hydroelectric power station",
        "type": "Hydroelectric power station",
        "entity": "http://www.wikidata.org/entity/Q85870901",
        "country_qid": "Q96"
      }
    },
    {
      "type": "Feature",
      "geometry": {
        "type": "Point",
        "coordinates": [
          -105.713333333,
          23.886111111
        ]
      },
      "properties": {
        "label": "Q27850125",
        "type": "Hydroelectric power station",
        "entity": "http://www.wikidata.org/entity/Q27850125",
        "country_qid": "Q96"
      }
    },
    {
      "type": "Feature",
      "geometry": {
        "type": "Point",
        "coordinates": [
          -93.1003,
          16.9423
        ]
      },
      "properties": {
        "label": "Chicoasén Dam",
        "type": "Hydroelectric power station",
        "entity": "http://www.wikidata.org/entity/Q1435446",
        "country_qid": "Q96"
      }
    },
    {
      "type": "Feature",
      "geometry": {
        "type": "Point",
        "coordinates": [
          -93.59833333,
          17.17861111
        ]
      },
      "properties": {
        "label": "Malpaso Dam",
        "type": "Hydroelectric power station",
        "entity": "http://www.wikidata.org/entity/Q1355023",
        "country_qid": "Q96"
      }
    },
    {
      "type": "Feature",
      "geometry": {
        "type": "Point",
        "coordinates": [
          -97.175,
          19.982777777
        ]
      },
      "properties": {
        "label": "Encanto hydroelectric power station",
        "type": "Hydroelectric power station",
        "entity": "http://www.wikidata.org/entity/Q27840349",
        "country_qid": "Q96"
      }
    },
    {
      "type": "Feature",
      "geometry": {
        "type": "Point",
        "coordinates": [
          -92.426944444,
          16.314444444
        ]
      },
      "properties": {
        "label": "Schpoina hydroelectric power station",
        "type": "Hydroelectric power station",
        "entity": "http://www.wikidata.org/entity/Q49627773",
        "country_qid": "Q96"
      }
    },
    {
      "type": "Feature",
      "geometry": {
        "type": "Point",
        "coordinates": [
          -104.45194444,
          21.42805556
        ]
      },
      "properties": {
        "label": "El Cajón Dam",
        "type": "Hydroelectric power station",
        "entity": "http://www.wikidata.org/entity/Q1323767",
        "country_qid": "Q96"
      }
    },
    {
      "type": "Feature",
      "geometry": {
        "type": "Point",
        "coordinates": [
          -100.252222222,
          19.982222222
        ]
      },
      "properties": {
        "label": "Lerma hydroelectric power station",
        "type": "Hydroelectric power station",
        "entity": "http://www.wikidata.org/entity/Q49627722",
        "country_qid": "Q96"
      }
    },
    {
      "type": "Feature",
      "geometry": {
        "type": "Point",
        "coordinates": [
          -97.406666666,
          20.015
        ]
      },
      "properties": {
        "label": "Mazatepec hydroelectric power station",
        "type": "Hydroelectric power station",
        "entity": "http://www.wikidata.org/entity/Q19381223",
        "country_qid": "Q96"
      }
    },
    {
      "type": "Feature",
      "geometry": {
        "type": "Point",
        "coordinates": [
          -100.241666666,
          19.176111111
        ]
      },
      "properties": {
        "label": "Ixtapantongo hydroelectric power station",
        "type": "Hydroelectric power station",
        "entity": "http://www.wikidata.org/entity/Q19375988",
        "country_qid": "Q96"
      }
    },
    {
      "type": "Feature",
      "geometry": {
        "type": "Point",
        "coordinates": [
          -99.38485,
          22.5896
        ]
      },
      "properties": {
        "label": "Camilo Arriaga hydroelectric power station",
        "type": "Hydroelectric power station",
        "entity": "http://www.wikidata.org/entity/Q27805150",
        "country_qid": "Q96"
      }
    },
    {
      "type": "Feature",
      "geometry": {
        "type": "Point",
        "coordinates": [
          -108.36805556,
          26.84444444
        ]
      },
      "properties": {
        "label": "Huites Dam",
        "type": "Hydroelectric power station",
        "entity": "http://www.wikidata.org/entity/Q1163490",
        "country_qid": "Q96"
      }
    },
    {
      "type": "Feature",
      "geometry": {
        "type": "Point",
        "coordinates": [
          -101.439722222,
          19.190277777
        ]
      },
      "properties": {
        "label": "Q49627733",
        "type": "Hydroelectric power station",
        "entity": "http://www.wikidata.org/entity/Q49627733",
        "country_qid": "Q96"
      }
    },
    {
      "type": "Feature",
      "geometry": {
        "type": "Point",
        "coordinates": [
          -97.723888888,
          18.681111111
        ]
      },
      "properties": {
        "label": "Q49627782",
        "type": "Hydroelectric power station",
        "entity": "http://www.wikidata.org/entity/Q49627782",
        "country_qid": "Q96"
      }
    },
    {
      "type": "Feature",
      "geometry": {
        "type": "Point",
        "coordinates": [
          -103.24458333,
          20.70080556
        ]
      },
      "properties": {
        "label": "Colimilla hydroelectric power station",
        "type": "Hydroelectric power station",
        "entity": "http://www.wikidata.org/entity/Q65206195",
        "country_qid": "Q96"
      }
    },
    {
      "type": "Feature",
      "geometry": {
        "type": "Point",
        "coordinates": [
          -107.3877806,
          25.09986111
        ]
      },
      "properties": {
        "label": "Humaya Dam",
        "type": "Hydroelectric power station",
        "entity": "http://www.wikidata.org/entity/Q6085338",
        "country_qid": "Q96"
      }
    },
    {
      "type": "Feature",
      "geometry": {
        "type": "Point",
        "coordinates": [
          -101.736111111,
          19.979444444
        ]
      },
      "properties": {
        "label": "Botello hydroelectric power station",
        "type": "Hydroelectric power station",
        "entity": "http://www.wikidata.org/entity/Q49627707",
        "country_qid": "Q96"
      }
    },
    {
      "type": "Feature",
      "geometry": {
        "type": "Point",
        "coordinates": [
          -104.802905,
          21.8398997
        ]
      },
      "properties": {
        "label": "Aguamilpa Dam",
        "type": "Hydroelectric power station",
        "entity": "http://www.wikidata.org/entity/Q397881",
        "country_qid": "Q96"
      }
    },
    {
      "type": "Feature",
      "geometry": {
        "type": "Point",
        "coordinates": [
          -93.45833333,
          17.44611111
        ]
      },
      "properties": {
        "label": "Peñitas Dam",
        "type": "Hydroelectric power station",
        "entity": "http://www.wikidata.org/entity/Q3435471",
        "country_qid": "Q96"
      }
    },
    {
      "type": "Feature",
      "geometry": {
        "type": "Point",
        "coordinates": [
          -92.226672,
          15.0239996
        ]
      },
      "properties": {
        "label": "José Cecilio del Valle hydroelectric power station",
        "type": "Hydroelectric power station",
        "entity": "http://www.wikidata.org/entity/Q109311135",
        "country_qid": "Q96"
      }
    },
    {
      "type": "Feature",
      "geometry": {
        "type": "Point",
        "coordinates": [
          -100.289166666,
          19.173888888
        ]
      },
      "properties": {
        "label": "Santa Bárbara hydroelectric power station",
        "type": "Hydroelectric power station",
        "entity": "http://www.wikidata.org/entity/Q27789459",
        "country_qid": "Q96"
      }
    },
    {
      "type": "Feature",
      "geometry": {
        "type": "Point",
        "coordinates": [
          -93.026388888,
          16.957777777
        ]
      },
      "properties": {
        "label": "Bombaná  hydroelectric power station",
        "type": "Hydroelectric power station",
        "entity": "http://www.wikidata.org/entity/Q27777694",
        "country_qid": "Q96"
      }
    },
    {
      "type": "Feature",
      "geometry": {
        "type": "Point",
        "coordinates": [
          -99.9920497,
          17.9530293
        ]
      },
      "properties": {
        "label": "El Caracol dam",
        "type": "Hydroelectric power station",
        "entity": "http://www.wikidata.org/entity/Q9062461",
        "country_qid": "Q96"
      }
    },
    {
      "type": "Feature",
      "geometry": {
        "type": "Point",
        "coordinates": [
          -102.180344444,
          18.047425
        ]
      },
      "properties": {
        "label": "La Villita Dam",
        "type": "Hydroelectric power station",
        "entity": "http://www.wikidata.org/entity/Q2895364",
        "country_qid": "Q96"
      }
    },
    {
      "type": "Feature",
      "geometry": {
        "type": "Point",
        "coordinates": [
          -103.32513889,
          20.78511111
        ]
      },
      "properties": {
        "label": "Agua Prieta hydroelectric power station",
        "type": "Hydroelectric power station",
        "entity": "http://www.wikidata.org/entity/Q11957050",
        "country_qid": "Q96"
      }
    },
    {
      "type": "Feature",
      "geometry": {
        "type": "Point",
        "coordinates": [
          -96.992777777,
          19.402777777
        ]
      },
      "properties": {
        "label": "Texolo  hydroelectric power station",
        "type": "Hydroelectric power station",
        "entity": "http://www.wikidata.org/entity/Q27846867",
        "country_qid": "Q96"
      }
    },
    {
      "type": "Feature",
      "geometry": {
        "type": "Point",
        "coordinates": [
          -106.8083694,
          24.57066667
        ]
      },
      "properties": {
        "label": "El Comedero Dam",
        "type": "Hydroelectric power station",
        "entity": "http://www.wikidata.org/entity/Q9062462",
        "country_qid": "Q96"
      }
    },
    {
      "type": "Feature",
      "geometry": {
        "type": "Point",
        "coordinates": [
          -108.5801528,
          26.50876944
        ]
      },
      "properties": {
        "label": "Miguel Hidalgo y Costilla Dam",
        "type": "Hydroelectric power station",
        "entity": "http://www.wikidata.org/entity/Q5552160",
        "country_qid": "Q96"
      }
    },
    {
      "type": "Feature",
      "geometry": {
        "type": "Point",
        "coordinates": [
          -104.8875374,
          21.7811426
        ]
      },
      "properties": {
        "label": "Q6085370",
        "type": "Hydroelectric power station",
        "entity": "http://www.wikidata.org/entity/Q6085370",
        "country_qid": "Q96"
      }
    },
    {
      "type": "Feature",
      "geometry": {
        "type": "Point",
        "coordinates": [
          -102.07,
          19.358888888
        ]
      },
      "properties": {
        "label": "Zumpimito hydroelectric power station",
        "type": "Hydroelectric power station",
        "entity": "http://www.wikidata.org/entity/Q27779214",
        "country_qid": "Q96"
      }
    },
    {
      "type": "Feature",
      "geometry": {
        "type": "Point",
        "coordinates": [
          -102.254166666,
          19.928611111
        ]
      },
      "properties": {
        "label": "Q49627765",
        "type": "Hydroelectric power station",
        "entity": "http://www.wikidata.org/entity/Q49627765",
        "country_qid": "Q96"
      }
    },
    {
      "type": "Feature",
      "geometry": {
        "type": "Point",
        "coordinates": [
          -99.1647,
          26.5589
        ]
      },
      "properties": {
        "label": "Falcon Dam",
        "type": "Hydroelectric power station",
        "entity": "http://www.wikidata.org/entity/Q2188401",
        "country_qid": "Q96"
      }
    },
    {
      "type": "Feature",
      "geometry": {
        "type": "Point",
        "coordinates": [
          -102.435,
          19.580277777
        ]
      },
      "properties": {
        "label": "Q49627742",
        "type": "Hydroelectric power station",
        "entity": "http://www.wikidata.org/entity/Q49627742",
        "country_qid": "Q96"
      }
    },
    {
      "type": "Feature",
      "geometry": {
        "type": "Point",
        "coordinates": [
          -99.461388888,
          18.845
        ]
      },
      "properties": {
        "label": "Alameda Planta Hidroeléctrica",
        "type": "Hydroelectric power station",
        "entity": "http://www.wikidata.org/entity/Q27777626",
        "country_qid": "Q96"
      }
    },
    {
      "type": "Feature",
      "geometry": {
        "type": "Point",
        "coordinates": [
          -99.5633,
          17.11702
        ]
      },
      "properties": {
        "label": "General Ambrosio Figueroa hydroelectric power station",
        "type": "Hydroelectric power station",
        "entity": "http://www.wikidata.org/entity/Q49627739",
        "country_qid": "Q96"
      }
    },
    {
      "type": "Feature",
      "geometry": {
        "type": "Point",
        "coordinates": [
          -105.41416667,
          27.54472222
        ]
      },
      "properties": {
        "label": "La Boquilla Dam",
        "type": "Hydroelectric power station",
        "entity": "http://www.wikidata.org/entity/Q26834325",
        "country_qid": "Q96"
      }
    },
    {
      "type": "Feature",
      "geometry": {
        "type": "Point",
        "coordinates": [
          -100.40625,
          19.08127778
        ]
      },
      "properties": {
        "label": "Tingambato hydroelectric power station",
        "type": "Hydroelectric power station",
        "entity": "http://www.wikidata.org/entity/Q65201063",
        "country_qid": "Q96"
      }
    },
    {
      "type": "Feature",
      "geometry": {
        "type": "Point",
        "coordinates": [
          -101.05777778,
          29.45027778
        ]
      },
      "properties": {
        "label": "Amistad Dam",
        "type": "Hydroelectric power station",
        "entity": "http://www.wikidata.org/entity/Q15179838",
        "country_qid": "Q96"
      }
    },
    {
      "type": "Feature",
      "geometry": {
        "type": "Point",
        "coordinates": [
          -107.9103611,
          25.85571667
        ]
      },
      "properties": {
        "label": "Bacurato Dam",
        "type": "Hydroelectric power station",
        "entity": "http://www.wikidata.org/entity/Q6085301",
        "country_qid": "Q96"
      }
    },
    {
      "type": "Feature",
      "geometry": {
        "type": "Point",
        "coordinates": [
          -96.4083338,
          18.2316951
        ]
      },
      "properties": {
        "label": "Temascal hydroelectric power station",
        "type": "Hydroelectric power station",
        "entity": "http://www.wikidata.org/entity/Q119953306",
        "country_qid": "Q96"
      }
    },
    {
      "type": "Feature",
      "geometry": {
        "type": "Point",
        "coordinates": [
          -99.188196659,
          20.152612038
        ]
      },
      "properties": {
        "label": "Hidroelectrica Juandhó",
        "type": "Hydroelectric power station",
        "entity": "http://www.wikidata.org/entity/Q118164303",
        "country_qid": "Q96"
      }
    },
    {
      "type": "Feature",
      "geometry": {
        "type": "Point",
        "coordinates": [
          -103.7055889,
          20.90901667
        ]
      },
      "properties": {
        "label": "Santa Rosa Dam",
        "type": "Hydroelectric power station",
        "entity": "http://www.wikidata.org/entity/Q6085379",
        "country_qid": "Q96"
      }
    },
    {
      "type": "Feature",
      "geometry": {
        "type": "Point",
        "coordinates": [
          -99.5012091,
          20.6633726
        ]
      },
      "properties": {
        "label": "Zimapán Dam",
        "type": "Hydroelectric power station",
        "entity": "http://www.wikidata.org/entity/Q203394",
        "country_qid": "Q96"
      }
    },
    {
      "type": "Feature",
      "geometry": {
        "type": "Point",
        "coordinates": [
          -104.1071534,
          21.1965959
        ]
      },
      "properties": {
        "label": "La Yesca Dam",
        "type": "Hydroelectric power station",
        "entity": "http://www.wikidata.org/entity/Q2547037",
        "country_qid": "Q96"
      }
    },
    {
      "type": "Feature",
      "geometry": {
        "type": "Point",
        "coordinates": [
          -109.89309,
          27.82242
        ]
      },
      "properties": {
        "label": "Álvaro Obregón Dam",
        "type": "Hydroelectric power station",
        "entity": "http://www.wikidata.org/entity/Q250772",
        "country_qid": "Q96"
      }
    },
    {
      "type": "Feature",
      "geometry": {
        "type": "Point",
        "coordinates": [
          -109.1067694,
          27.22513056
        ]
      },
      "properties": {
        "label": "Adolfo Ruiz Cortines Dam",
        "type": "Hydroelectric power station",
        "entity": "http://www.wikidata.org/entity/Q6085360",
        "country_qid": "Q96"
      }
    }
  ]
}