{
  "type": "FeatureCollection",
  "features": [
    {
      "type": "Feature",
      "geometry": {
        "type": "Point",
        "coordinates": [
          34.65777778,
          1.27638889
        ]
      },
      "properties": {
        "label": "Siti II Hydroelectric Power Station",
        "type": "Hydroelectric power station",
        "entity": "http://www.wikidata.org/entity/Q38251659",
        "country_qid": "Q1036"
      }
    },
    {
      "type": "Feature",
      "geometry": {
        "type": "Point",
        "coordinates": [
          29.97944444,
          0.61555556
        ]
      },
      "properties": {
        "label": "Ndugutu Hydroelectric Power Station",
        "type": "Hydroelectric power station",
        "entity": "http://www.wikidata.org/entity/Q48806598",
        "country_qid": "Q1036"
      }
    },
    {
      "type": "Feature",
      "geometry": {
        "type": "Point",
        "coordinates": [
          29.985,
          0.23
        ]
      },
      "properties": {
        "label": "Nyamwamba I Hydroelectric Power Station",
        "type": "Hydroelectric power station",
        "entity": "http://www.wikidata.org/entity/Q15263089",
        "country_qid": "Q1036"
      }
    },
    {
      "type": "Feature",
      "geometry": {
        "type": "Point",
        "coordinates": [
          29.9397074,
          0.1326128
        ]
      },
      "properties": {
        "label": "Nyamagasani I Hydroelectric Power Station",
        "type": "Hydroelectric power station",
        "entity": "http://www.wikidata.org/entity/Q48804890",
        "country_qid": "Q1036"
      }
    },
    {
      "type": "Feature",
      "geometry": {
        "type": "Point",
        "coordinates": [
          31.1711,
          1.63444
        ]
      },
      "properties": {
        "label": "Waki Power Station",
        "type": "Hydroelectric power station",
        "entity": "http://www.wikidata.org/entity/Q7961144",
        "country_qid": "Q1036"
      }
    },
    {
      "type": "Feature",
      "geometry": {
        "type": "Point",
        "coordinates": [
          30.149,
          0.26
        ]
      },
      "properties": {
        "label": "Mubuku III Power Station",
        "type": "Hydroelectric power station",
        "entity": "http://www.wikidata.org/entity/Q15260165",
        "country_qid": "Q1036"
      }
    },
    {
      "type": "Feature",
      "geometry": {
        "type": "Point",
        "coordinates": [
          31.1047384,
          1.5580668
        ]
      },
      "properties": {
        "label": "Kabalega Hydroelectric Power Station",
        "type": "Hydroelectric power station",
        "entity": "http://www.wikidata.org/entity/Q5001332",
        "country_qid": "Q1036"
      }
    },
    {
      "type": "Feature",
      "geometry": {
        "type": "Point",
        "coordinates": [
          31.2,
          3.5
        ]
      },
      "properties": {
        "label": "Agbinika Power Station",
        "type": "Hydroelectric power station",
        "entity": "http://www.wikidata.org/entity/Q4691654",
        "country_qid": "Q1036"
      }
    },
    {
      "type": "Feature",
      "geometry": {
        "type": "Point",
        "coordinates": [
          30.27305556,
          0.47861111
        ]
      },
      "properties": {
        "label": "Mahoma Hydroelectric Power Station",
        "type": "Hydroelectric power station",
        "entity": "http://www.wikidata.org/entity/Q59155490",
        "country_qid": "Q1036"
      }
    },
    {
      "type": "Feature",
      "geometry": {
        "type": "Point",
        "coordinates": [
          29.7544,
          0.0833333
        ]
      },
      "properties": {
        "label": "Lubilia Hydroelectric Power Station",
        "type": "Hydroelectric power station",
        "entity": "http://www.wikidata.org/entity/Q18350719",
        "country_qid": "Q1036"
      }
    },
    {
      "type": "Feature",
      "geometry": {
        "type": "Point",
        "coordinates": [
          30.98,
          2.45
        ]
      },
      "properties": {
        "label": "Nyagak III Power Station",
        "type": "Hydroelectric power station",
        "entity": "http://www.wikidata.org/entity/Q7070788",
        "country_qid": "Q1036"
      }
    },
    {
      "type": "Feature",
      "geometry": {
        "type": "Point",
        "coordinates": [
          31.832777777,
          2.370555555
        ]
      },
      "properties": {
        "label": "Kiba Hydroelectric Power Station",
        "type": "Hydroelectric power station",
        "entity": "http://www.wikidata.org/entity/Q55615969",
        "country_qid": "Q1036"
      }
    },
    {
      "type": "Feature",
      "geometry": {
        "type": "Point",
        "coordinates": [
          29.980833333,
          0.232222222
        ]
      },
      "properties": {
        "label": "Nyamwamba II Hydroelectric Power Station",
        "type": "Hydroelectric power station",
        "entity": "http://www.wikidata.org/entity/Q111947335",
        "country_qid": "Q1036"
      }
    },
    {
      "type": "Feature",
      "geometry": {
        "type": "Point",
        "coordinates": [
          29.9625,
          -0.99555556
        ]
      },
      "properties": {
        "label": "Kisiizi Power Station",
        "type": "Hydroelectric power station",
        "entity": "http://www.wikidata.org/entity/Q6416720",
        "country_qid": "Q1036"
      }
    },
    {
      "type": "Feature",
      "geometry": {
        "type": "Point",
        "coordinates": [
          32.99277778,
          2.22666667
        ]
      },
      "properties": {
        "label": "Adekokwok Hydroelectric Power Station",
        "type": "Hydroelectric power station",
        "entity": "http://www.wikidata.org/entity/Q23058314",
        "country_qid": "Q1036"
      }
    },
    {
      "type": "Feature",
      "geometry": {
        "type": "Point",
        "coordinates": [
          30.99,
          2.5
        ]
      },
      "properties": {
        "label": "Nyagak II Power Station",
        "type": "Hydroelectric power station",
        "entity": "http://www.wikidata.org/entity/Q7070789",
        "country_qid": "Q1036"
      }
    },
    {
      "type": "Feature",
      "geometry": {
        "type": "Point",
        "coordinates": [
          33.185,
          0.443611111
        ]
      },
      "properties": {
        "label": "Nalubaale Hydroelectric Power Station",
        "type": "Hydroelectric power station",
        "entity": "http://www.wikidata.org/entity/Q488982",
        "country_qid": "Q1036"
      }
    },
    {
      "type": "Feature",
      "geometry": {
        "type": "Point",
        "coordinates": [
          33.18555556,
          0.45
        ]
      },
      "properties": {
        "label": "Kiira Hydroelectric Power Station",
        "type": "Hydroelectric power station",
        "entity": "http://www.wikidata.org/entity/Q6406092",
        "country_qid": "Q1036"
      }
    },
    {
      "type": "Feature",
      "geometry": {
        "type": "Point",
        "coordinates": [
          32.5175382,
          3.1481438
        ]
      },
      "properties": {
        "label": "Achwa 2 Hydroelectric Power Station",
        "type": "Hydroelectric power station",
        "entity": "http://www.wikidata.org/entity/Q39060927",
        "country_qid": "Q1036"
      }
    },
    {
      "type": "Feature",
      "geometry": {
        "type": "Point",
        "coordinates": [
          33.14,
          0.4975
        ]
      },
      "properties": {
        "label": "Bujagali Hydroelectric Power Station",
        "type": "Hydroelectric power station",
        "entity": "http://www.wikidata.org/entity/Q4986717",
        "country_qid": "Q1036"
      }
    },
    {
      "type": "Feature",
      "geometry": {
        "type": "Point",
        "coordinates": [
          29.8333,
          -0.815
        ]
      },
      "properties": {
        "label": "Nengo Bridge Hydropower Station",
        "type": "Hydroelectric power station",
        "entity": "http://www.wikidata.org/entity/Q16895753",
        "country_qid": "Q1036"
      }
    },
    {
      "type": "Feature",
      "geometry": {
        "type": "Point",
        "coordinates": [
          30.68,
          -1.03
        ]
      },
      "properties": {
        "label": "Kikagati Power Station",
        "type": "Hydroelectric power station",
        "entity": "http://www.wikidata.org/entity/Q6406203",
        "country_qid": "Q1036"
      }
    },
    {
      "type": "Feature",
      "geometry": {
        "type": "Point",
        "coordinates": [
          32.083333333,
          2.266666666
        ]
      },
      "properties": {
        "label": "Oriang Hydroelectric Power Station",
        "type": "Hydroelectric power station",
        "entity": "http://www.wikidata.org/entity/Q48807394",
        "country_qid": "Q1036"
      }
    },
    {
      "type": "Feature",
      "geometry": {
        "type": "Point",
        "coordinates": [
          34.6369,
          1.25
        ]
      },
      "properties": {
        "label": "Siti I Hydroelectric Power Station",
        "type": "Hydroelectric power station",
        "entity": "http://www.wikidata.org/entity/Q16900248",
        "country_qid": "Q1036"
      }
    },
    {
      "type": "Feature",
      "geometry": {
        "type": "Point",
        "coordinates": [
          30.745,
          -1.0
        ]
      },
      "properties": {
        "label": "Nshungyezi Hydroelectric Power Station",
        "type": "Hydroelectric power station",
        "entity": "http://www.wikidata.org/entity/Q15262880",
        "country_qid": "Q1036"
      }
    },
    {
      "type": "Feature",
      "geometry": {
        "type": "Point",
        "coordinates": [
          32.54833333,
          3.01861111
        ]
      },
      "properties": {
        "label": "Achwa 3 Hydroelectric Power Station",
        "type": "Hydroelectric power station",
        "entity": "http://www.wikidata.org/entity/Q25227007",
        "country_qid": "Q1036"
      }
    },
    {
      "type": "Feature",
      "geometry": {
        "type": "Point",
        "coordinates": [
          30.0978997,
          0.3053638
        ]
      },
      "properties": {
        "label": "Bugoye Power Station",
        "type": "Hydroelectric power station",
        "entity": "http://www.wikidata.org/entity/Q4986232",
        "country_qid": "Q1036"
      }
    },
    {
      "type": "Feature",
      "geometry": {
        "type": "Point",
        "coordinates": [
          34.309722222,
          0.736944444
        ]
      },
      "properties": {
        "label": "Angololo Multipurpose Dam",
        "type": "Hydroelectric power station",
        "entity": "http://www.wikidata.org/entity/Q113499585",
        "country_qid": "Q1036"
      }
    },
    {
      "type": "Feature",
      "geometry": {
        "type": "Point",
        "coordinates": [
          31.92,
          2.36305556
        ]
      },
      "properties": {
        "label": "Ayago Power Station",
        "type": "Hydroelectric power station",
        "entity": "http://www.wikidata.org/entity/Q4830815",
        "country_qid": "Q1036"
      }
    },
    {
      "type": "Feature",
      "geometry": {
        "type": "Point",
        "coordinates": [
          30.08861111,
          -0.14888889
        ]
      },
      "properties": {
        "label": "Kyambura Hydroelectric Power Station",
        "type": "Hydroelectric power station",
        "entity": "http://www.wikidata.org/entity/Q48785145",
        "country_qid": "Q1036"
      }
    },
    {
      "type": "Feature",
      "geometry": {
        "type": "Point",
        "coordinates": [
          32.26677,
          2.2453486
        ]
      },
      "properties": {
        "label": "Karuma Power Station",
        "type": "Hydroelectric power station",
        "entity": "http://www.wikidata.org/entity/Q6373628",
        "country_qid": "Q1036"
      }
    },
    {
      "type": "Feature",
      "geometry": {
        "type": "Point",
        "coordinates": [
          30.97329,
          2.4281935
        ]
      },
      "properties": {
        "label": "Nyagak Power Station",
        "type": "Hydroelectric power station",
        "entity": "http://www.wikidata.org/entity/Q7070790",
        "country_qid": "Q1036"
      }
    },
    {
      "type": "Feature",
      "geometry": {
        "type": "Point",
        "coordinates": [
          30.66805556,
          1.11944444
        ]
      },
      "properties": {
        "label": "Nkusi Hydroelectric Power Station",
        "type": "Hydroelectric power station",
        "entity": "http://www.wikidata.org/entity/Q38251687",
        "country_qid": "Q1036"
      }
    },
    {
      "type": "Feature",
      "geometry": {
        "type": "Point",
        "coordinates": [
          30.545,
          0.965
        ]
      },
      "properties": {
        "label": "Muzizi Power Station",
        "type": "Hydroelectric power station",
        "entity": "http://www.wikidata.org/entity/Q6944462",
        "country_qid": "Q1036"
      }
    },
    {
      "type": "Feature",
      "geometry": {
        "type": "Point",
        "coordinates": [
          31.78111111,
          3.67
        ]
      },
      "properties": {
        "label": "Gwere-Luzira Power Station",
        "type": "Hydroelectric power station",
        "entity": "http://www.wikidata.org/entity/Q5623548",
        "country_qid": "Q1036"
      }
    },
    {
      "type": "Feature",
      "geometry": {
        "type": "Point",
        "coordinates": [
          30.08,
          -1.31888889
        ]
      },
      "properties": {
        "label": "Muvumbe Hydroelectric Power Station",
        "type": "Hydroelectric power station",
        "entity": "http://www.wikidata.org/entity/Q15252352",
        "country_qid": "Q1036"
      }
    },
    {
      "type": "Feature",
      "geometry": {
        "type": "Point",
        "coordinates": [
          29.97805556,
          0.63
        ]
      },
      "properties": {
        "label": "Sindila Hydroelectric Power Station",
        "type": "Hydroelectric power station",
        "entity": "http://www.wikidata.org/entity/Q48806690",
        "country_qid": "Q1036"
      }
    },
    {
      "type": "Feature",
      "geometry": {
        "type": "Point",
        "coordinates": [
          30.0692886,
          0.3277892
        ]
      },
      "properties": {
        "label": "Mubuku I Power Station",
        "type": "Hydroelectric power station",
        "entity": "http://www.wikidata.org/entity/Q6930904",
        "country_qid": "Q1036"
      }
    },
    {
      "type": "Feature",
      "geometry": {
        "type": "Point",
        "coordinates": [
          29.73111111,
          -0.93055556
        ]
      },
      "properties": {
        "label": "Kanungu Power Station",
        "type": "Hydroelectric power station",
        "entity": "http://www.wikidata.org/entity/Q6365673",
        "country_qid": "Q1036"
      }
    },
    {
      "type": "Feature",
      "geometry": {
        "type": "Point",
        "coordinates": [
          30.3213699,
          0.0664073
        ]
      },
      "properties": {
        "label": "Mpanga Hydroelectric Power Station",
        "type": "Hydroelectric power station",
        "entity": "http://www.wikidata.org/entity/Q15260138",
        "country_qid": "Q1036"
      }
    },
    {
      "type": "Feature",
      "geometry": {
        "type": "Point",
        "coordinates": [
          33.042222222,
          0.771666666
        ]
      },
      "properties": {
        "label": "Isimba Power Station",
        "type": "Hydroelectric power station",
        "entity": "http://www.wikidata.org/entity/Q6081090",
        "country_qid": "Q1036"
      }
    },
    {
      "type": "Feature",
      "geometry": {
        "type": "Point",
        "coordinates": [
          30.18,
          0.39
        ]
      },
      "properties": {
        "label": "Rwimi Power Station",
        "type": "Hydroelectric power station",
        "entity": "http://www.wikidata.org/entity/Q16899525",
        "country_qid": "Q1036"
      }
    },
    {
      "type": "Feature",
      "geometry": {
        "type": "Point",
        "coordinates": [
          29.9413527,
          0.1049232
        ]
      },
      "properties": {
        "label": "Nyamagasani II Hydroelectric Power Station",
        "type": "Hydroelectric power station",
        "entity": "http://www.wikidata.org/entity/Q48806813",
        "country_qid": "Q1036"
      }
    },
    {
      "type": "Feature",
      "geometry": {
        "type": "Point",
        "coordinates": [
          32.5144224,
          3.1293355
        ]
      },
      "properties": {
        "label": "Achwa 1 Hydroelectric Power Station",
        "type": "Hydroelectric power station",
        "entity": "http://www.wikidata.org/entity/Q55603136",
        "country_qid": "Q1036"
      }
    }
  ]
}