{
  "type": "FeatureCollection",
  "features": [
    {
      "type": "Feature",
      "geometry": {
        "type": "Point",
        "coordinates": [
          -6.670416666,
          41.223916666
        ]
      },
      "properties": {
        "label": "Aldeadávila Reservoir",
        "type": "Reservoir",
        "entity": "http://www.wikidata.org/entity/Q43551868",
        "country_qid": "Q45"
      }
    },
    {
      "type": "Feature",
      "geometry": {
        "type": "Point",
        "coordinates": [
          -8.64534378,
          42.033248901
        ]
      },
      "properties": {
        "label": "Q116362309",
        "type": "Reservoir",
        "entity": "http://www.wikidata.org/entity/Q116362309",
        "country_qid": "Q45"
      }
    },
    {
      "type": "Feature",
      "geometry": {
        "type": "Point",
        "coordinates": [
          -8.67994,
          38.99293
        ]
      },
      "properties": {
        "label": "Magos Reservoir",
        "type": "Reservoir",
        "entity": "http://www.wikidata.org/entity/Q34799330",
        "country_qid": "Q45"
      }
    },
    {
      "type": "Feature",
      "geometry": {
        "type": "Point",
        "coordinates": [
          -7.123592853,
          38.922237396
        ]
      },
      "properties": {
        "label": "Tanque Romano da Herdade do Correio-Mor",
        "type": "Reservoir",
        "entity": "http://www.wikidata.org/entity/Q74474468",
        "country_qid": "Q45"
      }
    },
    {
      "type": "Feature",
      "geometry": {
        "type": "Point",
        "coordinates": [
          -8.062028,
          37.512083
        ]
      },
      "properties": {
        "label": "Castle of Almodôvar",
        "type": "Reservoir",
        "entity": "http://www.wikidata.org/entity/Q130236384",
        "country_qid": "Q45"
      }
    },
    {
      "type": "Feature",
      "geometry": {
        "type": "Point",
        "coordinates": [
          -7.843055555,
          40.105555555
        ]
      },
      "properties": {
        "label": "Santa Luzia Reservoir",
        "type": "Reservoir",
        "entity": "http://www.wikidata.org/entity/Q34868684",
        "country_qid": "Q45"
      }
    },
    {
      "type": "Feature",
      "geometry": {
        "type": "Point",
        "coordinates": [
          -6.267313888,
          41.493516666
        ]
      },
      "properties": {
        "label": "Miranda Reservoir",
        "type": "Reservoir",
        "entity": "http://www.wikidata.org/entity/Q43562577",
        "country_qid": "Q45"
      }
    },
    {
      "type": "Feature",
      "geometry": {
        "type": "Point",
        "coordinates": [
          -8.061583333,
          37.496222222
        ]
      },
      "properties": {
        "label": "Q130536607",
        "type": "Reservoir",
        "entity": "http://www.wikidata.org/entity/Q130536607",
        "country_qid": "Q45"
      }
    },
    {
      "type": "Feature",
      "geometry": {
        "type": "Point",
        "coordinates": [
          -7.52111111,
          37.55861111
        ]
      },
      "properties": {
        "label": "Chança dam",
        "type": "Reservoir",
        "entity": "http://www.wikidata.org/entity/Q8775414",
        "country_qid": "Q45"
      }
    },
    {
      "type": "Feature",
      "geometry": {
        "type": "Point",
        "coordinates": [
          -7.48856,
          38.21553
        ]
      },
      "properties": {
        "label": "Alqueva Reservoir",
        "type": "Reservoir",
        "entity": "http://www.wikidata.org/entity/Q18616171",
        "country_qid": "Q45"
      }
    },
    {
      "type": "Feature",
      "geometry": {
        "type": "Point",
        "coordinates": [
          -7.429,
          39.2975
        ]
      },
      "properties": {
        "label": "Q99521251",
        "type": "Reservoir",
        "entity": "http://www.wikidata.org/entity/Q99521251",
        "country_qid": "Q45"
      }
    },
    {
      "type": "Feature",
      "geometry": {
        "type": "Point",
        "coordinates": [
          -8.438997268,
          37.188919067
        ]
      },
      "properties": {
        "label": "Poço-cisterna árabe de Silves",
        "type": "Reservoir",
        "entity": "http://www.wikidata.org/entity/Q66813898",
        "country_qid": "Q45"
      }
    },
    {
      "type": "Feature",
      "geometry": {
        "type": "Point",
        "coordinates": [
          -7.504973,
          40.280688
        ]
      },
      "properties": {
        "label": "Edifício na Rua 1º de Dezembro, nº 10 - Cisterna medieval",
        "type": "Reservoir",
        "entity": "http://www.wikidata.org/entity/Q66813585",
        "country_qid": "Q45"
      }
    },
    {
      "type": "Feature",
      "geometry": {
        "type": "Point",
        "coordinates": [
          -8.01753,
          38.530417
        ]
      },
      "properties": {
        "label": "Q133295700",
        "type": "Reservoir",
        "entity": "http://www.wikidata.org/entity/Q133295700",
        "country_qid": "Q45"
      }
    },
    {
      "type": "Feature",
      "geometry": {
        "type": "Point",
        "coordinates": [
          -9.155754,
          38.72127
        ]
      },
      "properties": {
        "label": "Reservatório da Mãe d'Água das Amoreiras",
        "type": "Reservoir",
        "entity": "http://www.wikidata.org/entity/Q10359790",
        "country_qid": "Q45"
      }
    },
    {
      "type": "Feature",
      "geometry": {
        "type": "Point",
        "coordinates": [
          -8.795185,
          37.318758
        ]
      },
      "properties": {
        "label": "Q108115257",
        "type": "Reservoir",
        "entity": "http://www.wikidata.org/entity/Q108115257",
        "country_qid": "Q45"
      }
    },
    {
      "type": "Feature",
      "geometry": {
        "type": "Point",
        "coordinates": [
          -7.90949994,
          38.57170016
        ]
      },
      "properties": {
        "label": "Caixa de água da Rua Nova",
        "type": "Reservoir",
        "entity": "http://www.wikidata.org/entity/Q17389988",
        "country_qid": "Q45"
      }
    },
    {
      "type": "Feature",
      "geometry": {
        "type": "Point",
        "coordinates": [
          -7.16728,
          38.879622
        ]
      },
      "properties": {
        "label": "Cisterna de Elvas",
        "type": "Reservoir",
        "entity": "http://www.wikidata.org/entity/Q70077914",
        "country_qid": "Q45"
      }
    },
    {
      "type": "Feature",
      "geometry": {
        "type": "Point",
        "coordinates": [
          -6.965018,
          40.876434
        ]
      },
      "properties": {
        "label": "Cisterna em Castelo Rodrigo",
        "type": "Reservoir",
        "entity": "http://www.wikidata.org/entity/Q73768535",
        "country_qid": "Q45"
      }
    },
    {
      "type": "Feature",
      "geometry": {
        "type": "Point",
        "coordinates": [
          -7.89665,
          38.29013
        ]
      },
      "properties": {
        "label": "Alvito Reservoir",
        "type": "Reservoir",
        "entity": "http://www.wikidata.org/entity/Q34919282",
        "country_qid": "Q45"
      }
    },
    {
      "type": "Feature",
      "geometry": {
        "type": "Point",
        "coordinates": [
          -7.909875,
          37.028939
        ]
      },
      "properties": {
        "label": "Nora, tanque e portal anexos, na quinta da família Bívar Cúmano",
        "type": "Reservoir",
        "entity": "http://www.wikidata.org/entity/Q66813825",
        "country_qid": "Q45"
      }
    },
    {
      "type": "Feature",
      "geometry": {
        "type": "Point",
        "coordinates": [
          -9.099753,
          38.751925
        ]
      },
      "properties": {
        "label": "Q90334721",
        "type": "Reservoir",
        "entity": "http://www.wikidata.org/entity/Q90334721",
        "country_qid": "Q45"
      }
    },
    {
      "type": "Feature",
      "geometry": {
        "type": "Point",
        "coordinates": [
          -8.38,
          37.24
        ]
      },
      "properties": {
        "label": "Albufeira da Barragem do Arade",
        "type": "Reservoir",
        "entity": "http://www.wikidata.org/entity/Q118611101",
        "country_qid": "Q45"
      }
    },
    {
      "type": "Feature",
      "geometry": {
        "type": "Point",
        "coordinates": [
          -7.937116522,
          41.922174962
        ]
      },
      "properties": {
        "label": "Salas River Reservoir",
        "type": "Reservoir",
        "entity": "http://www.wikidata.org/entity/Q130299006",
        "country_qid": "Q45"
      }
    },
    {
      "type": "Feature",
      "geometry": {
        "type": "Point",
        "coordinates": [
          -7.538672222,
          39.665133333
        ]
      },
      "properties": {
        "label": "Cedillo Reservoir",
        "type": "Reservoir",
        "entity": "http://www.wikidata.org/entity/Q19429422",
        "country_qid": "Q45"
      }
    },
    {
      "type": "Feature",
      "geometry": {
        "type": "Point",
        "coordinates": [
          -8.190277777,
          38.838888888
        ]
      },
      "properties": {
        "label": "Albufeira do Peso",
        "type": "Reservoir",
        "entity": "http://www.wikidata.org/entity/Q34868710",
        "country_qid": "Q45"
      }
    },
    {
      "type": "Feature",
      "geometry": {
        "type": "Point",
        "coordinates": [
          -7.584997222,
          40.399302777
        ]
      },
      "properties": {
        "label": "Vale do Rossim Reservoir",
        "type": "Reservoir",
        "entity": "http://www.wikidata.org/entity/Q34918735",
        "country_qid": "Q45"
      }
    },
    {
      "type": "Feature",
      "geometry": {
        "type": "Point",
        "coordinates": [
          -6.347994444,
          41.378236111
        ]
      },
      "properties": {
        "label": "Picote Reservoir",
        "type": "Reservoir",
        "entity": "http://www.wikidata.org/entity/Q43563251",
        "country_qid": "Q45"
      }
    },
    {
      "type": "Feature",
      "geometry": {
        "type": "Point",
        "coordinates": [
          -6.775302777,
          41.075691666
        ]
      },
      "properties": {
        "label": "Saucelle Reservoir",
        "type": "Reservoir",
        "entity": "http://www.wikidata.org/entity/Q43560800",
        "country_qid": "Q45"
      }
    },
    {
      "type": "Feature",
      "geometry": {
        "type": "Point",
        "coordinates": [
          -8.59841,
          41.148796
        ]
      },
      "properties": {
        "label": "Arca de Água de Mijavelhas",
        "type": "Reservoir",
        "entity": "http://www.wikidata.org/entity/Q9627569",
        "country_qid": "Q45"
      }
    },
    {
      "type": "Feature",
      "geometry": {
        "type": "Point",
        "coordinates": [
          -8.438449859,
          37.190242767
        ]
      },
      "properties": {
        "label": "Q98961768",
        "type": "Reservoir",
        "entity": "http://www.wikidata.org/entity/Q98961768",
        "country_qid": "Q45"
      }
    },
    {
      "type": "Feature",
      "geometry": {
        "type": "Point",
        "coordinates": [
          -8.109815,
          40.154622
        ]
      },
      "properties": {
        "label": "Cisterna do Pombal",
        "type": "Reservoir",
        "entity": "http://www.wikidata.org/entity/Q66943460",
        "country_qid": "Q45"
      }
    },
    {
      "type": "Feature",
      "geometry": {
        "type": "Point",
        "coordinates": [
          -6.462858333,
          41.299258333
        ]
      },
      "properties": {
        "label": "Bemposta Reservoir",
        "type": "Reservoir",
        "entity": "http://www.wikidata.org/entity/Q43563904",
        "country_qid": "Q45"
      }
    },
    {
      "type": "Feature",
      "geometry": {
        "type": "Point",
        "coordinates": [
          -17.1189,
          32.754269444
        ]
      },
      "properties": {
        "label": "Barragem do Pico da Urze",
        "type": "Reservoir",
        "entity": "http://www.wikidata.org/entity/Q131414381",
        "country_qid": "Q45"
      }
    },
    {
      "type": "Feature",
      "geometry": {
        "type": "Point",
        "coordinates": [
          -16.34041,
          33.0673
        ]
      },
      "properties": {
        "label": "Reservatório de Divisão e Captação de Águas",
        "type": "Reservoir",
        "entity": "http://www.wikidata.org/entity/Q66996218",
        "country_qid": "Q45"
      }
    },
    {
      "type": "Feature",
      "geometry": {
        "type": "Point",
        "coordinates": [
          -9.14873611,
          38.71619444
        ]
      },
      "properties": {
        "label": "Reservatório da Patriarcal",
        "type": "Reservoir",
        "entity": "http://www.wikidata.org/entity/Q2145587",
        "country_qid": "Q45"
      }
    }
  ]
}