{
  "type": "FeatureCollection",
  "features": [
    {
      "type": "Feature",
      "geometry": {
        "type": "Point",
        "coordinates": [
          26.02527778,
          44.45555556
        ]
      },
      "properties": {
        "label": "Morii Lake",
        "type": "Reservoir",
        "entity": "http://www.wikidata.org/entity/Q1148231",
        "country_qid": "Q218"
      }
    },
    {
      "type": "Feature",
      "geometry": {
        "type": "Point",
        "coordinates": [
          22.161312,
          44.476421
        ]
      },
      "properties": {
        "label": "Lake Đerdap",
        "type": "Reservoir",
        "entity": "http://www.wikidata.org/entity/Q1313598",
        "country_qid": "Q218"
      }
    },
    {
      "type": "Feature",
      "geometry": {
        "type": "Point",
        "coordinates": [
          26.054080555,
          47.019588888
        ]
      },
      "properties": {
        "label": "Lake Izvorul Muntelui",
        "type": "Reservoir",
        "entity": "http://www.wikidata.org/entity/Q854060",
        "country_qid": "Q218"
      }
    },
    {
      "type": "Feature",
      "geometry": {
        "type": "Point",
        "coordinates": [
          22.143,
          45.214
        ]
      },
      "properties": {
        "label": "Trei Ape",
        "type": "Reservoir",
        "entity": "http://www.wikidata.org/entity/Q28726082",
        "country_qid": "Q218"
      }
    },
    {
      "type": "Feature",
      "geometry": {
        "type": "Point",
        "coordinates": [
          24.62208,
          45.41797
        ]
      },
      "properties": {
        "label": "Lacul Vidraru",
        "type": "Reservoir",
        "entity": "http://www.wikidata.org/entity/Q34897195",
        "country_qid": "Q218"
      }
    },
    {
      "type": "Feature",
      "geometry": {
        "type": "Point",
        "coordinates": [
          26.0719,
          44.4923
        ]
      },
      "properties": {
        "label": "Lake Băneasa",
        "type": "Reservoir",
        "entity": "http://www.wikidata.org/entity/Q3214777",
        "country_qid": "Q218"
      }
    },
    {
      "type": "Feature",
      "geometry": {
        "type": "Point",
        "coordinates": [
          23.278055555,
          46.721111111
        ]
      },
      "properties": {
        "label": "Lake Tarnița",
        "type": "Reservoir",
        "entity": "http://www.wikidata.org/entity/Q13534398",
        "country_qid": "Q218"
      }
    },
    {
      "type": "Feature",
      "geometry": {
        "type": "Point",
        "coordinates": [
          25.9375,
          45.8829
        ]
      },
      "properties": {
        "label": "Q793992",
        "type": "Reservoir",
        "entity": "http://www.wikidata.org/entity/Q793992",
        "country_qid": "Q218"
      }
    },
    {
      "type": "Feature",
      "geometry": {
        "type": "Point",
        "coordinates": [
          27.23333333,
          47.85833333
        ]
      },
      "properties": {
        "label": "Q3272045",
        "type": "Reservoir",
        "entity": "http://www.wikidata.org/entity/Q3272045",
        "country_qid": "Q218"
      }
    },
    {
      "type": "Feature",
      "geometry": {
        "type": "Point",
        "coordinates": [
          22.14583333,
          45.75777778
        ]
      },
      "properties": {
        "label": "Surduc Lake",
        "type": "Reservoir",
        "entity": "http://www.wikidata.org/entity/Q12731887",
        "country_qid": "Q218"
      }
    },
    {
      "type": "Feature",
      "geometry": {
        "type": "Point",
        "coordinates": [
          26.25,
          45.5
        ]
      },
      "properties": {
        "label": "Lake Siriu",
        "type": "Reservoir",
        "entity": "http://www.wikidata.org/entity/Q6272651",
        "country_qid": "Q218"
      }
    },
    {
      "type": "Feature",
      "geometry": {
        "type": "Point",
        "coordinates": [
          24.633333333,
          45.383333333
        ]
      },
      "properties": {
        "label": "Lake Vidraru",
        "type": "Reservoir",
        "entity": "http://www.wikidata.org/entity/Q511976",
        "country_qid": "Q218"
      }
    },
    {
      "type": "Feature",
      "geometry": {
        "type": "Point",
        "coordinates": [
          24.078349,
          45.353823
        ]
      },
      "properties": {
        "label": "Brădișor Reservoir",
        "type": "Reservoir",
        "entity": "http://www.wikidata.org/entity/Q61084992",
        "country_qid": "Q218"
      }
    },
    {
      "type": "Feature",
      "geometry": {
        "type": "Point",
        "coordinates": [
          22.740037,
          45.16676
        ]
      },
      "properties": {
        "label": "Q98086394",
        "type": "Reservoir",
        "entity": "http://www.wikidata.org/entity/Q98086394",
        "country_qid": "Q218"
      }
    }
  ]
}