{
  "type": "FeatureCollection",
  "features": [
    {
      "type": "Feature",
      "geometry": {
        "type": "Point",
        "coordinates": [
          80.452777777,
          8.565
        ]
      },
      "properties": {
        "label": "Kadawathgama Wewa",
        "type": "Reservoir",
        "entity": "http://www.wikidata.org/entity/Q34893469",
        "country_qid": "Q854"
      }
    },
    {
      "type": "Feature",
      "geometry": {
        "type": "Point",
        "coordinates": [
          80.44722222,
          9.31388889
        ]
      },
      "properties": {
        "label": "Iranamadu Tank",
        "type": "Reservoir",
        "entity": "http://www.wikidata.org/entity/Q12974577",
        "country_qid": "Q854"
      }
    },
    {
      "type": "Feature",
      "geometry": {
        "type": "Point",
        "coordinates": [
          80.8075,
          8.321388888
        ]
      },
      "properties": {
        "label": "Keulkada Wewa",
        "type": "Reservoir",
        "entity": "http://www.wikidata.org/entity/Q34894702",
        "country_qid": "Q854"
      }
    },
    {
      "type": "Feature",
      "geometry": {
        "type": "Point",
        "coordinates": [
          80.748333333,
          8.476666666
        ]
      },
      "properties": {
        "label": "Moragahadigiliya Wewa",
        "type": "Reservoir",
        "entity": "http://www.wikidata.org/entity/Q34908226",
        "country_qid": "Q854"
      }
    },
    {
      "type": "Feature",
      "geometry": {
        "type": "Point",
        "coordinates": [
          80.758888888,
          8.501944444
        ]
      },
      "properties": {
        "label": "Kalpe Wewa",
        "type": "Reservoir",
        "entity": "http://www.wikidata.org/entity/Q34893692",
        "country_qid": "Q854"
      }
    },
    {
      "type": "Feature",
      "geometry": {
        "type": "Point",
        "coordinates": [
          80.584166666,
          9.408888888
        ]
      },
      "properties": {
        "label": "Irupu Kulam",
        "type": "Reservoir",
        "entity": "http://www.wikidata.org/entity/Q34891850",
        "country_qid": "Q854"
      }
    },
    {
      "type": "Feature",
      "geometry": {
        "type": "Point",
        "coordinates": [
          81.612222222,
          7.164166666
        ]
      },
      "properties": {
        "label": "Ekgal Aru Reservoir",
        "type": "Reservoir",
        "entity": "http://www.wikidata.org/entity/Q34884755",
        "country_qid": "Q854"
      }
    },
    {
      "type": "Feature",
      "geometry": {
        "type": "Point",
        "coordinates": [
          80.319166666,
          8.665833333
        ]
      },
      "properties": {
        "label": "Cheddi Kulam",
        "type": "Reservoir",
        "entity": "http://www.wikidata.org/entity/Q34879937",
        "country_qid": "Q854"
      }
    },
    {
      "type": "Feature",
      "geometry": {
        "type": "Point",
        "coordinates": [
          80.983333333,
          7.333333333
        ]
      },
      "properties": {
        "label": "Malliya Wewa",
        "type": "Reservoir",
        "entity": "http://www.wikidata.org/entity/Q34905436",
        "country_qid": "Q854"
      }
    },
    {
      "type": "Feature",
      "geometry": {
        "type": "Point",
        "coordinates": [
          80.38,
          8.335
        ]
      },
      "properties": {
        "label": "Tissa Wewa",
        "type": "Reservoir",
        "entity": "http://www.wikidata.org/entity/Q20823336",
        "country_qid": "Q854"
      }
    },
    {
      "type": "Feature",
      "geometry": {
        "type": "Point",
        "coordinates": [
          80.4825,
          8.918333333
        ]
      },
      "properties": {
        "label": "Kompovaitta Kulam",
        "type": "Reservoir",
        "entity": "http://www.wikidata.org/entity/Q34895831",
        "country_qid": "Q854"
      }
    },
    {
      "type": "Feature",
      "geometry": {
        "type": "Point",
        "coordinates": [
          81.006111111,
          8.860833333
        ]
      },
      "properties": {
        "label": "Kaddu Kulam",
        "type": "Reservoir",
        "entity": "http://www.wikidata.org/entity/Q34893493",
        "country_qid": "Q854"
      }
    },
    {
      "type": "Feature",
      "geometry": {
        "type": "Point",
        "coordinates": [
          80.638333333,
          7.06
        ]
      },
      "properties": {
        "label": "Kotmale Oya Reservoir",
        "type": "Reservoir",
        "entity": "http://www.wikidata.org/entity/Q34896050",
        "country_qid": "Q854"
      }
    },
    {
      "type": "Feature",
      "geometry": {
        "type": "Point",
        "coordinates": [
          81.831388888,
          7.099166666
        ]
      },
      "properties": {
        "label": "Koraikalapu Kulam",
        "type": "Reservoir",
        "entity": "http://www.wikidata.org/entity/Q34895948",
        "country_qid": "Q854"
      }
    },
    {
      "type": "Feature",
      "geometry": {
        "type": "Point",
        "coordinates": [
          80.798888888,
          8.428611111
        ]
      },
      "properties": {
        "label": "Aswahawathuna Wewa",
        "type": "Reservoir",
        "entity": "http://www.wikidata.org/entity/Q34876728",
        "country_qid": "Q854"
      }
    },
    {
      "type": "Feature",
      "geometry": {
        "type": "Point",
        "coordinates": [
          80.490555555,
          9.012777777
        ]
      },
      "properties": {
        "label": "Kurikuriwain Kulam",
        "type": "Reservoir",
        "entity": "http://www.wikidata.org/entity/Q34896619",
        "country_qid": "Q854"
      }
    },
    {
      "type": "Feature",
      "geometry": {
        "type": "Point",
        "coordinates": [
          81.316666666,
          8.133333333
        ]
      },
      "properties": {
        "label": "Kaddu Murivlikulam Wewa",
        "type": "Reservoir",
        "entity": "http://www.wikidata.org/entity/Q34893505",
        "country_qid": "Q854"
      }
    },
    {
      "type": "Feature",
      "geometry": {
        "type": "Point",
        "coordinates": [
          80.749722222,
          8.639166666
        ]
      },
      "properties": {
        "label": "Bandaraulpoto Wewa",
        "type": "Reservoir",
        "entity": "http://www.wikidata.org/entity/Q34876985",
        "country_qid": "Q854"
      }
    },
    {
      "type": "Feature",
      "geometry": {
        "type": "Point",
        "coordinates": [
          80.256666666,
          8.461388888
        ]
      },
      "properties": {
        "label": "Helembewa Wewa",
        "type": "Reservoir",
        "entity": "http://www.wikidata.org/entity/Q34889584",
        "country_qid": "Q854"
      }
    },
    {
      "type": "Feature",
      "geometry": {
        "type": "Point",
        "coordinates": [
          80.6,
          8.766666666
        ]
      },
      "properties": {
        "label": "Kanakkeyagama Wewa",
        "type": "Reservoir",
        "entity": "http://www.wikidata.org/entity/Q34893824",
        "country_qid": "Q854"
      }
    },
    {
      "type": "Feature",
      "geometry": {
        "type": "Point",
        "coordinates": [
          80.540555555,
          7.98
        ]
      },
      "properties": {
        "label": "Balalu Wewa",
        "type": "Reservoir",
        "entity": "http://www.wikidata.org/entity/Q34876912",
        "country_qid": "Q854"
      }
    },
    {
      "type": "Feature",
      "geometry": {
        "type": "Point",
        "coordinates": [
          80.48486111,
          5.25272222
        ]
      },
      "properties": {
        "label": "Nachchaduwa wewa",
        "type": "Reservoir",
        "entity": "http://www.wikidata.org/entity/Q25105468",
        "country_qid": "Q854"
      }
    },
    {
      "type": "Feature",
      "geometry": {
        "type": "Point",
        "coordinates": [
          80.558611111,
          8.573611111
        ]
      },
      "properties": {
        "label": "Kidalegama Wewa",
        "type": "Reservoir",
        "entity": "http://www.wikidata.org/entity/Q34895049",
        "country_qid": "Q854"
      }
    },
    {
      "type": "Feature",
      "geometry": {
        "type": "Point",
        "coordinates": [
          81.681666666,
          6.546111111
        ]
      },
      "properties": {
        "label": "Kumana Wewa",
        "type": "Reservoir",
        "entity": "http://www.wikidata.org/entity/Q34896413",
        "country_qid": "Q854"
      }
    },
    {
      "type": "Feature",
      "geometry": {
        "type": "Point",
        "coordinates": [
          81.766388888,
          7.040833333
        ]
      },
      "properties": {
        "label": "Kangikudichchara Kulam",
        "type": "Reservoir",
        "entity": "http://www.wikidata.org/entity/Q34893848",
        "country_qid": "Q854"
      }
    },
    {
      "type": "Feature",
      "geometry": {
        "type": "Point",
        "coordinates": [
          80.751666666,
          8.616388888
        ]
      },
      "properties": {
        "label": "Kalawediwulpota Wewa",
        "type": "Reservoir",
        "entity": "http://www.wikidata.org/entity/Q34893629",
        "country_qid": "Q854"
      }
    },
    {
      "type": "Feature",
      "geometry": {
        "type": "Point",
        "coordinates": [
          79.854180555,
          6.929433333
        ]
      },
      "properties": {
        "label": "Beira Lake",
        "type": "Reservoir",
        "entity": "http://www.wikidata.org/entity/Q814829",
        "country_qid": "Q854"
      }
    },
    {
      "type": "Feature",
      "geometry": {
        "type": "Point",
        "coordinates": [
          79.943333333,
          7.928888888
        ]
      },
      "properties": {
        "label": "Kottukachchiya Maha Wewa",
        "type": "Reservoir",
        "entity": "http://www.wikidata.org/entity/Q34896115",
        "country_qid": "Q854"
      }
    },
    {
      "type": "Feature",
      "geometry": {
        "type": "Point",
        "coordinates": [
          80.3,
          9.166666666
        ]
      },
      "properties": {
        "label": "Chalanpan Kulam",
        "type": "Reservoir",
        "entity": "http://www.wikidata.org/entity/Q34879546",
        "country_qid": "Q854"
      }
    },
    {
      "type": "Feature",
      "geometry": {
        "type": "Point",
        "coordinates": [
          80.375833333,
          9.275555555
        ]
      },
      "properties": {
        "label": "Kakkarayan Kulam",
        "type": "Reservoir",
        "entity": "http://www.wikidata.org/entity/Q34893543",
        "country_qid": "Q854"
      }
    },
    {
      "type": "Feature",
      "geometry": {
        "type": "Point",
        "coordinates": [
          80.5475,
          8.817222222
        ]
      },
      "properties": {
        "label": "Mamaduwa Wewa",
        "type": "Reservoir",
        "entity": "http://www.wikidata.org/entity/Q34905474",
        "country_qid": "Q854"
      }
    },
    {
      "type": "Feature",
      "geometry": {
        "type": "Point",
        "coordinates": [
          80.658055555,
          7.664444444
        ]
      },
      "properties": {
        "label": "Bowatenna Reservoir",
        "type": "Reservoir",
        "entity": "http://www.wikidata.org/entity/Q34878597",
        "country_qid": "Q854"
      }
    },
    {
      "type": "Feature",
      "geometry": {
        "type": "Point",
        "coordinates": [
          80.127777777,
          7.744166666
        ]
      },
      "properties": {
        "label": "Magalle Wewa",
        "type": "Reservoir",
        "entity": "http://www.wikidata.org/entity/Q34904895",
        "country_qid": "Q854"
      }
    },
    {
      "type": "Feature",
      "geometry": {
        "type": "Point",
        "coordinates": [
          80.6997,
          7.43694
        ]
      },
      "properties": {
        "label": "Sembuwatta Lake",
        "type": "Reservoir",
        "entity": "http://www.wikidata.org/entity/Q18915186",
        "country_qid": "Q854"
      }
    },
    {
      "type": "Feature",
      "geometry": {
        "type": "Point",
        "coordinates": [
          80.60861111,
          9.20194444
        ]
      },
      "properties": {
        "label": "Muthuiyankaddu Kulam",
        "type": "Reservoir",
        "entity": "http://www.wikidata.org/entity/Q25100842",
        "country_qid": "Q854"
      }
    },
    {
      "type": "Feature",
      "geometry": {
        "type": "Point",
        "coordinates": [
          80.4275,
          8.473333333
        ]
      },
      "properties": {
        "label": "Medagama Wewa",
        "type": "Reservoir",
        "entity": "http://www.wikidata.org/entity/Q34906955",
        "country_qid": "Q854"
      }
    },
    {
      "type": "Feature",
      "geometry": {
        "type": "Point",
        "coordinates": [
          80.993333333,
          6.311388888
        ]
      },
      "properties": {
        "label": "New Suriya Wewa",
        "type": "Reservoir",
        "entity": "http://www.wikidata.org/entity/Q34910948",
        "country_qid": "Q854"
      }
    },
    {
      "type": "Feature",
      "geometry": {
        "type": "Point",
        "coordinates": [
          80.776944444,
          8.416388888
        ]
      },
      "properties": {
        "label": "Ihalakubukgallawa Wewa",
        "type": "Reservoir",
        "entity": "http://www.wikidata.org/entity/Q34891409",
        "country_qid": "Q854"
      }
    },
    {
      "type": "Feature",
      "geometry": {
        "type": "Point",
        "coordinates": [
          80.186111111,
          8.001111111
        ]
      },
      "properties": {
        "label": "Mahananneriya Wewa",
        "type": "Reservoir",
        "entity": "http://www.wikidata.org/entity/Q34905089",
        "country_qid": "Q854"
      }
    },
    {
      "type": "Feature",
      "geometry": {
        "type": "Point",
        "coordinates": [
          80.549722222,
          9.078333333
        ]
      },
      "properties": {
        "label": "Karappukutti Kulam",
        "type": "Reservoir",
        "entity": "http://www.wikidata.org/entity/Q34894035",
        "country_qid": "Q854"
      }
    },
    {
      "type": "Feature",
      "geometry": {
        "type": "Point",
        "coordinates": [
          80.781666666,
          8.974722222
        ]
      },
      "properties": {
        "label": "Alan Kulam",
        "type": "Reservoir",
        "entity": "http://www.wikidata.org/entity/Q34868671",
        "country_qid": "Q854"
      }
    },
    {
      "type": "Feature",
      "geometry": {
        "type": "Point",
        "coordinates": [
          80.204444444,
          6.852222222
        ]
      },
      "properties": {
        "label": "Kalatuwawa Reservoir",
        "type": "Reservoir",
        "entity": "http://www.wikidata.org/entity/Q34893616",
        "country_qid": "Q854"
      }
    },
    {
      "type": "Feature",
      "geometry": {
        "type": "Point",
        "coordinates": [
          80.475833333,
          7.643888888
        ]
      },
      "properties": {
        "label": "Kimbulwana Wewa",
        "type": "Reservoir",
        "entity": "http://www.wikidata.org/entity/Q34895192",
        "country_qid": "Q854"
      }
    },
    {
      "type": "Feature",
      "geometry": {
        "type": "Point",
        "coordinates": [
          80.0346,
          8.7058
        ]
      },
      "properties": {
        "label": "Ma Villu",
        "type": "Reservoir",
        "entity": "http://www.wikidata.org/entity/Q27442098",
        "country_qid": "Q854"
      }
    },
    {
      "type": "Feature",
      "geometry": {
        "type": "Point",
        "coordinates": [
          81.516388888,
          7.696944444
        ]
      },
      "properties": {
        "label": "Karadiyan Tank",
        "type": "Reservoir",
        "entity": "http://www.wikidata.org/entity/Q34894009",
        "country_qid": "Q854"
      }
    },
    {
      "type": "Feature",
      "geometry": {
        "type": "Point",
        "coordinates": [
          80.369444444,
          8.758055555
        ]
      },
      "properties": {
        "label": "Kanthaudaiyarpuvarasan Kulam",
        "type": "Reservoir",
        "entity": "http://www.wikidata.org/entity/Q34893935",
        "country_qid": "Q854"
      }
    },
    {
      "type": "Feature",
      "geometry": {
        "type": "Point",
        "coordinates": [
          79.878333333,
          7.786388888
        ]
      },
      "properties": {
        "label": "Dewala Handiya Wewa",
        "type": "Reservoir",
        "entity": "http://www.wikidata.org/entity/Q34883239",
        "country_qid": "Q854"
      }
    },
    {
      "type": "Feature",
      "geometry": {
        "type": "Point",
        "coordinates": [
          81.733333333,
          7.25
        ]
      },
      "properties": {
        "label": "Irakkamam Tank",
        "type": "Reservoir",
        "entity": "http://www.wikidata.org/entity/Q34891739",
        "country_qid": "Q854"
      }
    },
    {
      "type": "Feature",
      "geometry": {
        "type": "Point",
        "coordinates": [
          81.826666666,
          7.048611111
        ]
      },
      "properties": {
        "label": "Mandiyawala Kulam",
        "type": "Reservoir",
        "entity": "http://www.wikidata.org/entity/Q34905524",
        "country_qid": "Q854"
      }
    },
    {
      "type": "Feature",
      "geometry": {
        "type": "Point",
        "coordinates": [
          80.325555555,
          9.298055555
        ]
      },
      "properties": {
        "label": "Akkarayan Kulam",
        "type": "Reservoir",
        "entity": "http://www.wikidata.org/entity/Q34868621",
        "country_qid": "Q854"
      }
    },
    {
      "type": "Feature",
      "geometry": {
        "type": "Point",
        "coordinates": [
          80.409444444,
          8.106666666
        ]
      },
      "properties": {
        "label": "Kattiyawa Wewa",
        "type": "Reservoir",
        "entity": "http://www.wikidata.org/entity/Q34894207",
        "country_qid": "Q854"
      }
    },
    {
      "type": "Feature",
      "geometry": {
        "type": "Point",
        "coordinates": [
          80.591111111,
          8.071111111
        ]
      },
      "properties": {
        "label": "Olukaranda Wewa",
        "type": "Reservoir",
        "entity": "http://www.wikidata.org/entity/Q34912690",
        "country_qid": "Q854"
      }
    },
    {
      "type": "Feature",
      "geometry": {
        "type": "Point",
        "coordinates": [
          80.551388888,
          6.825833333
        ]
      },
      "properties": {
        "label": "Maussakelle Reservoir",
        "type": "Reservoir",
        "entity": "http://www.wikidata.org/entity/Q34906398",
        "country_qid": "Q854"
      }
    },
    {
      "type": "Feature",
      "geometry": {
        "type": "Point",
        "coordinates": [
          81.786944444,
          6.803333333
        ]
      },
      "properties": {
        "label": "Naulla Wewa",
        "type": "Reservoir",
        "entity": "http://www.wikidata.org/entity/Q34910376",
        "country_qid": "Q854"
      }
    },
    {
      "type": "Feature",
      "geometry": {
        "type": "Point",
        "coordinates": [
          81.021666666,
          8.191666666
        ]
      },
      "properties": {
        "label": "Ambagas Wewa",
        "type": "Reservoir",
        "entity": "http://www.wikidata.org/entity/Q34868764",
        "country_qid": "Q854"
      }
    },
    {
      "type": "Feature",
      "geometry": {
        "type": "Point",
        "coordinates": [
          80.8825,
          6.239166666
        ]
      },
      "properties": {
        "label": "Metigathwala Wewa",
        "type": "Reservoir",
        "entity": "http://www.wikidata.org/entity/Q34907245",
        "country_qid": "Q854"
      }
    },
    {
      "type": "Feature",
      "geometry": {
        "type": "Point",
        "coordinates": [
          80.497777777,
          8.540277777
        ]
      },
      "properties": {
        "label": "Medawachchiya Wewa",
        "type": "Reservoir",
        "entity": "http://www.wikidata.org/entity/Q34906969",
        "country_qid": "Q854"
      }
    },
    {
      "type": "Feature",
      "geometry": {
        "type": "Point",
        "coordinates": [
          80.03969,
          8.86633
        ]
      },
      "properties": {
        "label": "Giants Tank",
        "type": "Reservoir",
        "entity": "http://www.wikidata.org/entity/Q34886869",
        "country_qid": "Q854"
      }
    },
    {
      "type": "Feature",
      "geometry": {
        "type": "Point",
        "coordinates": [
          79.8575,
          7.845
        ]
      },
      "properties": {
        "label": "Nawadankulama Wewa",
        "type": "Reservoir",
        "entity": "http://www.wikidata.org/entity/Q34910558",
        "country_qid": "Q854"
      }
    },
    {
      "type": "Feature",
      "geometry": {
        "type": "Point",
        "coordinates": [
          80.45,
          7.766666666
        ]
      },
      "properties": {
        "label": "Hakwatune Oya Reservoir",
        "type": "Reservoir",
        "entity": "http://www.wikidata.org/entity/Q34888565",
        "country_qid": "Q854"
      }
    },
    {
      "type": "Feature",
      "geometry": {
        "type": "Point",
        "coordinates": [
          81.8375,
          7.217777777
        ]
      },
      "properties": {
        "label": "Karungkoddluvu Kulam",
        "type": "Reservoir",
        "entity": "http://www.wikidata.org/entity/Q34894132",
        "country_qid": "Q854"
      }
    },
    {
      "type": "Feature",
      "geometry": {
        "type": "Point",
        "coordinates": [
          80.226388888,
          8.175277777
        ]
      },
      "properties": {
        "label": "Angamuwa Tank",
        "type": "Reservoir",
        "entity": "http://www.wikidata.org/entity/Q34876529",
        "country_qid": "Q854"
      }
    },
    {
      "type": "Feature",
      "geometry": {
        "type": "Point",
        "coordinates": [
          80.188611111,
          9.703611111
        ]
      },
      "properties": {
        "label": "Kavadikiray Kulam",
        "type": "Reservoir",
        "entity": "http://www.wikidata.org/entity/Q34894235",
        "country_qid": "Q854"
      }
    },
    {
      "type": "Feature",
      "geometry": {
        "type": "Point",
        "coordinates": [
          81.538333333,
          7.118055555
        ]
      },
      "properties": {
        "label": "Jayanthi Wewa",
        "type": "Reservoir",
        "entity": "http://www.wikidata.org/entity/Q34892432",
        "country_qid": "Q854"
      }
    },
    {
      "type": "Feature",
      "geometry": {
        "type": "Point",
        "coordinates": [
          80.78,
          6.957
        ]
      },
      "properties": {
        "label": "Lake Gregory",
        "type": "Reservoir",
        "entity": "http://www.wikidata.org/entity/Q24238251",
        "country_qid": "Q854"
      }
    },
    {
      "type": "Feature",
      "geometry": {
        "type": "Point",
        "coordinates": [
          80.450555555,
          9.060555555
        ]
      },
      "properties": {
        "label": "Nallavillan Kulam",
        "type": "Reservoir",
        "entity": "http://www.wikidata.org/entity/Q34910135",
        "country_qid": "Q854"
      }
    },
    {
      "type": "Feature",
      "geometry": {
        "type": "Point",
        "coordinates": [
          80.383611111,
          8.537222222
        ]
      },
      "properties": {
        "label": "Minhettigama Wewa",
        "type": "Reservoir",
        "entity": "http://www.wikidata.org/entity/Q34907771",
        "country_qid": "Q854"
      }
    },
    {
      "type": "Feature",
      "geometry": {
        "type": "Point",
        "coordinates": [
          80.578888888,
          8.528611111
        ]
      },
      "properties": {
        "label": "Muwaetagama Wewa",
        "type": "Reservoir",
        "entity": "http://www.wikidata.org/entity/Q34909506",
        "country_qid": "Q854"
      }
    },
    {
      "type": "Feature",
      "geometry": {
        "type": "Point",
        "coordinates": [
          80.643611111,
          8.441111111
        ]
      },
      "properties": {
        "label": "Moragahawala Wewa",
        "type": "Reservoir",
        "entity": "http://www.wikidata.org/entity/Q34908238",
        "country_qid": "Q854"
      }
    },
    {
      "type": "Feature",
      "geometry": {
        "type": "Point",
        "coordinates": [
          79.956111111,
          7.939444444
        ]
      },
      "properties": {
        "label": "Kachchimaduwa Wewa",
        "type": "Reservoir",
        "entity": "http://www.wikidata.org/entity/Q34893407",
        "country_qid": "Q854"
      }
    },
    {
      "type": "Feature",
      "geometry": {
        "type": "Point",
        "coordinates": [
          80.493333333,
          8.711666666
        ]
      },
      "properties": {
        "label": "Iratperiya Kulam",
        "type": "Reservoir",
        "entity": "http://www.wikidata.org/entity/Q34891763",
        "country_qid": "Q854"
      }
    },
    {
      "type": "Feature",
      "geometry": {
        "type": "Point",
        "coordinates": [
          81.060555555,
          8.189166666
        ]
      },
      "properties": {
        "label": "Beybiya Wewa",
        "type": "Reservoir",
        "entity": "http://www.wikidata.org/entity/Q34877697",
        "country_qid": "Q854"
      }
    },
    {
      "type": "Feature",
      "geometry": {
        "type": "Point",
        "coordinates": [
          80.468888888,
          8.883611111
        ]
      },
      "properties": {
        "label": "Alan Kulam",
        "type": "Reservoir",
        "entity": "http://www.wikidata.org/entity/Q34868658",
        "country_qid": "Q854"
      }
    },
    {
      "type": "Feature",
      "geometry": {
        "type": "Point",
        "coordinates": [
          80.385277777,
          8.351944444
        ]
      },
      "properties": {
        "label": "Basawakkulama Wewa",
        "type": "Reservoir",
        "entity": "http://www.wikidata.org/entity/Q34877380",
        "country_qid": "Q854"
      }
    },
    {
      "type": "Feature",
      "geometry": {
        "type": "Point",
        "coordinates": [
          81.691388888,
          7.154166666
        ]
      },
      "properties": {
        "label": "Ambalam Oya Reservoir",
        "type": "Reservoir",
        "entity": "http://www.wikidata.org/entity/Q34868777",
        "country_qid": "Q854"
      }
    },
    {
      "type": "Feature",
      "geometry": {
        "type": "Point",
        "coordinates": [
          80.618055555,
          8.461944444
        ]
      },
      "properties": {
        "label": "Kapirigama Wewa",
        "type": "Reservoir",
        "entity": "http://www.wikidata.org/entity/Q34893960",
        "country_qid": "Q854"
      }
    },
    {
      "type": "Feature",
      "geometry": {
        "type": "Point",
        "coordinates": [
          80.624166666,
          8.545277777
        ]
      },
      "properties": {
        "label": "Kokatiyagollewa Wewa",
        "type": "Reservoir",
        "entity": "http://www.wikidata.org/entity/Q34895702",
        "country_qid": "Q854"
      }
    },
    {
      "type": "Feature",
      "geometry": {
        "type": "Point",
        "coordinates": [
          80.543611111,
          9.410277777
        ]
      },
      "properties": {
        "label": "Karukkai Kulam",
        "type": "Reservoir",
        "entity": "http://www.wikidata.org/entity/Q34894122",
        "country_qid": "Q854"
      }
    },
    {
      "type": "Feature",
      "geometry": {
        "type": "Point",
        "coordinates": [
          80.638888888,
          6.105
        ]
      },
      "properties": {
        "label": "Denagama Wewa",
        "type": "Reservoir",
        "entity": "http://www.wikidata.org/entity/Q34883057",
        "country_qid": "Q854"
      }
    },
    {
      "type": "Feature",
      "geometry": {
        "type": "Point",
        "coordinates": [
          80.769166666,
          8.806666666
        ]
      },
      "properties": {
        "label": "Padawiya Tank",
        "type": "Reservoir",
        "entity": "http://www.wikidata.org/entity/Q34913098",
        "country_qid": "Q854"
      }
    },
    {
      "type": "Feature",
      "geometry": {
        "type": "Point",
        "coordinates": [
          80.7,
          7.87722
        ]
      },
      "properties": {
        "label": "Kandalama Reservoir",
        "type": "Reservoir",
        "entity": "http://www.wikidata.org/entity/Q16893092",
        "country_qid": "Q854"
      }
    },
    {
      "type": "Feature",
      "geometry": {
        "type": "Point",
        "coordinates": [
          80.515,
          8.799444444
        ]
      },
      "properties": {
        "label": "Maha Irampaik Kulam",
        "type": "Reservoir",
        "entity": "http://www.wikidata.org/entity/Q34904984",
        "country_qid": "Q854"
      }
    },
    {
      "type": "Feature",
      "geometry": {
        "type": "Point",
        "coordinates": [
          80.356666666,
          8.729722222
        ]
      },
      "properties": {
        "label": "Helambagas Wewa",
        "type": "Reservoir",
        "entity": "http://www.wikidata.org/entity/Q34889572",
        "country_qid": "Q854"
      }
    },
    {
      "type": "Feature",
      "geometry": {
        "type": "Point",
        "coordinates": [
          81.169166666,
          6.194166666
        ]
      },
      "properties": {
        "label": "Anallan Wewa",
        "type": "Reservoir",
        "entity": "http://www.wikidata.org/entity/Q34868869",
        "country_qid": "Q854"
      }
    },
    {
      "type": "Feature",
      "geometry": {
        "type": "Point",
        "coordinates": [
          81.516666666,
          7.283333333
        ]
      },
      "properties": {
        "label": "Namal Oya Reservoir",
        "type": "Reservoir",
        "entity": "http://www.wikidata.org/entity/Q34910157",
        "country_qid": "Q854"
      }
    },
    {
      "type": "Feature",
      "geometry": {
        "type": "Point",
        "coordinates": [
          80.876666666,
          6.18
        ]
      },
      "properties": {
        "label": "Halekada Wewa",
        "type": "Reservoir",
        "entity": "http://www.wikidata.org/entity/Q34888601",
        "country_qid": "Q854"
      }
    },
    {
      "type": "Feature",
      "geometry": {
        "type": "Point",
        "coordinates": [
          80.916666666,
          8.15
        ]
      },
      "properties": {
        "label": "Kaudulla Wewa",
        "type": "Reservoir",
        "entity": "http://www.wikidata.org/entity/Q34894219",
        "country_qid": "Q854"
      }
    },
    {
      "type": "Feature",
      "geometry": {
        "type": "Point",
        "coordinates": [
          80.906388888,
          8.904166666
        ]
      },
      "properties": {
        "label": "Nattaveli Kulam",
        "type": "Reservoir",
        "entity": "http://www.wikidata.org/entity/Q34910364",
        "country_qid": "Q854"
      }
    },
    {
      "type": "Feature",
      "geometry": {
        "type": "Point",
        "coordinates": [
          80.736944444,
          8.445277777
        ]
      },
      "properties": {
        "label": "Diyamayilagas Wewa",
        "type": "Reservoir",
        "entity": "http://www.wikidata.org/entity/Q34883590",
        "country_qid": "Q854"
      }
    },
    {
      "type": "Feature",
      "geometry": {
        "type": "Point",
        "coordinates": [
          80.517777777,
          8.586388888
        ]
      },
      "properties": {
        "label": "Mahadiwul Wewa",
        "type": "Reservoir",
        "entity": "http://www.wikidata.org/entity/Q34905036",
        "country_qid": "Q854"
      }
    },
    {
      "type": "Feature",
      "geometry": {
        "type": "Point",
        "coordinates": [
          81.202222222,
          7.589166666
        ]
      },
      "properties": {
        "label": "Madura Oya Reservoir",
        "type": "Reservoir",
        "entity": "http://www.wikidata.org/entity/Q34904856",
        "country_qid": "Q854"
      }
    },
    {
      "type": "Feature",
      "geometry": {
        "type": "Point",
        "coordinates": [
          80.03333333,
          8.87555556
        ]
      },
      "properties": {
        "label": "Giant's Tank",
        "type": "Reservoir",
        "entity": "http://www.wikidata.org/entity/Q25230513",
        "country_qid": "Q854"
      }
    },
    {
      "type": "Feature",
      "geometry": {
        "type": "Point",
        "coordinates": [
          80.6125,
          8.442777777
        ]
      },
      "properties": {
        "label": "Bandara Ratmale Wewa",
        "type": "Reservoir",
        "entity": "http://www.wikidata.org/entity/Q34876973",
        "country_qid": "Q854"
      }
    },
    {
      "type": "Feature",
      "geometry": {
        "type": "Point",
        "coordinates": [
          81.016666666,
          7.366666666
        ]
      },
      "properties": {
        "label": "Horabora Wewa",
        "type": "Reservoir",
        "entity": "http://www.wikidata.org/entity/Q34890581",
        "country_qid": "Q854"
      }
    },
    {
      "type": "Feature",
      "geometry": {
        "type": "Point",
        "coordinates": [
          80.747777777,
          8.718888888
        ]
      },
      "properties": {
        "label": "Elapat Wewa",
        "type": "Reservoir",
        "entity": "http://www.wikidata.org/entity/Q34884783",
        "country_qid": "Q854"
      }
    },
    {
      "type": "Feature",
      "geometry": {
        "type": "Point",
        "coordinates": [
          80.066666666,
          7.833333333
        ]
      },
      "properties": {
        "label": "Galapotha Wewa",
        "type": "Reservoir",
        "entity": "http://www.wikidata.org/entity/Q34886307",
        "country_qid": "Q854"
      }
    },
    {
      "type": "Feature",
      "geometry": {
        "type": "Point",
        "coordinates": [
          80.980833333,
          8.371111111
        ]
      },
      "properties": {
        "label": "Kantale Wewa",
        "type": "Reservoir",
        "entity": "http://www.wikidata.org/entity/Q34893921",
        "country_qid": "Q854"
      }
    },
    {
      "type": "Feature",
      "geometry": {
        "type": "Point",
        "coordinates": [
          81.498055555,
          6.98
        ]
      },
      "properties": {
        "label": "Muthukandiya Tank",
        "type": "Reservoir",
        "entity": "http://www.wikidata.org/entity/Q34909493",
        "country_qid": "Q854"
      }
    },
    {
      "type": "Feature",
      "geometry": {
        "type": "Point",
        "coordinates": [
          80.720277777,
          8.494166666
        ]
      },
      "properties": {
        "label": "Maha Divul Wewa",
        "type": "Reservoir",
        "entity": "http://www.wikidata.org/entity/Q34904947",
        "country_qid": "Q854"
      }
    },
    {
      "type": "Feature",
      "geometry": {
        "type": "Point",
        "coordinates": [
          80.431111111,
          9.570277777
        ]
      },
      "properties": {
        "label": "Nedun Kulam",
        "type": "Reservoir",
        "entity": "http://www.wikidata.org/entity/Q34910633",
        "country_qid": "Q854"
      }
    },
    {
      "type": "Feature",
      "geometry": {
        "type": "Point",
        "coordinates": [
          81.633333333,
          7.283333333
        ]
      },
      "properties": {
        "label": "Kondavattavan Kulam",
        "type": "Reservoir",
        "entity": "http://www.wikidata.org/entity/Q34895857",
        "country_qid": "Q854"
      }
    },
    {
      "type": "Feature",
      "geometry": {
        "type": "Point",
        "coordinates": [
          80.656666666,
          8.501388888
        ]
      },
      "properties": {
        "label": "Hendegama Wewa",
        "type": "Reservoir",
        "entity": "http://www.wikidata.org/entity/Q34889644",
        "country_qid": "Q854"
      }
    },
    {
      "type": "Feature",
      "geometry": {
        "type": "Point",
        "coordinates": [
          80.659166666,
          8.635833333
        ]
      },
      "properties": {
        "label": "Kebongollewa Wewa",
        "type": "Reservoir",
        "entity": "http://www.wikidata.org/entity/Q34894347",
        "country_qid": "Q854"
      }
    },
    {
      "type": "Feature",
      "geometry": {
        "type": "Point",
        "coordinates": [
          80.786666666,
          6.916388888
        ]
      },
      "properties": {
        "label": "Kanda Ela Reservoir",
        "type": "Reservoir",
        "entity": "http://www.wikidata.org/entity/Q34893836",
        "country_qid": "Q854"
      }
    },
    {
      "type": "Feature",
      "geometry": {
        "type": "Point",
        "coordinates": [
          81.696666666,
          6.652222222
        ]
      },
      "properties": {
        "label": "Lenamapokuna",
        "type": "Reservoir",
        "entity": "http://www.wikidata.org/entity/Q34902761",
        "country_qid": "Q854"
      }
    },
    {
      "type": "Feature",
      "geometry": {
        "type": "Point",
        "coordinates": [
          80.381666666,
          8.01
        ]
      },
      "properties": {
        "label": "Maha Katnoruwa Wewa",
        "type": "Reservoir",
        "entity": "http://www.wikidata.org/entity/Q34904998",
        "country_qid": "Q854"
      }
    },
    {
      "type": "Feature",
      "geometry": {
        "type": "Point",
        "coordinates": [
          80.289166666,
          8.1725
        ]
      },
      "properties": {
        "label": "Lunuwewa",
        "type": "Reservoir",
        "entity": "http://www.wikidata.org/entity/Q34904460",
        "country_qid": "Q854"
      }
    },
    {
      "type": "Feature",
      "geometry": {
        "type": "Point",
        "coordinates": [
          81.501944444,
          6.368333333
        ]
      },
      "properties": {
        "label": "Hadunoruwa Wewa",
        "type": "Reservoir",
        "entity": "http://www.wikidata.org/entity/Q34888470",
        "country_qid": "Q854"
      }
    },
    {
      "type": "Feature",
      "geometry": {
        "type": "Point",
        "coordinates": [
          81.4825,
          6.331666666
        ]
      },
      "properties": {
        "label": "Maynett Wewa",
        "type": "Reservoir",
        "entity": "http://www.wikidata.org/entity/Q34906450",
        "country_qid": "Q854"
      }
    },
    {
      "type": "Feature",
      "geometry": {
        "type": "Point",
        "coordinates": [
          80.385,
          8.332416666
        ]
      },
      "properties": {
        "label": "Tissa Wewa",
        "type": "Reservoir",
        "entity": "http://www.wikidata.org/entity/Q20823327",
        "country_qid": "Q854"
      }
    },
    {
      "type": "Feature",
      "geometry": {
        "type": "Point",
        "coordinates": [
          80.470277777,
          8.1
        ]
      },
      "properties": {
        "label": "Maha Iluppallama Tank",
        "type": "Reservoir",
        "entity": "http://www.wikidata.org/entity/Q34904971",
        "country_qid": "Q854"
      }
    },
    {
      "type": "Feature",
      "geometry": {
        "type": "Point",
        "coordinates": [
          80.548888888,
          8.389166666
        ]
      },
      "properties": {
        "label": "Mahakanadara Wewa",
        "type": "Reservoir",
        "entity": "http://www.wikidata.org/entity/Q34905049",
        "country_qid": "Q854"
      }
    },
    {
      "type": "Feature",
      "geometry": {
        "type": "Point",
        "coordinates": [
          80.34833333,
          9.08861111
        ]
      },
      "properties": {
        "label": "Vavuni Kulam",
        "type": "Reservoir",
        "entity": "http://www.wikidata.org/entity/Q25100836",
        "country_qid": "Q854"
      }
    },
    {
      "type": "Feature",
      "geometry": {
        "type": "Point",
        "coordinates": [
          80.329166666,
          8.184722222
        ]
      },
      "properties": {
        "label": "Bellankadawala Wewa",
        "type": "Reservoir",
        "entity": "http://www.wikidata.org/entity/Q34877519",
        "country_qid": "Q854"
      }
    },
    {
      "type": "Feature",
      "geometry": {
        "type": "Point",
        "coordinates": [
          80.678055555,
          8.587222222
        ]
      },
      "properties": {
        "label": "Gonuhaddana Wewa",
        "type": "Reservoir",
        "entity": "http://www.wikidata.org/entity/Q34887234",
        "country_qid": "Q854"
      }
    },
    {
      "type": "Feature",
      "geometry": {
        "type": "Point",
        "coordinates": [
          81.131666666,
          8.620833333
        ]
      },
      "properties": {
        "label": "Mutaliyar Kulam",
        "type": "Reservoir",
        "entity": "http://www.wikidata.org/entity/Q34909480",
        "country_qid": "Q854"
      }
    },
    {
      "type": "Feature",
      "geometry": {
        "type": "Point",
        "coordinates": [
          80.914,
          7.991
        ]
      },
      "properties": {
        "label": "Giritale Tank",
        "type": "Reservoir",
        "entity": "http://www.wikidata.org/entity/Q25105275",
        "country_qid": "Q854"
      }
    },
    {
      "type": "Feature",
      "geometry": {
        "type": "Point",
        "coordinates": [
          80.718888888,
          8.361388888
        ]
      },
      "properties": {
        "label": "Maha Weligollewa Wewa",
        "type": "Reservoir",
        "entity": "http://www.wikidata.org/entity/Q34905011",
        "country_qid": "Q854"
      }
    },
    {
      "type": "Feature",
      "geometry": {
        "type": "Point",
        "coordinates": [
          80.835,
          8.1325
        ]
      },
      "properties": {
        "label": "Makulukele Wewa",
        "type": "Reservoir",
        "entity": "http://www.wikidata.org/entity/Q34905323",
        "country_qid": "Q854"
      }
    },
    {
      "type": "Feature",
      "geometry": {
        "type": "Point",
        "coordinates": [
          81.151944444,
          6.666388888
        ]
      },
      "properties": {
        "label": "Handapangala Wewa",
        "type": "Reservoir",
        "entity": "http://www.wikidata.org/entity/Q34888828",
        "country_qid": "Q854"
      }
    },
    {
      "type": "Feature",
      "geometry": {
        "type": "Point",
        "coordinates": [
          80.55,
          7.8
        ]
      },
      "properties": {
        "label": "Dewahuwa Wewa",
        "type": "Reservoir",
        "entity": "http://www.wikidata.org/entity/Q34883228",
        "country_qid": "Q854"
      }
    },
    {
      "type": "Feature",
      "geometry": {
        "type": "Point",
        "coordinates": [
          80.515277777,
          9.328611111
        ]
      },
      "properties": {
        "label": "Kalamadu Kulam",
        "type": "Reservoir",
        "entity": "http://www.wikidata.org/entity/Q34893603",
        "country_qid": "Q854"
      }
    },
    {
      "type": "Feature",
      "geometry": {
        "type": "Point",
        "coordinates": [
          80.200277777,
          8.464166666
        ]
      },
      "properties": {
        "label": "Maha Wilachchiya Wewa",
        "type": "Reservoir",
        "entity": "http://www.wikidata.org/entity/Q34905023",
        "country_qid": "Q854"
      }
    },
    {
      "type": "Feature",
      "geometry": {
        "type": "Point",
        "coordinates": [
          80.464722222,
          8.609444444
        ]
      },
      "properties": {
        "label": "Akkara Wewa",
        "type": "Reservoir",
        "entity": "http://www.wikidata.org/entity/Q34868608",
        "country_qid": "Q854"
      }
    },
    {
      "type": "Feature",
      "geometry": {
        "type": "Point",
        "coordinates": [
          80.583333333,
          6.857777777
        ]
      },
      "properties": {
        "label": "Castlereigh Reservoir",
        "type": "Reservoir",
        "entity": "http://www.wikidata.org/entity/Q34879229",
        "country_qid": "Q854"
      }
    },
    {
      "type": "Feature",
      "geometry": {
        "type": "Point",
        "coordinates": [
          80.498611111,
          8.690555555
        ]
      },
      "properties": {
        "label": "Kalnaddina Kulam",
        "type": "Reservoir",
        "entity": "http://www.wikidata.org/entity/Q34893680",
        "country_qid": "Q854"
      }
    },
    {
      "type": "Feature",
      "geometry": {
        "type": "Point",
        "coordinates": [
          81.133888888,
          8.651666666
        ]
      },
      "properties": {
        "label": "Alan Kulam",
        "type": "Reservoir",
        "entity": "http://www.wikidata.org/entity/Q34868646",
        "country_qid": "Q854"
      }
    },
    {
      "type": "Feature",
      "geometry": {
        "type": "Point",
        "coordinates": [
          80.949722222,
          8.597777777
        ]
      },
      "properties": {
        "label": "Maha Diwul Wewa",
        "type": "Reservoir",
        "entity": "http://www.wikidata.org/entity/Q34904959",
        "country_qid": "Q854"
      }
    },
    {
      "type": "Feature",
      "geometry": {
        "type": "Point",
        "coordinates": [
          80.680277777,
          9.051388888
        ]
      },
      "properties": {
        "label": "Kurakkanpularu Kulam",
        "type": "Reservoir",
        "entity": "http://www.wikidata.org/entity/Q34896593",
        "country_qid": "Q854"
      }
    },
    {
      "type": "Feature",
      "geometry": {
        "type": "Point",
        "coordinates": [
          80.313888888,
          8.151944444
        ]
      },
      "properties": {
        "label": "Nallachchiya Wewa",
        "type": "Reservoir",
        "entity": "http://www.wikidata.org/entity/Q34910110",
        "country_qid": "Q854"
      }
    },
    {
      "type": "Feature",
      "geometry": {
        "type": "Point",
        "coordinates": [
          80.63964,
          7.29174
        ]
      },
      "properties": {
        "label": "Kandy Lake",
        "type": "Reservoir",
        "entity": "http://www.wikidata.org/entity/Q5966035",
        "country_qid": "Q854"
      }
    },
    {
      "type": "Feature",
      "geometry": {
        "type": "Point",
        "coordinates": [
          80.913611111,
          8.625833333
        ]
      },
      "properties": {
        "label": "Ettabendi Wewa",
        "type": "Reservoir",
        "entity": "http://www.wikidata.org/entity/Q34885102",
        "country_qid": "Q854"
      }
    },
    {
      "type": "Feature",
      "geometry": {
        "type": "Point",
        "coordinates": [
          80.572777777,
          8.614444444
        ]
      },
      "properties": {
        "label": "Etakada Wewa",
        "type": "Reservoir",
        "entity": "http://www.wikidata.org/entity/Q34885078",
        "country_qid": "Q854"
      }
    },
    {
      "type": "Feature",
      "geometry": {
        "type": "Point",
        "coordinates": [
          80.453888888,
          7.532222222
        ]
      },
      "properties": {
        "label": "Batalagoda Tank",
        "type": "Reservoir",
        "entity": "http://www.wikidata.org/entity/Q34877405",
        "country_qid": "Q854"
      }
    },
    {
      "type": "Feature",
      "geometry": {
        "type": "Point",
        "coordinates": [
          80.483333333,
          8.25
        ]
      },
      "properties": {
        "label": "Nachchaduwa Tank",
        "type": "Reservoir",
        "entity": "http://www.wikidata.org/entity/Q34909852",
        "country_qid": "Q854"
      }
    },
    {
      "type": "Feature",
      "geometry": {
        "type": "Point",
        "coordinates": [
          80.154444444,
          8.02
        ]
      },
      "properties": {
        "label": "Andara Wewa",
        "type": "Reservoir",
        "entity": "http://www.wikidata.org/entity/Q34868895",
        "country_qid": "Q854"
      }
    },
    {
      "type": "Feature",
      "geometry": {
        "type": "Point",
        "coordinates": [
          81.422777777,
          7.934166666
        ]
      },
      "properties": {
        "label": "Vakaneri Tank",
        "type": "Reservoir",
        "entity": "http://www.wikidata.org/entity/Q34932932",
        "country_qid": "Q854"
      }
    },
    {
      "type": "Feature",
      "geometry": {
        "type": "Point",
        "coordinates": [
          79.951388888,
          8.074722222
        ]
      },
      "properties": {
        "label": "Tabbowa Wewa",
        "type": "Reservoir",
        "entity": "http://www.wikidata.org/entity/Q34929492",
        "country_qid": "Q854"
      }
    },
    {
      "type": "Feature",
      "geometry": {
        "type": "Point",
        "coordinates": [
          79.9875,
          7.99
        ]
      },
      "properties": {
        "label": "Pahala Karuwalagas Wewa",
        "type": "Reservoir",
        "entity": "http://www.wikidata.org/entity/Q34913182",
        "country_qid": "Q854"
      }
    },
    {
      "type": "Feature",
      "geometry": {
        "type": "Point",
        "coordinates": [
          80.716666666,
          8.016666666
        ]
      },
      "properties": {
        "label": "Thumbi Kulama",
        "type": "Reservoir",
        "entity": "http://www.wikidata.org/entity/Q34930408",
        "country_qid": "Q854"
      }
    },
    {
      "type": "Feature",
      "geometry": {
        "type": "Point",
        "coordinates": [
          80.528888888,
          8.523611111
        ]
      },
      "properties": {
        "label": "Sangilikanadarawa Wewa",
        "type": "Reservoir",
        "entity": "http://www.wikidata.org/entity/Q34921703",
        "country_qid": "Q854"
      }
    },
    {
      "type": "Feature",
      "geometry": {
        "type": "Point",
        "coordinates": [
          80.419444444,
          8.545555555
        ]
      },
      "properties": {
        "label": "Pulleliya Wewa",
        "type": "Reservoir",
        "entity": "http://www.wikidata.org/entity/Q34917325",
        "country_qid": "Q854"
      }
    },
    {
      "type": "Feature",
      "geometry": {
        "type": "Point",
        "coordinates": [
          79.941944444,
          7.816388888
        ]
      },
      "properties": {
        "label": "Pandiyamaduwa Wewa",
        "type": "Reservoir",
        "entity": "http://www.wikidata.org/entity/Q34913405",
        "country_qid": "Q854"
      }
    },
    {
      "type": "Feature",
      "geometry": {
        "type": "Point",
        "coordinates": [
          80.788055555,
          8.630277777
        ]
      },
      "properties": {
        "label": "Tavalam Hammillewa Wewa",
        "type": "Reservoir",
        "entity": "http://www.wikidata.org/entity/Q35448008",
        "country_qid": "Q854"
      }
    },
    {
      "type": "Feature",
      "geometry": {
        "type": "Point",
        "coordinates": [
          80.588611111,
          7.915555555
        ]
      },
      "properties": {
        "label": "Ranawa Wewa",
        "type": "Reservoir",
        "entity": "http://www.wikidata.org/entity/Q34918266",
        "country_qid": "Q854"
      }
    },
    {
      "type": "Feature",
      "geometry": {
        "type": "Point",
        "coordinates": [
          80.05444,
          8.91939
        ]
      },
      "properties": {
        "label": "Parappukkadanthankulam",
        "type": "Reservoir",
        "entity": "http://www.wikidata.org/entity/Q34913505",
        "country_qid": "Q854"
      }
    },
    {
      "type": "Feature",
      "geometry": {
        "type": "Point",
        "coordinates": [
          80.034722222,
          7.895833333
        ]
      },
      "properties": {
        "label": "Periyakulama Wewa",
        "type": "Reservoir",
        "entity": "http://www.wikidata.org/entity/Q34914429",
        "country_qid": "Q854"
      }
    },
    {
      "type": "Feature",
      "geometry": {
        "type": "Point",
        "coordinates": [
          80.379722222,
          7.463611111
        ]
      },
      "properties": {
        "label": "Wanaru Wewa",
        "type": "Reservoir",
        "entity": "http://www.wikidata.org/entity/Q34934211",
        "country_qid": "Q854"
      }
    },
    {
      "type": "Feature",
      "geometry": {
        "type": "Point",
        "coordinates": [
          80.661666666,
          9.169166666
        ]
      },
      "properties": {
        "label": "Tuvaramoddai Kulam",
        "type": "Reservoir",
        "entity": "http://www.wikidata.org/entity/Q34931576",
        "country_qid": "Q854"
      }
    },
    {
      "type": "Feature",
      "geometry": {
        "type": "Point",
        "coordinates": [
          81.235277777,
          6.286666666
        ]
      },
      "properties": {
        "label": "Weerawila Wewa",
        "type": "Reservoir",
        "entity": "http://www.wikidata.org/entity/Q34934703",
        "country_qid": "Q854"
      }
    },
    {
      "type": "Feature",
      "geometry": {
        "type": "Point",
        "coordinates": [
          80.114166666,
          8.249444444
        ]
      },
      "properties": {
        "label": "Pan Wewa",
        "type": "Reservoir",
        "entity": "http://www.wikidata.org/entity/Q34913355",
        "country_qid": "Q854"
      }
    },
    {
      "type": "Feature",
      "geometry": {
        "type": "Point",
        "coordinates": [
          81.800833333,
          6.9125
        ]
      },
      "properties": {
        "label": "Rota Kulam",
        "type": "Reservoir",
        "entity": "http://www.wikidata.org/entity/Q34920097",
        "country_qid": "Q854"
      }
    },
    {
      "type": "Feature",
      "geometry": {
        "type": "Point",
        "coordinates": [
          80.428333333,
          8.575833333
        ]
      },
      "properties": {
        "label": "Rambakulama Wewa",
        "type": "Reservoir",
        "entity": "http://www.wikidata.org/entity/Q34918162",
        "country_qid": "Q854"
      }
    },
    {
      "type": "Feature",
      "geometry": {
        "type": "Point",
        "coordinates": [
          80.543333333,
          9.346666666
        ]
      },
      "properties": {
        "label": "Visuamadu Kulam",
        "type": "Reservoir",
        "entity": "http://www.wikidata.org/entity/Q34933395",
        "country_qid": "Q854"
      }
    },
    {
      "type": "Feature",
      "geometry": {
        "type": "Point",
        "coordinates": [
          80.268055555,
          8.041666666
        ]
      },
      "properties": {
        "label": "Werabediyawa Wewa",
        "type": "Reservoir",
        "entity": "http://www.wikidata.org/entity/Q34934802",
        "country_qid": "Q854"
      }
    },
    {
      "type": "Feature",
      "geometry": {
        "type": "Point",
        "coordinates": [
          80.389,
          8.352
        ]
      },
      "properties": {
        "label": "Bassawak reservoir",
        "type": "Reservoir",
        "entity": "http://www.wikidata.org/entity/Q109830677",
        "country_qid": "Q854"
      }
    },
    {
      "type": "Feature",
      "geometry": {
        "type": "Point",
        "coordinates": [
          81.088611111,
          6.304166666
        ]
      },
      "properties": {
        "label": "Pahala Andara Wewa",
        "type": "Reservoir",
        "entity": "http://www.wikidata.org/entity/Q34913158",
        "country_qid": "Q854"
      }
    },
    {
      "type": "Feature",
      "geometry": {
        "type": "Point",
        "coordinates": [
          80.261388888,
          9.447777777
        ]
      },
      "properties": {
        "label": "Mulai Kulam",
        "type": "Reservoir",
        "entity": "http://www.wikidata.org/entity/Q35446846",
        "country_qid": "Q854"
      }
    },
    {
      "type": "Feature",
      "geometry": {
        "type": "Point",
        "coordinates": [
          80.6575,
          7.909722222
        ]
      },
      "properties": {
        "label": "Randeniya Wewa",
        "type": "Reservoir",
        "entity": "http://www.wikidata.org/entity/Q34918318",
        "country_qid": "Q854"
      }
    },
    {
      "type": "Feature",
      "geometry": {
        "type": "Point",
        "coordinates": [
          81.519722222,
          7.810833333
        ]
      },
      "properties": {
        "label": "Perumaveli Kulam",
        "type": "Reservoir",
        "entity": "http://www.wikidata.org/entity/Q34914469",
        "country_qid": "Q854"
      }
    },
    {
      "type": "Feature",
      "geometry": {
        "type": "Point",
        "coordinates": [
          80.577777777,
          8.3675
        ]
      },
      "properties": {
        "label": "Ratmalwette Wewa",
        "type": "Reservoir",
        "entity": "http://www.wikidata.org/entity/Q34918458",
        "country_qid": "Q854"
      }
    },
    {
      "type": "Feature",
      "geometry": {
        "type": "Point",
        "coordinates": [
          80.433333333,
          8.35
        ]
      },
      "properties": {
        "label": "Pahala Kurundankulama Wewa",
        "type": "Reservoir",
        "entity": "http://www.wikidata.org/entity/Q34913193",
        "country_qid": "Q854"
      }
    },
    {
      "type": "Feature",
      "geometry": {
        "type": "Point",
        "coordinates": [
          81.759722222,
          6.891666666
        ]
      },
      "properties": {
        "label": "Sengamuwa Wewa",
        "type": "Reservoir",
        "entity": "http://www.wikidata.org/entity/Q34922660",
        "country_qid": "Q854"
      }
    },
    {
      "type": "Feature",
      "geometry": {
        "type": "Point",
        "coordinates": [
          79.933333333,
          7.907777777
        ]
      },
      "properties": {
        "label": "Wadatta Wewa",
        "type": "Reservoir",
        "entity": "http://www.wikidata.org/entity/Q34933791",
        "country_qid": "Q854"
      }
    },
    {
      "type": "Feature",
      "geometry": {
        "type": "Point",
        "coordinates": [
          80.885555555,
          7.182222222
        ]
      },
      "properties": {
        "label": "Randenigala Reservoir",
        "type": "Reservoir",
        "entity": "http://www.wikidata.org/entity/Q34918293",
        "country_qid": "Q854"
      }
    },
    {
      "type": "Feature",
      "geometry": {
        "type": "Point",
        "coordinates": [
          80.930277777,
          6.181944444
        ]
      },
      "properties": {
        "label": "Palugas Wewa",
        "type": "Reservoir",
        "entity": "http://www.wikidata.org/entity/Q34913330",
        "country_qid": "Q854"
      }
    },
    {
      "type": "Feature",
      "geometry": {
        "type": "Point",
        "coordinates": [
          81.5432,
          7.2138
        ]
      },
      "properties": {
        "label": "Senanayake Samudraya",
        "type": "Reservoir",
        "entity": "http://www.wikidata.org/entity/Q105038056",
        "country_qid": "Q854"
      }
    },
    {
      "type": "Feature",
      "geometry": {
        "type": "Point",
        "coordinates": [
          80.429722222,
          8.375
        ]
      },
      "properties": {
        "label": "Puliyankulama Wewa",
        "type": "Reservoir",
        "entity": "http://www.wikidata.org/entity/Q34917312",
        "country_qid": "Q854"
      }
    },
    {
      "type": "Feature",
      "geometry": {
        "type": "Point",
        "coordinates": [
          80.456666666,
          8.447222222
        ]
      },
      "properties": {
        "label": "Ratmale Wewa",
        "type": "Reservoir",
        "entity": "http://www.wikidata.org/entity/Q34918446",
        "country_qid": "Q854"
      }
    },
    {
      "type": "Feature",
      "geometry": {
        "type": "Point",
        "coordinates": [
          80.27,
          8.784722222
        ]
      },
      "properties": {
        "label": "Periya Thampanai Kulam",
        "type": "Reservoir",
        "entity": "http://www.wikidata.org/entity/Q34914417",
        "country_qid": "Q854"
      }
    },
    {
      "type": "Feature",
      "geometry": {
        "type": "Point",
        "coordinates": [
          81.816111111,
          6.799166666
        ]
      },
      "properties": {
        "label": "Ragam Well Kulam",
        "type": "Reservoir",
        "entity": "http://www.wikidata.org/entity/Q34917951",
        "country_qid": "Q854"
      }
    },
    {
      "type": "Feature",
      "geometry": {
        "type": "Point",
        "coordinates": [
          81.480833333,
          7.646111111
        ]
      },
      "properties": {
        "label": "Rugam Wewa",
        "type": "Reservoir",
        "entity": "http://www.wikidata.org/entity/Q34920221",
        "country_qid": "Q854"
      }
    },
    {
      "type": "Feature",
      "geometry": {
        "type": "Point",
        "coordinates": [
          80.651388888,
          8.514722222
        ]
      },
      "properties": {
        "label": "Tambalagollewa Wewa",
        "type": "Reservoir",
        "entity": "http://www.wikidata.org/entity/Q34929724",
        "country_qid": "Q854"
      }
    },
    {
      "type": "Feature",
      "geometry": {
        "type": "Point",
        "coordinates": [
          81.003888888,
          8.395833333
        ]
      },
      "properties": {
        "label": "Vendarasan Kulam",
        "type": "Reservoir",
        "entity": "http://www.wikidata.org/entity/Q34933180",
        "country_qid": "Q854"
      }
    },
    {
      "type": "Feature",
      "geometry": {
        "type": "Point",
        "coordinates": [
          81.044166666,
          8.549722222
        ]
      },
      "properties": {
        "label": "Trincomalee Water Supply Reservoir",
        "type": "Reservoir",
        "entity": "http://www.wikidata.org/entity/Q34931093",
        "country_qid": "Q854"
      }
    },
    {
      "type": "Feature",
      "geometry": {
        "type": "Point",
        "coordinates": [
          79.993888888,
          8.123611111
        ]
      },
      "properties": {
        "label": "Pahaiya Wewa",
        "type": "Reservoir",
        "entity": "http://www.wikidata.org/entity/Q34913147",
        "country_qid": "Q854"
      }
    },
    {
      "type": "Feature",
      "geometry": {
        "type": "Point",
        "coordinates": [
          81.788888888,
          7.123888888
        ]
      },
      "properties": {
        "label": "Sagamam Tank",
        "type": "Reservoir",
        "entity": "http://www.wikidata.org/entity/Q34921008",
        "country_qid": "Q854"
      }
    },
    {
      "type": "Feature",
      "geometry": {
        "type": "Point",
        "coordinates": [
          79.890277777,
          7.718333333
        ]
      },
      "properties": {
        "label": "Wijayakatupotha Wewa",
        "type": "Reservoir",
        "entity": "http://www.wikidata.org/entity/Q34935365",
        "country_qid": "Q854"
      }
    },
    {
      "type": "Feature",
      "geometry": {
        "type": "Point",
        "coordinates": [
          80.733611111,
          9.090833333
        ]
      },
      "properties": {
        "label": "Tannimurippu Kulam",
        "type": "Reservoir",
        "entity": "http://www.wikidata.org/entity/Q34929851",
        "country_qid": "Q854"
      }
    },
    {
      "type": "Feature",
      "geometry": {
        "type": "Point",
        "coordinates": [
          80.312777777,
          8.271388888
        ]
      },
      "properties": {
        "label": "Pahala Talawa Wewa",
        "type": "Reservoir",
        "entity": "http://www.wikidata.org/entity/Q34913205",
        "country_qid": "Q854"
      }
    },
    {
      "type": "Feature",
      "geometry": {
        "type": "Point",
        "coordinates": [
          80.4725,
          9.384722222
        ]
      },
      "properties": {
        "label": "Vamil Kulam",
        "type": "Reservoir",
        "entity": "http://www.wikidata.org/entity/Q34933002",
        "country_qid": "Q854"
      }
    },
    {
      "type": "Feature",
      "geometry": {
        "type": "Point",
        "coordinates": [
          80.681111111,
          9.037222222
        ]
      },
      "properties": {
        "label": "Periya Kulam",
        "type": "Reservoir",
        "entity": "http://www.wikidata.org/entity/Q34914404",
        "country_qid": "Q854"
      }
    },
    {
      "type": "Feature",
      "geometry": {
        "type": "Point",
        "coordinates": [
          80.198611111,
          8.229444444
        ]
      },
      "properties": {
        "label": "Pahala Hammillewa Wewa",
        "type": "Reservoir",
        "entity": "http://www.wikidata.org/entity/Q34913170",
        "country_qid": "Q854"
      }
    },
    {
      "type": "Feature",
      "geometry": {
        "type": "Point",
        "coordinates": [
          80.518888888,
          8.616388888
        ]
      },
      "properties": {
        "label": "Puhudiwula Wewa",
        "type": "Reservoir",
        "entity": "http://www.wikidata.org/entity/Q34917273",
        "country_qid": "Q854"
      }
    },
    {
      "type": "Feature",
      "geometry": {
        "type": "Point",
        "coordinates": [
          80.497222222,
          8.416944444
        ]
      },
      "properties": {
        "label": "Sangilikulama Wewa",
        "type": "Reservoir",
        "entity": "http://www.wikidata.org/entity/Q34921716",
        "country_qid": "Q854"
      }
    },
    {
      "type": "Feature",
      "geometry": {
        "type": "Point",
        "coordinates": [
          80.148333333,
          9.625
        ]
      },
      "properties": {
        "label": "Punankar Kulam",
        "type": "Reservoir",
        "entity": "http://www.wikidata.org/entity/Q34917364",
        "country_qid": "Q854"
      }
    },
    {
      "type": "Feature",
      "geometry": {
        "type": "Point",
        "coordinates": [
          80.183333333,
          7.766666666
        ]
      },
      "properties": {
        "label": "Randenigama Maha Wewa",
        "type": "Reservoir",
        "entity": "http://www.wikidata.org/entity/Q34918306",
        "country_qid": "Q854"
      }
    },
    {
      "type": "Feature",
      "geometry": {
        "type": "Point",
        "coordinates": [
          80.834166666,
          8.7225
        ]
      },
      "properties": {
        "label": "Wahalkada Wewa",
        "type": "Reservoir",
        "entity": "http://www.wikidata.org/entity/Q34933927",
        "country_qid": "Q854"
      }
    },
    {
      "type": "Feature",
      "geometry": {
        "type": "Point",
        "coordinates": [
          80.816666666,
          9.066666666
        ]
      },
      "properties": {
        "label": "Palaiya Andan Kulam",
        "type": "Reservoir",
        "entity": "http://www.wikidata.org/entity/Q34913268",
        "country_qid": "Q854"
      }
    },
    {
      "type": "Feature",
      "geometry": {
        "type": "Point",
        "coordinates": [
          80.645277777,
          8.41
        ]
      },
      "properties": {
        "label": "Rampathwila Wewa",
        "type": "Reservoir",
        "entity": "http://www.wikidata.org/entity/Q34918227",
        "country_qid": "Q854"
      }
    },
    {
      "type": "Feature",
      "geometry": {
        "type": "Point",
        "coordinates": [
          80.423611111,
          8.042222222
        ]
      },
      "properties": {
        "label": "Wadu Wewa",
        "type": "Reservoir",
        "entity": "http://www.wikidata.org/entity/Q34933847",
        "country_qid": "Q854"
      }
    },
    {
      "type": "Feature",
      "geometry": {
        "type": "Point",
        "coordinates": [
          81.306944444,
          6.275833333
        ]
      },
      "properties": {
        "label": "Yoda Wewa",
        "type": "Reservoir",
        "entity": "http://www.wikidata.org/entity/Q34936705",
        "country_qid": "Q854"
      }
    },
    {
      "type": "Feature",
      "geometry": {
        "type": "Point",
        "coordinates": [
          81.536944444,
          7.604444444
        ]
      },
      "properties": {
        "label": "Unnichchai Tank",
        "type": "Reservoir",
        "entity": "http://www.wikidata.org/entity/Q34932171",
        "country_qid": "Q854"
      }
    },
    {
      "type": "Feature",
      "geometry": {
        "type": "Point",
        "coordinates": [
          81.081944444,
          8.823333333
        ]
      },
      "properties": {
        "label": "Vadali Kulam",
        "type": "Reservoir",
        "entity": "http://www.wikidata.org/entity/Q34932920",
        "country_qid": "Q854"
      }
    },
    {
      "type": "Feature",
      "geometry": {
        "type": "Point",
        "coordinates": [
          80.78,
          6.681944444
        ]
      },
      "properties": {
        "label": "Samanalawewa Reservoir",
        "type": "Reservoir",
        "entity": "http://www.wikidata.org/entity/Q34921370",
        "country_qid": "Q854"
      }
    },
    {
      "type": "Feature",
      "geometry": {
        "type": "Point",
        "coordinates": [
          81.840833333,
          7.111944444
        ]
      },
      "properties": {
        "label": "Periya Kulam",
        "type": "Reservoir",
        "entity": "http://www.wikidata.org/entity/Q34914392",
        "country_qid": "Q854"
      }
    },
    {
      "type": "Feature",
      "geometry": {
        "type": "Point",
        "coordinates": [
          80.465833333,
          7.943888888
        ]
      },
      "properties": {
        "label": "Siyambalangamuwa Wewa",
        "type": "Reservoir",
        "entity": "http://www.wikidata.org/entity/Q34924153",
        "country_qid": "Q854"
      }
    },
    {
      "type": "Feature",
      "geometry": {
        "type": "Point",
        "coordinates": [
          80.985555555,
          6.208888888
        ]
      },
      "properties": {
        "label": "Ridiyagama Tank",
        "type": "Reservoir",
        "entity": "http://www.wikidata.org/entity/Q34919466",
        "country_qid": "Q854"
      }
    },
    {
      "type": "Feature",
      "geometry": {
        "type": "Point",
        "coordinates": [
          80.513611111,
          9.522222222
        ]
      },
      "properties": {
        "label": "Pilayeran Kulam",
        "type": "Reservoir",
        "entity": "http://www.wikidata.org/entity/Q34914873",
        "country_qid": "Q854"
      }
    },
    {
      "type": "Feature",
      "geometry": {
        "type": "Point",
        "coordinates": [
          80.441944444,
          8.538333333
        ]
      },
      "properties": {
        "label": "Weeralmurippuwa Wewa",
        "type": "Reservoir",
        "entity": "http://www.wikidata.org/entity/Q34934692",
        "country_qid": "Q854"
      }
    },
    {
      "type": "Feature",
      "geometry": {
        "type": "Point",
        "coordinates": [
          80.245833333,
          8.1325
        ]
      },
      "properties": {
        "label": "Rajangana Tank",
        "type": "Reservoir",
        "entity": "http://www.wikidata.org/entity/Q34918123",
        "country_qid": "Q854"
      }
    },
    {
      "type": "Feature",
      "geometry": {
        "type": "Point",
        "coordinates": [
          80.489444444,
          8.455833333
        ]
      },
      "properties": {
        "label": "Pallankulama Wewa",
        "type": "Reservoir",
        "entity": "http://www.wikidata.org/entity/Q34913279",
        "country_qid": "Q854"
      }
    },
    {
      "type": "Feature",
      "geometry": {
        "type": "Point",
        "coordinates": [
          80.835277777,
          6.444444444
        ]
      },
      "properties": {
        "label": "Udawalawe Reservoir",
        "type": "Reservoir",
        "entity": "http://www.wikidata.org/entity/Q34931869",
        "country_qid": "Q854"
      }
    },
    {
      "type": "Feature",
      "geometry": {
        "type": "Point",
        "coordinates": [
          80.723888888,
          9.271111111
        ]
      },
      "properties": {
        "label": "Vavatti Kulam",
        "type": "Reservoir",
        "entity": "http://www.wikidata.org/entity/Q34933143",
        "country_qid": "Q854"
      }
    },
    {
      "type": "Feature",
      "geometry": {
        "type": "Point",
        "coordinates": [
          79.988333333,
          7.675277777
        ]
      },
      "properties": {
        "label": "Talanpola Wewa",
        "type": "Reservoir",
        "entity": "http://www.wikidata.org/entity/Q34929701",
        "country_qid": "Q854"
      }
    },
    {
      "type": "Feature",
      "geometry": {
        "type": "Point",
        "coordinates": [
          80.018333333,
          7.932777777
        ]
      },
      "properties": {
        "label": "Uriya Wewa",
        "type": "Reservoir",
        "entity": "http://www.wikidata.org/entity/Q34932813",
        "country_qid": "Q854"
      }
    },
    {
      "type": "Feature",
      "geometry": {
        "type": "Point",
        "coordinates": [
          80.127222222,
          8.153611111
        ]
      },
      "properties": {
        "label": "Solay Wewa",
        "type": "Reservoir",
        "entity": "http://www.wikidata.org/entity/Q34927007",
        "country_qid": "Q854"
      }
    },
    {
      "type": "Feature",
      "geometry": {
        "type": "Point",
        "coordinates": [
          80.695833333,
          8.575277777
        ]
      },
      "properties": {
        "label": "Wattewewa Kuda Wewa",
        "type": "Reservoir",
        "entity": "http://www.wikidata.org/entity/Q34934514",
        "country_qid": "Q854"
      }
    },
    {
      "type": "Feature",
      "geometry": {
        "type": "Point",
        "coordinates": [
          80.6525,
          8.525555555
        ]
      },
      "properties": {
        "label": "Wewalketiya Wewa",
        "type": "Reservoir",
        "entity": "http://www.wikidata.org/entity/Q34935038",
        "country_qid": "Q854"
      }
    },
    {
      "type": "Feature",
      "geometry": {
        "type": "Point",
        "coordinates": [
          80.3175,
          8.060833333
        ]
      },
      "properties": {
        "label": "Usgala Siyambalangamu Wewa",
        "type": "Reservoir",
        "entity": "http://www.wikidata.org/entity/Q34932829",
        "country_qid": "Q854"
      }
    },
    {
      "type": "Feature",
      "geometry": {
        "type": "Point",
        "coordinates": [
          80.091666666,
          8.166944444
        ]
      },
      "properties": {
        "label": "Saliya Wewa",
        "type": "Reservoir",
        "entity": "http://www.wikidata.org/entity/Q34921245",
        "country_qid": "Q854"
      }
    },
    {
      "type": "Feature",
      "geometry": {
        "type": "Point",
        "coordinates": [
          80.291666666,
          7.946111111
        ]
      },
      "properties": {
        "label": "Palukadawela Wewa",
        "type": "Reservoir",
        "entity": "http://www.wikidata.org/entity/Q34913343",
        "country_qid": "Q854"
      }
    },
    {
      "type": "Feature",
      "geometry": {
        "type": "Point",
        "coordinates": [
          79.878888888,
          9.641111111
        ]
      },
      "properties": {
        "label": "Vanna Kulam",
        "type": "Reservoir",
        "entity": "http://www.wikidata.org/entity/Q34933072",
        "country_qid": "Q854"
      }
    },
    {
      "type": "Feature",
      "geometry": {
        "type": "Point",
        "coordinates": [
          80.433333333,
          8.216666666
        ]
      },
      "properties": {
        "label": "Turuwila Wewa",
        "type": "Reservoir",
        "entity": "http://www.wikidata.org/entity/Q34931548",
        "country_qid": "Q854"
      }
    },
    {
      "type": "Feature",
      "geometry": {
        "type": "Point",
        "coordinates": [
          81.630277777,
          7.079722222
        ]
      },
      "properties": {
        "label": "Pannelagama Reservoir",
        "type": "Reservoir",
        "entity": "http://www.wikidata.org/entity/Q34913430",
        "country_qid": "Q854"
      }
    },
    {
      "type": "Feature",
      "geometry": {
        "type": "Point",
        "coordinates": [
          80.234444444,
          8.806388888
        ]
      },
      "properties": {
        "label": "Pandivirichchan Kulam",
        "type": "Reservoir",
        "entity": "http://www.wikidata.org/entity/Q34913393",
        "country_qid": "Q854"
      }
    }
  ]
}