{
  "type": "FeatureCollection",
  "features": [
    {
      "type": "Feature",
      "geometry": {
        "type": "Point",
        "coordinates": [
          -68.138055555,
          9.901666666
        ]
      },
      "properties": {
        "label": "Embalse de Cachinche",
        "type": "Reservoir",
        "entity": "http://www.wikidata.org/entity/Q31913615",
        "country_qid": "Q717"
      }
    },
    {
      "type": "Feature",
      "geometry": {
        "type": "Point",
        "coordinates": [
          -63.64264016,
          10.088577374
        ]
      },
      "properties": {
        "label": "El Guamo",
        "type": "Reservoir",
        "entity": "http://www.wikidata.org/entity/Q5822046",
        "country_qid": "Q717"
      }
    },
    {
      "type": "Feature",
      "geometry": {
        "type": "Point",
        "coordinates": [
          -69.620833333,
          11.338611111
        ]
      },
      "properties": {
        "label": "El Isiro reservoir",
        "type": "Reservoir",
        "entity": "http://www.wikidata.org/entity/Q31913653",
        "country_qid": "Q717"
      }
    },
    {
      "type": "Feature",
      "geometry": {
        "type": "Point",
        "coordinates": [
          -62.98861111,
          7.76944444
        ]
      },
      "properties": {
        "label": "Guri Reservoir",
        "type": "Reservoir",
        "entity": "http://www.wikidata.org/entity/Q5830486",
        "country_qid": "Q717"
      }
    },
    {
      "type": "Feature",
      "geometry": {
        "type": "Point",
        "coordinates": [
          -66.714166666,
          10.189722222
        ]
      },
      "properties": {
        "label": "Embalse Lagartijo",
        "type": "Reservoir",
        "entity": "http://www.wikidata.org/entity/Q31913664",
        "country_qid": "Q717"
      }
    },
    {
      "type": "Feature",
      "geometry": {
        "type": "Point",
        "coordinates": [
          -69.541666666,
          10.266388888
        ]
      },
      "properties": {
        "label": "Embalse El Tacal",
        "type": "Reservoir",
        "entity": "http://www.wikidata.org/entity/Q31913657",
        "country_qid": "Q717"
      }
    },
    {
      "type": "Feature",
      "geometry": {
        "type": "Point",
        "coordinates": [
          -63.620555555,
          10.335
        ]
      },
      "properties": {
        "label": "Embalse Clavellino",
        "type": "Reservoir",
        "entity": "http://www.wikidata.org/entity/Q31913608",
        "country_qid": "Q717"
      }
    },
    {
      "type": "Feature",
      "geometry": {
        "type": "Point",
        "coordinates": [
          -68.0625,
          10.182777777
        ]
      },
      "properties": {
        "label": "Embalse de Guataparo",
        "type": "Reservoir",
        "entity": "http://www.wikidata.org/entity/Q2918129",
        "country_qid": "Q717"
      }
    },
    {
      "type": "Feature",
      "geometry": {
        "type": "Point",
        "coordinates": [
          -63.23203,
          10.58481
        ]
      },
      "properties": {
        "label": "El Pilar Reservoir",
        "type": "Reservoir",
        "entity": "http://www.wikidata.org/entity/Q31913312",
        "country_qid": "Q717"
      }
    },
    {
      "type": "Feature",
      "geometry": {
        "type": "Point",
        "coordinates": [
          -71.036388888,
          10.202777777
        ]
      },
      "properties": {
        "label": "Embalse de Pueblo Viejo",
        "type": "Reservoir",
        "entity": "http://www.wikidata.org/entity/Q31913630",
        "country_qid": "Q717"
      }
    },
    {
      "type": "Feature",
      "geometry": {
        "type": "Point",
        "coordinates": [
          -69.821388888,
          9.725555555
        ]
      },
      "properties": {
        "label": "Embalse Dos Cerritos",
        "type": "Reservoir",
        "entity": "http://www.wikidata.org/entity/Q31913650",
        "country_qid": "Q717"
      }
    },
    {
      "type": "Feature",
      "geometry": {
        "type": "Point",
        "coordinates": [
          -66.406388888,
          9.920277777
        ]
      },
      "properties": {
        "label": "Embalse Guanapito",
        "type": "Reservoir",
        "entity": "http://www.wikidata.org/entity/Q31913660",
        "country_qid": "Q717"
      }
    },
    {
      "type": "Feature",
      "geometry": {
        "type": "Point",
        "coordinates": [
          -67.401319641,
          8.9450965
        ]
      },
      "properties": {
        "label": "Ing. Generoso Campilongo Reservoir",
        "type": "Reservoir",
        "entity": "http://www.wikidata.org/entity/Q5623127",
        "country_qid": "Q717"
      }
    },
    {
      "type": "Feature",
      "geometry": {
        "type": "Point",
        "coordinates": [
          -64.265291666,
          8.916748333
        ]
      },
      "properties": {
        "label": "Q118496594",
        "type": "Reservoir",
        "entity": "http://www.wikidata.org/entity/Q118496594",
        "country_qid": "Q717"
      }
    },
    {
      "type": "Feature",
      "geometry": {
        "type": "Point",
        "coordinates": [
          -66.993333333,
          9.825555555
        ]
      },
      "properties": {
        "label": "Camatagua Reservoir",
        "type": "Reservoir",
        "entity": "http://www.wikidata.org/entity/Q5830420",
        "country_qid": "Q717"
      }
    },
    {
      "type": "Feature",
      "geometry": {
        "type": "Point",
        "coordinates": [
          -61.470833333,
          7.321388888
        ]
      },
      "properties": {
        "label": "Embalse San Pedro",
        "type": "Reservoir",
        "entity": "http://www.wikidata.org/entity/Q31913674",
        "country_qid": "Q717"
      }
    },
    {
      "type": "Feature",
      "geometry": {
        "type": "Point",
        "coordinates": [
          -68.809166666,
          10.155833333
        ]
      },
      "properties": {
        "label": "Embalse de Cumaripa",
        "type": "Reservoir",
        "entity": "http://www.wikidata.org/entity/Q31913619",
        "country_qid": "Q717"
      }
    },
    {
      "type": "Feature",
      "geometry": {
        "type": "Point",
        "coordinates": [
          -66.741111111,
          10.210277777
        ]
      },
      "properties": {
        "label": "Embalse de Quebrada Seca",
        "type": "Reservoir",
        "entity": "http://www.wikidata.org/entity/Q31913633",
        "country_qid": "Q717"
      }
    },
    {
      "type": "Feature",
      "geometry": {
        "type": "Point",
        "coordinates": [
          -67.396111111,
          10.195
        ]
      },
      "properties": {
        "label": "Embalse de Zuata",
        "type": "Reservoir",
        "entity": "http://www.wikidata.org/entity/Q31913643",
        "country_qid": "Q717"
      }
    },
    {
      "type": "Feature",
      "geometry": {
        "type": "Point",
        "coordinates": [
          -72.126944444,
          10.886111111
        ]
      },
      "properties": {
        "label": "Embalse de Tule",
        "type": "Reservoir",
        "entity": "http://www.wikidata.org/entity/Q31913641",
        "country_qid": "Q717"
      }
    },
    {
      "type": "Feature",
      "geometry": {
        "type": "Point",
        "coordinates": [
          -69.025277777,
          9.651944444
        ]
      },
      "properties": {
        "label": "Embalse Las Majaguas",
        "type": "Reservoir",
        "entity": "http://www.wikidata.org/entity/Q31913670",
        "country_qid": "Q717"
      }
    },
    {
      "type": "Feature",
      "geometry": {
        "type": "Point",
        "coordinates": [
          -68.100833333,
          9.888611111
        ]
      },
      "properties": {
        "label": "Embalse de Cachinche",
        "type": "Reservoir",
        "entity": "http://www.wikidata.org/entity/Q31913611",
        "country_qid": "Q717"
      }
    }
  ]
}