{
  "type": "FeatureCollection",
  "features": [
    {
      "type": "Feature",
      "geometry": {
        "type": "Point",
        "coordinates": [
          2.211526,
          42.1092962
        ]
      },
      "properties": {
        "label": "Resclosa de Can Trinxet",
        "type": "Weir",
        "entity": "http://www.wikidata.org/entity/Q133876456",
        "country_qid": "Q29"
      }
    },
    {
      "type": "Feature",
      "geometry": {
        "type": "Point",
        "coordinates": [
          1.66101,
          41.24352
        ]
      },
      "properties": {
        "label": "Resclosa de Cal Cucurella",
        "type": "Weir",
        "entity": "http://www.wikidata.org/entity/Q133889296",
        "country_qid": "Q29"
      }
    },
    {
      "type": "Feature",
      "geometry": {
        "type": "Point",
        "coordinates": [
          1.6445,
          41.29766
        ]
      },
      "properties": {
        "label": "Resclosa i rec del molí del Llopart",
        "type": "Weir",
        "entity": "http://www.wikidata.org/entity/Q134893748",
        "country_qid": "Q29"
      }
    },
    {
      "type": "Feature",
      "geometry": {
        "type": "Point",
        "coordinates": [
          1.64131,
          41.28598
        ]
      },
      "properties": {
        "label": "Resclosa del molí Nou i Vell de Castellet",
        "type": "Weir",
        "entity": "http://www.wikidata.org/entity/Q134893754",
        "country_qid": "Q29"
      }
    },
    {
      "type": "Feature",
      "geometry": {
        "type": "Point",
        "coordinates": [
          -7.626880214,
          43.083077659
        ]
      },
      "properties": {
        "label": "Q12385165",
        "type": "Weir",
        "entity": "http://www.wikidata.org/entity/Q12385165",
        "country_qid": "Q29"
      }
    },
    {
      "type": "Feature",
      "geometry": {
        "type": "Point",
        "coordinates": [
          2.27947,
          41.87992
        ]
      },
      "properties": {
        "label": "Resclosa antiga i rec del molí del Molist",
        "type": "Weir",
        "entity": "http://www.wikidata.org/entity/Q128809493",
        "country_qid": "Q29"
      }
    },
    {
      "type": "Feature",
      "geometry": {
        "type": "Point",
        "coordinates": [
          2.2048806,
          42.1254278
        ]
      },
      "properties": {
        "label": "Resclosa i canal del Carbur de Dalt",
        "type": "Weir",
        "entity": "http://www.wikidata.org/entity/Q134969688",
        "country_qid": "Q29"
      }
    },
    {
      "type": "Feature",
      "geometry": {
        "type": "Point",
        "coordinates": [
          2.24909,
          42.06435
        ]
      },
      "properties": {
        "label": "Resclosa de la Colònia Vila-seca",
        "type": "Weir",
        "entity": "http://www.wikidata.org/entity/Q130268633",
        "country_qid": "Q29"
      }
    },
    {
      "type": "Feature",
      "geometry": {
        "type": "Point",
        "coordinates": [
          1.85303,
          41.67803
        ]
      },
      "properties": {
        "label": "Resclosa a l'aiguabarreig",
        "type": "Weir",
        "entity": "http://www.wikidata.org/entity/Q134838601",
        "country_qid": "Q29"
      }
    },
    {
      "type": "Feature",
      "geometry": {
        "type": "Point",
        "coordinates": [
          -7.62550278,
          43.04800833
        ]
      },
      "properties": {
        "label": "Q31281516",
        "type": "Weir",
        "entity": "http://www.wikidata.org/entity/Q31281516",
        "country_qid": "Q29"
      }
    },
    {
      "type": "Feature",
      "geometry": {
        "type": "Point",
        "coordinates": [
          2.29346,
          41.98606
        ]
      },
      "properties": {
        "label": "Resclosa de l'Obra",
        "type": "Weir",
        "entity": "http://www.wikidata.org/entity/Q134893813",
        "country_qid": "Q29"
      }
    },
    {
      "type": "Feature",
      "geometry": {
        "type": "Point",
        "coordinates": [
          1.99587,
          41.4351
        ]
      },
      "properties": {
        "label": "Resclosa del Llobregat",
        "type": "Weir",
        "entity": "http://www.wikidata.org/entity/Q130299927",
        "country_qid": "Q29"
      }
    },
    {
      "type": "Feature",
      "geometry": {
        "type": "Point",
        "coordinates": [
          -7.62886389,
          43.05653333
        ]
      },
      "properties": {
        "label": "Q31281512",
        "type": "Weir",
        "entity": "http://www.wikidata.org/entity/Q31281512",
        "country_qid": "Q29"
      }
    },
    {
      "type": "Feature",
      "geometry": {
        "type": "Point",
        "coordinates": [
          1.74716,
          41.44067
        ]
      },
      "properties": {
        "label": "Resclosa del molí de l'Esbert / molí Fidel",
        "type": "Weir",
        "entity": "http://www.wikidata.org/entity/Q133796264",
        "country_qid": "Q29"
      }
    },
    {
      "type": "Feature",
      "geometry": {
        "type": "Point",
        "coordinates": [
          1.80779,
          41.74555
        ]
      },
      "properties": {
        "label": "Resclosa de les fàbriques de Sant Joan",
        "type": "Weir",
        "entity": "http://www.wikidata.org/entity/Q133520546",
        "country_qid": "Q29"
      }
    },
    {
      "type": "Feature",
      "geometry": {
        "type": "Point",
        "coordinates": [
          2.27258,
          41.88159
        ]
      },
      "properties": {
        "label": "Resclosa del Molí del Molist",
        "type": "Weir",
        "entity": "http://www.wikidata.org/entity/Q128809489",
        "country_qid": "Q29"
      }
    },
    {
      "type": "Feature",
      "geometry": {
        "type": "Point",
        "coordinates": [
          2.008,
          42.091078
        ]
      },
      "properties": {
        "label": "Resclosa del Camp de Salselles",
        "type": "Weir",
        "entity": "http://www.wikidata.org/entity/Q21077393",
        "country_qid": "Q29"
      }
    },
    {
      "type": "Feature",
      "geometry": {
        "type": "Point",
        "coordinates": [
          2.24074,
          41.96536
        ]
      },
      "properties": {
        "label": "Resclosa del molí d'Oms",
        "type": "Weir",
        "entity": "http://www.wikidata.org/entity/Q135011952",
        "country_qid": "Q29"
      }
    },
    {
      "type": "Feature",
      "geometry": {
        "type": "Point",
        "coordinates": [
          2.2513,
          41.88494
        ]
      },
      "properties": {
        "label": "Resclosa antiga del molí del Tei",
        "type": "Weir",
        "entity": "http://www.wikidata.org/entity/Q133884118",
        "country_qid": "Q29"
      }
    },
    {
      "type": "Feature",
      "geometry": {
        "type": "Point",
        "coordinates": [
          2.2040355,
          42.1213827
        ]
      },
      "properties": {
        "label": "Resclosa i canal del Carbur de Baix",
        "type": "Weir",
        "entity": "http://www.wikidata.org/entity/Q134969690",
        "country_qid": "Q29"
      }
    },
    {
      "type": "Feature",
      "geometry": {
        "type": "Point",
        "coordinates": [
          2.02434,
          41.50318
        ]
      },
      "properties": {
        "label": "Resclosa de can Ramoneda",
        "type": "Weir",
        "entity": "http://www.wikidata.org/entity/Q134498878",
        "country_qid": "Q29"
      }
    },
    {
      "type": "Feature",
      "geometry": {
        "type": "Point",
        "coordinates": [
          2.27992,
          41.85008
        ]
      },
      "properties": {
        "label": "Resclosa i rec del Molí dels Sorts",
        "type": "Weir",
        "entity": "http://www.wikidata.org/entity/Q133875530",
        "country_qid": "Q29"
      }
    },
    {
      "type": "Feature",
      "geometry": {
        "type": "Point",
        "coordinates": [
          2.25365,
          41.88804
        ]
      },
      "properties": {
        "label": "Resclosa nova del molí del Tei",
        "type": "Weir",
        "entity": "http://www.wikidata.org/entity/Q133884120",
        "country_qid": "Q29"
      }
    },
    {
      "type": "Feature",
      "geometry": {
        "type": "Point",
        "coordinates": [
          -6.390602474,
          36.765429728
        ]
      },
      "properties": {
        "label": "Corral de Merlín",
        "type": "Weir",
        "entity": "http://www.wikidata.org/entity/Q97616354",
        "country_qid": "Q29"
      }
    },
    {
      "type": "Feature",
      "geometry": {
        "type": "Point",
        "coordinates": [
          2.27261,
          41.77158
        ]
      },
      "properties": {
        "label": "Resclosa del pantà de la font del Vern",
        "type": "Weir",
        "entity": "http://www.wikidata.org/entity/Q117204176",
        "country_qid": "Q29"
      }
    },
    {
      "type": "Feature",
      "geometry": {
        "type": "Point",
        "coordinates": [
          1.9606,
          41.41338
        ]
      },
      "properties": {
        "label": "Resclosa de Cal Sereno",
        "type": "Weir",
        "entity": "http://www.wikidata.org/entity/Q127605935",
        "country_qid": "Q29"
      }
    },
    {
      "type": "Feature",
      "geometry": {
        "type": "Point",
        "coordinates": [
          2.14698,
          41.50553
        ]
      },
      "properties": {
        "label": "Resclosa de Can Clos",
        "type": "Weir",
        "entity": "http://www.wikidata.org/entity/Q130784574",
        "country_qid": "Q29"
      }
    },
    {
      "type": "Feature",
      "geometry": {
        "type": "Point",
        "coordinates": [
          1.75933,
          41.67598
        ]
      },
      "properties": {
        "label": "Resclosa i rec del Molí de Miralda",
        "type": "Weir",
        "entity": "http://www.wikidata.org/entity/Q133863938",
        "country_qid": "Q29"
      }
    },
    {
      "type": "Feature",
      "geometry": {
        "type": "Point",
        "coordinates": [
          2.096425,
          41.58118
        ]
      },
      "properties": {
        "label": "Resclosa del torrent de Colobrers",
        "type": "Weir",
        "entity": "http://www.wikidata.org/entity/Q113625494",
        "country_qid": "Q29"
      }
    },
    {
      "type": "Feature",
      "geometry": {
        "type": "Point",
        "coordinates": [
          2.25976,
          41.86965
        ]
      },
      "properties": {
        "label": "Resclosa i rec de l'hort del Gurri Gros",
        "type": "Weir",
        "entity": "http://www.wikidata.org/entity/Q128809469",
        "country_qid": "Q29"
      }
    },
    {
      "type": "Feature",
      "geometry": {
        "type": "Point",
        "coordinates": [
          2.26606,
          41.88442
        ]
      },
      "properties": {
        "label": "Resclosa i rec del molí de Bellpuig",
        "type": "Weir",
        "entity": "http://www.wikidata.org/entity/Q128809484",
        "country_qid": "Q29"
      }
    },
    {
      "type": "Feature",
      "geometry": {
        "type": "Point",
        "coordinates": [
          2.26984,
          41.88304
        ]
      },
      "properties": {
        "label": "Resclosa de la Foguera",
        "type": "Weir",
        "entity": "http://www.wikidata.org/entity/Q128809486",
        "country_qid": "Q29"
      }
    },
    {
      "type": "Feature",
      "geometry": {
        "type": "Point",
        "coordinates": [
          2.26314,
          41.87677
        ]
      },
      "properties": {
        "label": "Resclosa del Gurri Xic",
        "type": "Weir",
        "entity": "http://www.wikidata.org/entity/Q128809477",
        "country_qid": "Q29"
      }
    },
    {
      "type": "Feature",
      "geometry": {
        "type": "Point",
        "coordinates": [
          2.23851,
          41.81305
        ]
      },
      "properties": {
        "label": "Resclosa del molí de Dalt de Vall-llosera",
        "type": "Weir",
        "entity": "http://www.wikidata.org/entity/Q133877692",
        "country_qid": "Q29"
      }
    },
    {
      "type": "Feature",
      "geometry": {
        "type": "Point",
        "coordinates": [
          2.25199,
          41.78757
        ]
      },
      "properties": {
        "label": "Resclosa i rec de la riera de Martinet",
        "type": "Weir",
        "entity": "http://www.wikidata.org/entity/Q131739966",
        "country_qid": "Q29"
      }
    },
    {
      "type": "Feature",
      "geometry": {
        "type": "Point",
        "coordinates": [
          2.19234,
          41.90786
        ]
      },
      "properties": {
        "label": "Resclosa de Torroella",
        "type": "Weir",
        "entity": "http://www.wikidata.org/entity/Q133884009",
        "country_qid": "Q29"
      }
    },
    {
      "type": "Feature",
      "geometry": {
        "type": "Point",
        "coordinates": [
          1.7674,
          41.79828
        ]
      },
      "properties": {
        "label": "Resclosa del Cortès",
        "type": "Weir",
        "entity": "http://www.wikidata.org/entity/Q135011844",
        "country_qid": "Q29"
      }
    },
    {
      "type": "Feature",
      "geometry": {
        "type": "Point",
        "coordinates": [
          2.75339,
          42.1875
        ]
      },
      "properties": {
        "label": "Resclosa de Serinyà i illa del Fluvià",
        "type": "Weir",
        "entity": "http://www.wikidata.org/entity/Q18006229",
        "country_qid": "Q29"
      }
    },
    {
      "type": "Feature",
      "geometry": {
        "type": "Point",
        "coordinates": [
          1.77869,
          41.68617
        ]
      },
      "properties": {
        "label": "Resclosa i rec del molí del Calvet",
        "type": "Weir",
        "entity": "http://www.wikidata.org/entity/Q133822838",
        "country_qid": "Q29"
      }
    },
    {
      "type": "Feature",
      "geometry": {
        "type": "Point",
        "coordinates": [
          1.73386,
          41.44609
        ]
      },
      "properties": {
        "label": "Resclosa del Molí del Parellada, del Mig i del Cover",
        "type": "Weir",
        "entity": "http://www.wikidata.org/entity/Q133796288",
        "country_qid": "Q29"
      }
    },
    {
      "type": "Feature",
      "geometry": {
        "type": "Point",
        "coordinates": [
          2.28917,
          41.98543
        ]
      },
      "properties": {
        "label": "Resclosa de Malars",
        "type": "Weir",
        "entity": "http://www.wikidata.org/entity/Q134893814",
        "country_qid": "Q29"
      }
    },
    {
      "type": "Feature",
      "geometry": {
        "type": "Point",
        "coordinates": [
          2.5914,
          42.2083
        ]
      },
      "properties": {
        "label": "Q18006228",
        "type": "Weir",
        "entity": "http://www.wikidata.org/entity/Q18006228",
        "country_qid": "Q29"
      }
    },
    {
      "type": "Feature",
      "geometry": {
        "type": "Point",
        "coordinates": [
          1.97237,
          41.40995
        ]
      },
      "properties": {
        "label": "Resclosa del Pont Vell",
        "type": "Weir",
        "entity": "http://www.wikidata.org/entity/Q127605907",
        "country_qid": "Q29"
      }
    },
    {
      "type": "Feature",
      "geometry": {
        "type": "Point",
        "coordinates": [
          2.26117,
          41.86538
        ]
      },
      "properties": {
        "label": "Resclosa de l'hort de Blanquers",
        "type": "Weir",
        "entity": "http://www.wikidata.org/entity/Q128809467",
        "country_qid": "Q29"
      }
    },
    {
      "type": "Feature",
      "geometry": {
        "type": "Point",
        "coordinates": [
          2.26266,
          41.88896
        ]
      },
      "properties": {
        "label": "Resclosa i rec del molí del Ral",
        "type": "Weir",
        "entity": "http://www.wikidata.org/entity/Q134930793",
        "country_qid": "Q29"
      }
    },
    {
      "type": "Feature",
      "geometry": {
        "type": "Point",
        "coordinates": [
          2.02557,
          41.77354
        ]
      },
      "properties": {
        "label": "Restes d'una resclosa i de tres molins als Gorgs Blaus",
        "type": "Weir",
        "entity": "http://www.wikidata.org/entity/Q133571763",
        "country_qid": "Q29"
      }
    },
    {
      "type": "Feature",
      "geometry": {
        "type": "Point",
        "coordinates": [
          1.7581,
          41.43978
        ]
      },
      "properties": {
        "label": "Resclosa del Molí de Ribalta",
        "type": "Weir",
        "entity": "http://www.wikidata.org/entity/Q133796236",
        "country_qid": "Q29"
      }
    },
    {
      "type": "Feature",
      "geometry": {
        "type": "Point",
        "coordinates": [
          -7.61437222,
          43.03311944
        ]
      },
      "properties": {
        "label": "Q31281596",
        "type": "Weir",
        "entity": "http://www.wikidata.org/entity/Q31281596",
        "country_qid": "Q29"
      }
    },
    {
      "type": "Feature",
      "geometry": {
        "type": "Point",
        "coordinates": [
          2.2301042,
          42.0958361
        ]
      },
      "properties": {
        "label": "Resclosa de les Illes",
        "type": "Weir",
        "entity": "http://www.wikidata.org/entity/Q133875717",
        "country_qid": "Q29"
      }
    },
    {
      "type": "Feature",
      "geometry": {
        "type": "Point",
        "coordinates": [
          2.24664,
          41.77616
        ]
      },
      "properties": {
        "label": "Resclosa del Congost",
        "type": "Weir",
        "entity": "http://www.wikidata.org/entity/Q131739955",
        "country_qid": "Q29"
      }
    },
    {
      "type": "Feature",
      "geometry": {
        "type": "Point",
        "coordinates": [
          2.006103,
          42.101238
        ]
      },
      "properties": {
        "label": "Resclosa de les Goles de la Masada",
        "type": "Weir",
        "entity": "http://www.wikidata.org/entity/Q21077392",
        "country_qid": "Q29"
      }
    }
  ]
}