{
  "type": "FeatureCollection",
  "features": [
    {
      "type": "Feature",
      "geometry": {
        "type": "Point",
        "coordinates": [
          -1.773357,
          52.266539
        ]
      },
      "properties": {
        "label": "Weir To The Serpentine And River Alne Approximately 120 Metres South East Of Wootton Hall",
        "type": "Weir",
        "entity": "http://www.wikidata.org/entity/Q26662312",
        "country_qid": "Q145"
      }
    },
    {
      "type": "Feature",
      "geometry": {
        "type": "Point",
        "coordinates": [
          -1.611217848,
          51.36739179
        ]
      },
      "properties": {
        "label": "Beech Grove Lock, Accommodation Bridge, And Apron Wier",
        "type": "Weir",
        "entity": "http://www.wikidata.org/entity/Q26285564",
        "country_qid": "Q145"
      }
    },
    {
      "type": "Feature",
      "geometry": {
        "type": "Point",
        "coordinates": [
          -2.828094,
          52.431512
        ]
      },
      "properties": {
        "label": "Weir On River Teme Including Attached Sluice, Retaining Walls And Culvert",
        "type": "Weir",
        "entity": "http://www.wikidata.org/entity/Q26560021",
        "country_qid": "Q145"
      }
    },
    {
      "type": "Feature",
      "geometry": {
        "type": "Point",
        "coordinates": [
          -1.853171,
          53.719353
        ]
      },
      "properties": {
        "label": "Cantilevered Footpath And Weir On The East Bank Of Hebble Brook",
        "type": "Weir",
        "entity": "http://www.wikidata.org/entity/Q26615182",
        "country_qid": "Q145"
      }
    },
    {
      "type": "Feature",
      "geometry": {
        "type": "Point",
        "coordinates": [
          -1.537215,
          52.822897
        ]
      },
      "properties": {
        "label": "Weir And Associated Water Management System",
        "type": "Weir",
        "entity": "http://www.wikidata.org/entity/Q26675994",
        "country_qid": "Q145"
      }
    },
    {
      "type": "Feature",
      "geometry": {
        "type": "Point",
        "coordinates": [
          -1.458007,
          54.482535
        ]
      },
      "properties": {
        "label": "Wier And Fish Lock North East Of Old Fish Locks House",
        "type": "Weir",
        "entity": "http://www.wikidata.org/entity/Q26481213",
        "country_qid": "Q145"
      }
    },
    {
      "type": "Feature",
      "geometry": {
        "type": "Point",
        "coordinates": [
          -1.459646,
          53.686461
        ]
      },
      "properties": {
        "label": "Kirkthorpe Weir And Sluice Gates",
        "type": "Weir",
        "entity": "http://www.wikidata.org/entity/Q26496487",
        "country_qid": "Q145"
      }
    },
    {
      "type": "Feature",
      "geometry": {
        "type": "Point",
        "coordinates": [
          -1.475771,
          52.942467
        ]
      },
      "properties": {
        "label": "Darley Abbey Weir",
        "type": "Weir",
        "entity": "http://www.wikidata.org/entity/Q26676816",
        "country_qid": "Q145"
      }
    },
    {
      "type": "Feature",
      "geometry": {
        "type": "Point",
        "coordinates": [
          -2.211163,
          50.683187
        ]
      },
      "properties": {
        "label": "Stony Weir",
        "type": "Weir",
        "entity": "http://www.wikidata.org/entity/Q26591559",
        "country_qid": "Q145"
      }
    },
    {
      "type": "Feature",
      "geometry": {
        "type": "Point",
        "coordinates": [
          -1.441498,
          53.395745
        ]
      },
      "properties": {
        "label": "Sandersons Weir On River Don",
        "type": "Weir",
        "entity": "http://www.wikidata.org/entity/Q26539881",
        "country_qid": "Q145"
      }
    },
    {
      "type": "Feature",
      "geometry": {
        "type": "Point",
        "coordinates": [
          -2.255165,
          51.739941
        ]
      },
      "properties": {
        "label": "Spill Weir",
        "type": "Weir",
        "entity": "http://www.wikidata.org/entity/Q26675416",
        "country_qid": "Q145"
      }
    },
    {
      "type": "Feature",
      "geometry": {
        "type": "Point",
        "coordinates": [
          -2.065848,
          51.511846
        ]
      },
      "properties": {
        "label": "Avon Weir",
        "type": "Weir",
        "entity": "http://www.wikidata.org/entity/Q26495495",
        "country_qid": "Q145"
      }
    },
    {
      "type": "Feature",
      "geometry": {
        "type": "Point",
        "coordinates": [
          -1.575197,
          54.043531
        ]
      },
      "properties": {
        "label": "Weir And Bridge Between Ripley Lakes",
        "type": "Weir",
        "entity": "http://www.wikidata.org/entity/Q26443206",
        "country_qid": "Q145"
      }
    },
    {
      "type": "Feature",
      "geometry": {
        "type": "Point",
        "coordinates": [
          -1.533355,
          53.793361
        ]
      },
      "properties": {
        "label": "Leeds Dam On River Aire",
        "type": "Weir",
        "entity": "http://www.wikidata.org/entity/Q26655882",
        "country_qid": "Q145"
      }
    },
    {
      "type": "Feature",
      "geometry": {
        "type": "Point",
        "coordinates": [
          -2.107216,
          53.271169
        ]
      },
      "properties": {
        "label": "Sluices, weir and culvert carrying Shores Clough under Macclesfield Canal",
        "type": "Weir",
        "entity": "http://www.wikidata.org/entity/Q26429776",
        "country_qid": "Q145"
      }
    },
    {
      "type": "Feature",
      "geometry": {
        "type": "Point",
        "coordinates": [
          -3.90968,
          50.754167
        ]
      },
      "properties": {
        "label": "Taw Green Mill Bridge And Weir",
        "type": "Weir",
        "entity": "http://www.wikidata.org/entity/Q26465796",
        "country_qid": "Q145"
      }
    },
    {
      "type": "Feature",
      "geometry": {
        "type": "Point",
        "coordinates": [
          -1.534478,
          51.69807
        ]
      },
      "properties": {
        "label": "Rushey Paddle And Rymer Weir",
        "type": "Weir",
        "entity": "http://www.wikidata.org/entity/Q26672643",
        "country_qid": "Q145"
      }
    },
    {
      "type": "Feature",
      "geometry": {
        "type": "Point",
        "coordinates": [
          -0.016614,
          51.662684
        ]
      },
      "properties": {
        "label": "Weir With Inlet Pipes At King George Pumping Station And Adjacent To King George Reservoir",
        "type": "Weir",
        "entity": "http://www.wikidata.org/entity/Q27085663",
        "country_qid": "Q145"
      }
    },
    {
      "type": "Feature",
      "geometry": {
        "type": "Point",
        "coordinates": [
          -1.585843,
          53.80318
        ]
      },
      "properties": {
        "label": "Weir On River Aire At Armley Mills",
        "type": "Weir",
        "entity": "http://www.wikidata.org/entity/Q26547289",
        "country_qid": "Q145"
      }
    },
    {
      "type": "Feature",
      "geometry": {
        "type": "Point",
        "coordinates": [
          -2.257899,
          53.475564
        ]
      },
      "properties": {
        "label": "The Giants Basin",
        "type": "Weir",
        "entity": "http://www.wikidata.org/entity/Q26539415",
        "country_qid": "Q145"
      }
    },
    {
      "type": "Feature",
      "geometry": {
        "type": "Point",
        "coordinates": [
          -1.143709,
          51.522462
        ]
      },
      "properties": {
        "label": "Streatley Paddle And Rymer Weir",
        "type": "Weir",
        "entity": "http://www.wikidata.org/entity/Q26672641",
        "country_qid": "Q145"
      }
    },
    {
      "type": "Feature",
      "geometry": {
        "type": "Point",
        "coordinates": [
          -1.15347,
          53.261149
        ]
      },
      "properties": {
        "label": "Weir And Gateway",
        "type": "Weir",
        "entity": "http://www.wikidata.org/entity/Q26519231",
        "country_qid": "Q145"
      }
    },
    {
      "type": "Feature",
      "geometry": {
        "type": "Point",
        "coordinates": [
          -1.140556,
          51.522903
        ]
      },
      "properties": {
        "label": "Goring Paddle And Rymer Weir",
        "type": "Weir",
        "entity": "http://www.wikidata.org/entity/Q26672642",
        "country_qid": "Q145"
      }
    },
    {
      "type": "Feature",
      "geometry": {
        "type": "Point",
        "coordinates": [
          -2.694781,
          53.302866
        ]
      },
      "properties": {
        "label": "Frodsham Weir With Sluice Gates",
        "type": "Weir",
        "entity": "http://www.wikidata.org/entity/Q26545200",
        "country_qid": "Q145"
      }
    },
    {
      "type": "Feature",
      "geometry": {
        "type": "Point",
        "coordinates": [
          -1.578891,
          54.109883
        ]
      },
      "properties": {
        "label": "Weir On River Skell Approximately 10 Metres East Of The Infirmary At Fountains Abbey",
        "type": "Weir",
        "entity": "http://www.wikidata.org/entity/Q26583909",
        "country_qid": "Q145"
      }
    },
    {
      "type": "Feature",
      "geometry": {
        "type": "Point",
        "coordinates": [
          -1.597718,
          53.810348
        ]
      },
      "properties": {
        "label": "Weir And Sluice Gates At Ngr 2658 3497 Approximately 450 Metres North West Of Burley Mills",
        "type": "Weir",
        "entity": "http://www.wikidata.org/entity/Q26655876",
        "country_qid": "Q145"
      }
    },
    {
      "type": "Feature",
      "geometry": {
        "type": "Point",
        "coordinates": [
          -2.055332,
          53.407212
        ]
      },
      "properties": {
        "label": "Weir on River Goyt",
        "type": "Weir",
        "entity": "http://www.wikidata.org/entity/Q26534678",
        "country_qid": "Q145"
      }
    },
    {
      "type": "Feature",
      "geometry": {
        "type": "Point",
        "coordinates": [
          -2.087126,
          53.289855
        ]
      },
      "properties": {
        "label": "Weir At North End Of Clough Pool",
        "type": "Weir",
        "entity": "http://www.wikidata.org/entity/Q26615158",
        "country_qid": "Q145"
      }
    },
    {
      "type": "Feature",
      "geometry": {
        "type": "Point",
        "coordinates": [
          -2.763297,
          52.385873
        ]
      },
      "properties": {
        "label": "Weir, adjacent to bridge over Teme, Oakley Park Drive",
        "type": "Weir",
        "entity": "http://www.wikidata.org/entity/Q26498421",
        "country_qid": "Q145"
      }
    },
    {
      "type": "Feature",
      "geometry": {
        "type": "Point",
        "coordinates": [
          0.000161,
          51.740171
        ]
      },
      "properties": {
        "label": "Nazeing Labyrinth Weir",
        "type": "Weir",
        "entity": "http://www.wikidata.org/entity/Q26700186",
        "country_qid": "Q145"
      }
    },
    {
      "type": "Feature",
      "geometry": {
        "type": "Point",
        "coordinates": [
          -1.563053,
          53.608541
        ]
      },
      "properties": {
        "label": "Overflow to Lower Lake, 3 weirs to east side of dam and pump house adjacent to Middle Weir in Bretton Park",
        "type": "Weir",
        "entity": "http://www.wikidata.org/entity/Q26428849",
        "country_qid": "Q145"
      }
    },
    {
      "type": "Feature",
      "geometry": {
        "type": "Point",
        "coordinates": [
          -2.516136,
          53.254291
        ]
      },
      "properties": {
        "label": "Weir east of Hunt's Lock, with footbridge",
        "type": "Weir",
        "entity": "http://www.wikidata.org/entity/Q26432057",
        "country_qid": "Q145"
      }
    },
    {
      "type": "Feature",
      "geometry": {
        "type": "Point",
        "coordinates": [
          -1.471287,
          54.006522
        ]
      },
      "properties": {
        "label": "Weir Across River Nidd At Castle Mill",
        "type": "Weir",
        "entity": "http://www.wikidata.org/entity/Q26442744",
        "country_qid": "Q145"
      }
    },
    {
      "type": "Feature",
      "geometry": {
        "type": "Point",
        "coordinates": [
          -1.410506,
          53.464143
        ]
      },
      "properties": {
        "label": "Bridge and weir at west end of Morley Pond",
        "type": "Weir",
        "entity": "http://www.wikidata.org/entity/Q26425680",
        "country_qid": "Q145"
      }
    },
    {
      "type": "Feature",
      "geometry": {
        "type": "Point",
        "coordinates": [
          -1.570376,
          54.118552
        ]
      },
      "properties": {
        "label": "Weir And Cascade At Outlet From The Lake With Flanking Wall And Ford",
        "type": "Weir",
        "entity": "http://www.wikidata.org/entity/Q26468470",
        "country_qid": "Q145"
      }
    },
    {
      "type": "Feature",
      "geometry": {
        "type": "Point",
        "coordinates": [
          -1.784546,
          51.175935
        ]
      },
      "properties": {
        "label": "Weir Bridge In Amesbury Abbey Park",
        "type": "Weir",
        "entity": "http://www.wikidata.org/entity/Q26424048",
        "country_qid": "Q145"
      }
    },
    {
      "type": "Feature",
      "geometry": {
        "type": "Point",
        "coordinates": [
          -1.598347,
          53.809501
        ]
      },
      "properties": {
        "label": "Weir On River Aire At Ngr 2655 3488",
        "type": "Weir",
        "entity": "http://www.wikidata.org/entity/Q26655878",
        "country_qid": "Q145"
      }
    },
    {
      "type": "Feature",
      "geometry": {
        "type": "Point",
        "coordinates": [
          -1.755686,
          51.417928
        ]
      },
      "properties": {
        "label": "Manton Weir",
        "type": "Weir",
        "entity": "http://www.wikidata.org/entity/Q26550084",
        "country_qid": "Q145"
      }
    },
    {
      "type": "Feature",
      "geometry": {
        "type": "Point",
        "coordinates": [
          -1.575279,
          54.110409
        ]
      },
      "properties": {
        "label": "Weir On River Skell Approximately 120 Metres West Of The Reservoir",
        "type": "Weir",
        "entity": "http://www.wikidata.org/entity/Q26468254",
        "country_qid": "Q145"
      }
    },
    {
      "type": "Feature",
      "geometry": {
        "type": "Point",
        "coordinates": [
          0.598651,
          51.751159
        ]
      },
      "properties": {
        "label": "Weir At Rushes Lock",
        "type": "Weir",
        "entity": "http://www.wikidata.org/entity/Q26440297",
        "country_qid": "Q145"
      }
    },
    {
      "type": "Feature",
      "geometry": {
        "type": "Point",
        "coordinates": [
          -1.475191,
          53.390271
        ]
      },
      "properties": {
        "label": "Kelham Weir",
        "type": "Weir",
        "entity": "http://www.wikidata.org/entity/Q26538916",
        "country_qid": "Q145"
      }
    },
    {
      "type": "Feature",
      "geometry": {
        "type": "Point",
        "coordinates": [
          -0.973776,
          52.185041
        ]
      },
      "properties": {
        "label": "The Weir",
        "type": "Weir",
        "entity": "http://www.wikidata.org/entity/Q26581683",
        "country_qid": "Q145"
      }
    },
    {
      "type": "Feature",
      "geometry": {
        "type": "Point",
        "coordinates": [
          -0.511699,
          53.32885
        ]
      },
      "properties": {
        "label": "Lake Abutment And Weir",
        "type": "Weir",
        "entity": "http://www.wikidata.org/entity/Q26459223",
        "country_qid": "Q145"
      }
    },
    {
      "type": "Feature",
      "geometry": {
        "type": "Point",
        "coordinates": [
          -1.571164,
          54.039203
        ]
      },
      "properties": {
        "label": "Weir, Stone Basin And Footbridge At Lake Outlet, Ripley Castle",
        "type": "Weir",
        "entity": "http://www.wikidata.org/entity/Q26443243",
        "country_qid": "Q145"
      }
    },
    {
      "type": "Feature",
      "geometry": {
        "type": "Point",
        "coordinates": [
          -3.1094109,
          52.71976
        ]
      },
      "properties": {
        "label": "Wern Outfall Weir, Wern Mill",
        "type": "Weir",
        "entity": "http://www.wikidata.org/entity/Q29493191",
        "country_qid": "Q145"
      }
    },
    {
      "type": "Feature",
      "geometry": {
        "type": "Point",
        "coordinates": [
          -1.63797,
          53.828267
        ]
      },
      "properties": {
        "label": "Weir And Retaining Walls On River Aire",
        "type": "Weir",
        "entity": "http://www.wikidata.org/entity/Q26656278",
        "country_qid": "Q145"
      }
    },
    {
      "type": "Feature",
      "geometry": {
        "type": "Point",
        "coordinates": [
          -3.1092269,
          52.718925
        ]
      },
      "properties": {
        "label": "Gauging Weir Structures at The Wern, Wern Mill",
        "type": "Weir",
        "entity": "http://www.wikidata.org/entity/Q29493193",
        "country_qid": "Q145"
      }
    },
    {
      "type": "Feature",
      "geometry": {
        "type": "Point",
        "coordinates": [
          -1.90342,
          52.983309
        ]
      },
      "properties": {
        "label": "Crumpwood Weir",
        "type": "Weir",
        "entity": "http://www.wikidata.org/entity/Q26670780",
        "country_qid": "Q145"
      }
    },
    {
      "type": "Feature",
      "geometry": {
        "type": "Point",
        "coordinates": [
          -1.48677,
          53.39771
        ]
      },
      "properties": {
        "label": "Sandbed Weir",
        "type": "Weir",
        "entity": "http://www.wikidata.org/entity/Q26539607",
        "country_qid": "Q145"
      }
    },
    {
      "type": "Feature",
      "geometry": {
        "type": "Point",
        "coordinates": [
          -2.283054,
          53.262069
        ]
      },
      "properties": {
        "label": "Weir At Astle Hall",
        "type": "Weir",
        "entity": "http://www.wikidata.org/entity/Q26432195",
        "country_qid": "Q145"
      }
    },
    {
      "type": "Feature",
      "geometry": {
        "type": "Point",
        "coordinates": [
          -2.253241,
          51.740046
        ]
      },
      "properties": {
        "label": "Spill Weir In The Grounds Of Bridge House",
        "type": "Weir",
        "entity": "http://www.wikidata.org/entity/Q26675415",
        "country_qid": "Q145"
      }
    },
    {
      "type": "Feature",
      "geometry": {
        "type": "Point",
        "coordinates": [
          -2.197612,
          53.178891
        ]
      },
      "properties": {
        "label": "Havannah Weir",
        "type": "Weir",
        "entity": "http://www.wikidata.org/entity/Q26432355",
        "country_qid": "Q145"
      }
    },
    {
      "type": "Feature",
      "geometry": {
        "type": "Point",
        "coordinates": [
          1.093408,
          52.115091
        ]
      },
      "properties": {
        "label": "Gipping Weir",
        "type": "Weir",
        "entity": "http://www.wikidata.org/entity/Q26553719",
        "country_qid": "Q145"
      }
    },
    {
      "type": "Feature",
      "geometry": {
        "type": "Point",
        "coordinates": [
          0.669597,
          51.760334
        ]
      },
      "properties": {
        "label": "Bridge/Weir At Langford Park Grove",
        "type": "Weir",
        "entity": "http://www.wikidata.org/entity/Q26529397",
        "country_qid": "Q145"
      }
    },
    {
      "type": "Feature",
      "geometry": {
        "type": "Point",
        "coordinates": [
          -2.716113,
          52.36386
        ]
      },
      "properties": {
        "label": "Ludford Mill Weir (that part in Ludlow civil parish)",
        "type": "Weir",
        "entity": "http://www.wikidata.org/entity/Q26534008",
        "country_qid": "Q145"
      }
    },
    {
      "type": "Feature",
      "geometry": {
        "type": "Point",
        "coordinates": [
          -2.72141,
          52.363696
        ]
      },
      "properties": {
        "label": "Weir On River Teme",
        "type": "Weir",
        "entity": "http://www.wikidata.org/entity/Q26498465",
        "country_qid": "Q145"
      }
    },
    {
      "type": "Feature",
      "geometry": {
        "type": "Point",
        "coordinates": [
          -4.127588,
          55.100045
        ]
      },
      "properties": {
        "label": "Grennan Mill, Weir",
        "type": "Weir",
        "entity": "http://www.wikidata.org/entity/Q114128329",
        "country_qid": "Q145"
      }
    },
    {
      "type": "Feature",
      "geometry": {
        "type": "Point",
        "coordinates": [
          -3.7479498,
          56.331133
        ]
      },
      "properties": {
        "label": "Mills of Earn, Weir",
        "type": "Weir",
        "entity": "http://www.wikidata.org/entity/Q114128380",
        "country_qid": "Q145"
      }
    },
    {
      "type": "Feature",
      "geometry": {
        "type": "Point",
        "coordinates": [
          -4.3094151,
          57.427166
        ]
      },
      "properties": {
        "label": "Caledonian Canal, Loch Darroch Weir",
        "type": "Weir",
        "entity": "http://www.wikidata.org/entity/Q114128273",
        "country_qid": "Q145"
      }
    },
    {
      "type": "Feature",
      "geometry": {
        "type": "Point",
        "coordinates": [
          -3.7401622,
          56.330614
        ]
      },
      "properties": {
        "label": "Millearne, Weir",
        "type": "Weir",
        "entity": "http://www.wikidata.org/entity/Q114128375",
        "country_qid": "Q145"
      }
    },
    {
      "type": "Feature",
      "geometry": {
        "type": "Point",
        "coordinates": [
          -4.368808,
          53.031482
        ]
      },
      "properties": {
        "label": "Gored Beuno",
        "type": "Weir",
        "entity": "http://www.wikidata.org/entity/Q65295445",
        "country_qid": "Q145"
      }
    },
    {
      "type": "Feature",
      "geometry": {
        "type": "Point",
        "coordinates": [
          -3.2669634,
          54.986547
        ]
      },
      "properties": {
        "label": "Annan, Weir",
        "type": "Weir",
        "entity": "http://www.wikidata.org/entity/Q114128252",
        "country_qid": "Q145"
      }
    },
    {
      "type": "Feature",
      "geometry": {
        "type": "Point",
        "coordinates": [
          -3.8108146,
          54.932982
        ]
      },
      "properties": {
        "label": "Dalbeattie, Barrbridge Mill, Weir",
        "type": "Weir",
        "entity": "http://www.wikidata.org/entity/Q114128285",
        "country_qid": "Q145"
      }
    },
    {
      "type": "Feature",
      "geometry": {
        "type": "Point",
        "coordinates": [
          -3.8950726,
          57.489965
        ]
      },
      "properties": {
        "label": "Clunas Reservoir, Overflow Weir",
        "type": "Weir",
        "entity": "http://www.wikidata.org/entity/Q114128278",
        "country_qid": "Q145"
      }
    },
    {
      "type": "Feature",
      "geometry": {
        "type": "Point",
        "coordinates": [
          -3.8758132,
          56.015732
        ]
      },
      "properties": {
        "label": "Dunipace, Weir",
        "type": "Weir",
        "entity": "http://www.wikidata.org/entity/Q114128297",
        "country_qid": "Q145"
      }
    },
    {
      "type": "Feature",
      "geometry": {
        "type": "Point",
        "coordinates": [
          -2.2413419,
          55.654678
        ]
      },
      "properties": {
        "label": "Coldstream, Weir",
        "type": "Weir",
        "entity": "http://www.wikidata.org/entity/Q114128280",
        "country_qid": "Q145"
      }
    },
    {
      "type": "Feature",
      "geometry": {
        "type": "Point",
        "coordinates": [
          -2.9662216,
          55.096545
        ]
      },
      "properties": {
        "label": "Hollows Mill, Weir",
        "type": "Weir",
        "entity": "http://www.wikidata.org/entity/Q114128333",
        "country_qid": "Q145"
      }
    },
    {
      "type": "Feature",
      "geometry": {
        "type": "Point",
        "coordinates": [
          -3.0556797,
          55.635528
        ]
      },
      "properties": {
        "label": "Innerleithen, Mills, Leithen Water, Weir",
        "type": "Weir",
        "entity": "http://www.wikidata.org/entity/Q114128339",
        "country_qid": "Q145"
      }
    },
    {
      "type": "Feature",
      "geometry": {
        "type": "Point",
        "coordinates": [
          -3.2198567,
          55.95237
        ]
      },
      "properties": {
        "label": "Edinburgh, Water of Leith, Damside",
        "type": "Weir",
        "entity": "http://www.wikidata.org/entity/Q114128309",
        "country_qid": "Q145"
      }
    },
    {
      "type": "Feature",
      "geometry": {
        "type": "Point",
        "coordinates": [
          -3.0633068,
          55.892037
        ]
      },
      "properties": {
        "label": "Dalkeith, Woodburn Saw Mill, Weir",
        "type": "Weir",
        "entity": "http://www.wikidata.org/entity/Q114128290",
        "country_qid": "Q145"
      }
    },
    {
      "type": "Feature",
      "geometry": {
        "type": "Point",
        "coordinates": [
          -3.0267076,
          56.194851
        ]
      },
      "properties": {
        "label": "Kirkland, Burn Mill Dam",
        "type": "Weir",
        "entity": "http://www.wikidata.org/entity/Q114128358",
        "country_qid": "Q145"
      }
    },
    {
      "type": "Feature",
      "geometry": {
        "type": "Point",
        "coordinates": [
          -3.3430628,
          56.601969
        ]
      },
      "properties": {
        "label": "Blairgowrie, Weir",
        "type": "Weir",
        "entity": "http://www.wikidata.org/entity/Q114128265",
        "country_qid": "Q145"
      }
    },
    {
      "type": "Feature",
      "geometry": {
        "type": "Point",
        "coordinates": [
          -4.9853439,
          56.909834
        ]
      },
      "properties": {
        "label": "Gairlochy, Mucomir Cut, Downstream Weir",
        "type": "Weir",
        "entity": "http://www.wikidata.org/entity/Q114128313",
        "country_qid": "Q145"
      }
    },
    {
      "type": "Feature",
      "geometry": {
        "type": "Point",
        "coordinates": [
          -3.8639761,
          56.013126
        ]
      },
      "properties": {
        "label": "Dunipace, Weir",
        "type": "Weir",
        "entity": "http://www.wikidata.org/entity/Q114128298",
        "country_qid": "Q145"
      }
    },
    {
      "type": "Feature",
      "geometry": {
        "type": "Point",
        "coordinates": [
          -2.4647872,
          55.542139
        ]
      },
      "properties": {
        "label": "Kalemouth, Weir",
        "type": "Weir",
        "entity": "http://www.wikidata.org/entity/Q114128353",
        "country_qid": "Q145"
      }
    },
    {
      "type": "Feature",
      "geometry": {
        "type": "Point",
        "coordinates": [
          -3.9513383,
          56.156062
        ]
      },
      "properties": {
        "label": "Bridge of Allan, Weir",
        "type": "Weir",
        "entity": "http://www.wikidata.org/entity/Q114128270",
        "country_qid": "Q145"
      }
    },
    {
      "type": "Feature",
      "geometry": {
        "type": "Point",
        "coordinates": [
          -3.6609992,
          55.097049
        ]
      },
      "properties": {
        "label": "East Cluden Mill, Weir",
        "type": "Weir",
        "entity": "http://www.wikidata.org/entity/Q114128300",
        "country_qid": "Q145"
      }
    },
    {
      "type": "Feature",
      "geometry": {
        "type": "Point",
        "coordinates": [
          -4.5784374,
          55.999155
        ]
      },
      "properties": {
        "label": "Balloch, River Leven Barrage",
        "type": "Weir",
        "entity": "http://www.wikidata.org/entity/Q114128245",
        "country_qid": "Q145"
      }
    },
    {
      "type": "Feature",
      "geometry": {
        "type": "Point",
        "coordinates": [
          -2.6553296,
          55.988517
        ]
      },
      "properties": {
        "label": "Houston Mill, Weir",
        "type": "Weir",
        "entity": "http://www.wikidata.org/entity/Q114128335",
        "country_qid": "Q145"
      }
    },
    {
      "type": "Feature",
      "geometry": {
        "type": "Point",
        "coordinates": [
          -3.6728103,
          58.605793
        ]
      },
      "properties": {
        "label": "Crosskirk Bay, weir",
        "type": "Weir",
        "entity": "http://www.wikidata.org/entity/Q114128282",
        "country_qid": "Q145"
      }
    },
    {
      "type": "Feature",
      "geometry": {
        "type": "Point",
        "coordinates": [
          -4.621834,
          55.459216
        ]
      },
      "properties": {
        "label": "Ayr, Mill Brae, Nether Mill, Weir",
        "type": "Weir",
        "entity": "http://www.wikidata.org/entity/Q114128256",
        "country_qid": "Q145"
      }
    },
    {
      "type": "Feature",
      "geometry": {
        "type": "Point",
        "coordinates": [
          -3.3565115,
          56.603611
        ]
      },
      "properties": {
        "label": "Lornty House, Weir",
        "type": "Weir",
        "entity": "http://www.wikidata.org/entity/Q114128362",
        "country_qid": "Q145"
      }
    },
    {
      "type": "Feature",
      "geometry": {
        "type": "Point",
        "coordinates": [
          -3.0424347,
          56.191817
        ]
      },
      "properties": {
        "label": "Kirkland, Kirkland Dam",
        "type": "Weir",
        "entity": "http://www.wikidata.org/entity/Q114128359",
        "country_qid": "Q145"
      }
    },
    {
      "type": "Feature",
      "geometry": {
        "type": "Point",
        "coordinates": [
          -4.2554729,
          55.733178
        ]
      },
      "properties": {
        "label": "Millhall Mill, Polnoon Water, Weir",
        "type": "Weir",
        "entity": "http://www.wikidata.org/entity/Q114128377",
        "country_qid": "Q145"
      }
    },
    {
      "type": "Feature",
      "geometry": {
        "type": "Point",
        "coordinates": [
          -3.0109635,
          55.150001
        ]
      },
      "properties": {
        "label": "Corse Holm, Caul",
        "type": "Weir",
        "entity": "http://www.wikidata.org/entity/Q114128281",
        "country_qid": "Q145"
      }
    },
    {
      "type": "Feature",
      "geometry": {
        "type": "Point",
        "coordinates": [
          -4.4812555,
          54.862889
        ]
      },
      "properties": {
        "label": "Bladnoch, Bladnoch Distillery, Weir",
        "type": "Weir",
        "entity": "http://www.wikidata.org/entity/Q114128263",
        "country_qid": "Q145"
      }
    },
    {
      "type": "Feature",
      "geometry": {
        "type": "Point",
        "coordinates": [
          -4.9851892,
          56.909954
        ]
      },
      "properties": {
        "label": "Gairlochy, Mucomir Cut, Upstream Weir",
        "type": "Weir",
        "entity": "http://www.wikidata.org/entity/Q114128314",
        "country_qid": "Q145"
      }
    },
    {
      "type": "Feature",
      "geometry": {
        "type": "Point",
        "coordinates": [
          -5.7431929,
          56.561921
        ]
      },
      "properties": {
        "label": "Achranich, weir",
        "type": "Weir",
        "entity": "http://www.wikidata.org/entity/Q114128240",
        "country_qid": "Q145"
      }
    },
    {
      "type": "Feature",
      "geometry": {
        "type": "Point",
        "coordinates": [
          -3.0813743,
          55.891996
        ]
      },
      "properties": {
        "label": "Dalkeith, Ironmills Park, Weir",
        "type": "Weir",
        "entity": "http://www.wikidata.org/entity/Q114128288",
        "country_qid": "Q145"
      }
    },
    {
      "type": "Feature",
      "geometry": {
        "type": "Point",
        "coordinates": [
          -5.2193488,
          56.438706
        ]
      },
      "properties": {
        "label": "Bonawe, River Awe, Weir",
        "type": "Weir",
        "entity": "http://www.wikidata.org/entity/Q114128268",
        "country_qid": "Q145"
      }
    },
    {
      "type": "Feature",
      "geometry": {
        "type": "Point",
        "coordinates": [
          -4.3316719,
          55.752615
        ]
      },
      "properties": {
        "label": "Blackhouse Farm",
        "type": "Weir",
        "entity": "http://www.wikidata.org/entity/Q114128260",
        "country_qid": "Q145"
      }
    },
    {
      "type": "Feature",
      "geometry": {
        "type": "Point",
        "coordinates": [
          -3.2441629,
          55.058282
        ]
      },
      "properties": {
        "label": "Mein Water, Caul",
        "type": "Weir",
        "entity": "http://www.wikidata.org/entity/Q114128370",
        "country_qid": "Q145"
      }
    },
    {
      "type": "Feature",
      "geometry": {
        "type": "Point",
        "coordinates": [
          -3.0558073,
          55.635545
        ]
      },
      "properties": {
        "label": "Weir, Leithen Water",
        "type": "Weir",
        "entity": "http://www.wikidata.org/entity/Q77778991",
        "country_qid": "Q145"
      }
    },
    {
      "type": "Feature",
      "geometry": {
        "type": "Point",
        "coordinates": [
          -4.3116574,
          54.853357
        ]
      },
      "properties": {
        "label": "Kirkdale Sawmill, Weir",
        "type": "Weir",
        "entity": "http://www.wikidata.org/entity/Q114128356",
        "country_qid": "Q145"
      }
    },
    {
      "type": "Feature",
      "geometry": {
        "type": "Point",
        "coordinates": [
          -3.3499852,
          56.603322
        ]
      },
      "properties": {
        "label": "Blairgowrie, Brooklinn Mill, Weir",
        "type": "Weir",
        "entity": "http://www.wikidata.org/entity/Q114128264",
        "country_qid": "Q145"
      }
    },
    {
      "type": "Feature",
      "geometry": {
        "type": "Point",
        "coordinates": [
          -4.3079935,
          55.900091
        ]
      },
      "properties": {
        "label": "Glasgow, Dawsholm, Weir",
        "type": "Weir",
        "entity": "http://www.wikidata.org/entity/Q114128322",
        "country_qid": "Q145"
      }
    },
    {
      "type": "Feature",
      "geometry": {
        "type": "Point",
        "coordinates": [
          -3.1899278,
          55.969178
        ]
      },
      "properties": {
        "label": "Edinburgh, Redbraes",
        "type": "Weir",
        "entity": "http://www.wikidata.org/entity/Q114128305",
        "country_qid": "Q145"
      }
    },
    {
      "type": "Feature",
      "geometry": {
        "type": "Point",
        "coordinates": [
          -2.6473782,
          56.723598
        ]
      },
      "properties": {
        "label": "Brechin, Weir",
        "type": "Weir",
        "entity": "http://www.wikidata.org/entity/Q114128269",
        "country_qid": "Q145"
      }
    },
    {
      "type": "Feature",
      "geometry": {
        "type": "Point",
        "coordinates": [
          -4.2850885,
          55.878921
        ]
      },
      "properties": {
        "label": "Glasgow, 125 Garriochmill Road, North Woodside Flint Mill, Weir",
        "type": "Weir",
        "entity": "http://www.wikidata.org/entity/Q114128320",
        "country_qid": "Q145"
      }
    },
    {
      "type": "Feature",
      "geometry": {
        "type": "Point",
        "coordinates": [
          -1.235523,
          51.711442
        ]
      },
      "properties": {
        "label": "Sandford Lasher",
        "type": "Weir",
        "entity": "http://www.wikidata.org/entity/Q110934614",
        "country_qid": "Q145"
      }
    },
    {
      "type": "Feature",
      "geometry": {
        "type": "Point",
        "coordinates": [
          -2.4564257,
          55.594556
        ]
      },
      "properties": {
        "label": "Castle Pool, Cauld",
        "type": "Weir",
        "entity": "http://www.wikidata.org/entity/Q114128274",
        "country_qid": "Q145"
      }
    },
    {
      "type": "Feature",
      "geometry": {
        "type": "Point",
        "coordinates": [
          -2.6775061,
          57.012667
        ]
      },
      "properties": {
        "label": "Finzean, Weir",
        "type": "Weir",
        "entity": "http://www.wikidata.org/entity/Q114128312",
        "country_qid": "Q145"
      }
    },
    {
      "type": "Feature",
      "geometry": {
        "type": "Point",
        "coordinates": [
          -2.7267176,
          55.602057
        ]
      },
      "properties": {
        "label": "Gattonside, Weir",
        "type": "Weir",
        "entity": "http://www.wikidata.org/entity/Q114128317",
        "country_qid": "Q145"
      }
    },
    {
      "type": "Feature",
      "geometry": {
        "type": "Point",
        "coordinates": [
          -4.3524043,
          55.903573
        ]
      },
      "properties": {
        "label": "Glasgow, Forth And Clyde Canal, Lock 31, Weir",
        "type": "Weir",
        "entity": "http://www.wikidata.org/entity/Q114128326",
        "country_qid": "Q145"
      }
    },
    {
      "type": "Feature",
      "geometry": {
        "type": "Point",
        "coordinates": [
          -4.9407199,
          56.248486
        ]
      },
      "properties": {
        "label": "Ardkinglas House, Weir",
        "type": "Weir",
        "entity": "http://www.wikidata.org/entity/Q114128253",
        "country_qid": "Q145"
      }
    },
    {
      "type": "Feature",
      "geometry": {
        "type": "Point",
        "coordinates": [
          -2.7823904,
          55.609056
        ]
      },
      "properties": {
        "label": "Galashiels, Gala Water, Weir",
        "type": "Weir",
        "entity": "http://www.wikidata.org/entity/Q114128316",
        "country_qid": "Q145"
      }
    },
    {
      "type": "Feature",
      "geometry": {
        "type": "Point",
        "coordinates": [
          -4.395108,
          55.809906
        ]
      },
      "properties": {
        "label": "Glasgow, Crookston Mill, Weir",
        "type": "Weir",
        "entity": "http://www.wikidata.org/entity/Q114128321",
        "country_qid": "Q145"
      }
    },
    {
      "type": "Feature",
      "geometry": {
        "type": "Point",
        "coordinates": [
          -3.2218054,
          55.950679
        ]
      },
      "properties": {
        "label": "Edinburgh, Belford Bridge, Weir",
        "type": "Weir",
        "entity": "http://www.wikidata.org/entity/Q114128302",
        "country_qid": "Q145"
      }
    },
    {
      "type": "Feature",
      "geometry": {
        "type": "Point",
        "coordinates": [
          -2.3003,
          51.3769
        ]
      },
      "properties": {
        "label": "Warleigh Weir",
        "type": "Weir",
        "entity": "http://www.wikidata.org/entity/Q84150287",
        "country_qid": "Q145"
      }
    },
    {
      "type": "Feature",
      "geometry": {
        "type": "Point",
        "coordinates": [
          -2.7777943,
          57.444726
        ]
      },
      "properties": {
        "label": "Huntly, Upstream Weir",
        "type": "Weir",
        "entity": "http://www.wikidata.org/entity/Q114128337",
        "country_qid": "Q145"
      }
    },
    {
      "type": "Feature",
      "geometry": {
        "type": "Point",
        "coordinates": [
          -4.5404865,
          54.855138
        ]
      },
      "properties": {
        "label": "Malzie Smithy, Weir",
        "type": "Weir",
        "entity": "http://www.wikidata.org/entity/Q114128369",
        "country_qid": "Q145"
      }
    },
    {
      "type": "Feature",
      "geometry": {
        "type": "Point",
        "coordinates": [
          -2.7769868,
          57.445144
        ]
      },
      "properties": {
        "label": "Huntly, Downstream Weir",
        "type": "Weir",
        "entity": "http://www.wikidata.org/entity/Q114128336",
        "country_qid": "Q145"
      }
    },
    {
      "type": "Feature",
      "geometry": {
        "type": "Point",
        "coordinates": [
          -2.5281052,
          57.651667
        ]
      },
      "properties": {
        "label": "Danes Dyke",
        "type": "Weir",
        "entity": "http://www.wikidata.org/entity/Q114128247",
        "country_qid": "Q145"
      }
    },
    {
      "type": "Feature",
      "geometry": {
        "type": "Point",
        "coordinates": [
          -2.9662785,
          55.095655
        ]
      },
      "properties": {
        "label": "Hollows Mill, Lade",
        "type": "Weir",
        "entity": "http://www.wikidata.org/entity/Q114128332",
        "country_qid": "Q145"
      }
    },
    {
      "type": "Feature",
      "geometry": {
        "type": "Point",
        "coordinates": [
          -2.2436946,
          55.777374
        ]
      },
      "properties": {
        "label": "Blackadder Water, Blackadder Mount,  Weir",
        "type": "Weir",
        "entity": "http://www.wikidata.org/entity/Q114128259",
        "country_qid": "Q145"
      }
    },
    {
      "type": "Feature",
      "geometry": {
        "type": "Point",
        "coordinates": [
          -3.2673172,
          55.002235
        ]
      },
      "properties": {
        "label": "Annan, Gala Bank, Newbie Mill, Weir",
        "type": "Weir",
        "entity": "http://www.wikidata.org/entity/Q114128251",
        "country_qid": "Q145"
      }
    },
    {
      "type": "Feature",
      "geometry": {
        "type": "Point",
        "coordinates": [
          -2.6231017,
          55.582464
        ]
      },
      "properties": {
        "label": "Mertoun Mill, Caul",
        "type": "Weir",
        "entity": "http://www.wikidata.org/entity/Q114128373",
        "country_qid": "Q145"
      }
    },
    {
      "type": "Feature",
      "geometry": {
        "type": "Point",
        "coordinates": [
          -3.291163,
          58.297747
        ]
      },
      "properties": {
        "label": "Lybster Harbour, Weir",
        "type": "Weir",
        "entity": "http://www.wikidata.org/entity/Q114128367",
        "country_qid": "Q145"
      }
    },
    {
      "type": "Feature",
      "geometry": {
        "type": "Point",
        "coordinates": [
          -2.6530376,
          55.991378
        ]
      },
      "properties": {
        "label": "East Linton, Preston Mill, Weir",
        "type": "Weir",
        "entity": "http://www.wikidata.org/entity/Q114128301",
        "country_qid": "Q145"
      }
    },
    {
      "type": "Feature",
      "geometry": {
        "type": "Point",
        "coordinates": [
          -4.8124819,
          57.037417
        ]
      },
      "properties": {
        "label": "Caledonian Canal, Allt-An-Lagain Weir",
        "type": "Weir",
        "entity": "http://www.wikidata.org/entity/Q114128272",
        "country_qid": "Q145"
      }
    },
    {
      "type": "Feature",
      "geometry": {
        "type": "Point",
        "coordinates": [
          -4.3002345,
          55.891168
        ]
      },
      "properties": {
        "label": "Glasgow, Kelvindale Road, Kelvindale Paper Mill, Weir",
        "type": "Weir",
        "entity": "http://www.wikidata.org/entity/Q114128327",
        "country_qid": "Q145"
      }
    },
    {
      "type": "Feature",
      "geometry": {
        "type": "Point",
        "coordinates": [
          -4.8200254,
          54.877669
        ]
      },
      "properties": {
        "label": "Luce Viaduct, Weir",
        "type": "Weir",
        "entity": "http://www.wikidata.org/entity/Q114128363",
        "country_qid": "Q145"
      }
    },
    {
      "type": "Feature",
      "geometry": {
        "type": "Point",
        "coordinates": [
          -4.3207887,
          55.507362
        ]
      },
      "properties": {
        "label": "Catrine Mill, Water Works, Weir",
        "type": "Weir",
        "entity": "http://www.wikidata.org/entity/Q114128275",
        "country_qid": "Q145"
      }
    },
    {
      "type": "Feature",
      "geometry": {
        "type": "Point",
        "coordinates": [
          -3.049228,
          55.948011
        ]
      },
      "properties": {
        "label": "Musselburgh, Goose Green, Weir",
        "type": "Weir",
        "entity": "http://www.wikidata.org/entity/Q114128381",
        "country_qid": "Q145"
      }
    },
    {
      "type": "Feature",
      "geometry": {
        "type": "Point",
        "coordinates": [
          -3.2479756,
          55.932841
        ]
      },
      "properties": {
        "label": "Edinburgh, Saughton Park, Weir",
        "type": "Weir",
        "entity": "http://www.wikidata.org/entity/Q114128307",
        "country_qid": "Q145"
      }
    },
    {
      "type": "Feature",
      "geometry": {
        "type": "Point",
        "coordinates": [
          -2.4687144,
          55.576512
        ]
      },
      "properties": {
        "label": "Heiton Mill, Watermill, weir",
        "type": "Weir",
        "entity": "http://www.wikidata.org/entity/Q114128331",
        "country_qid": "Q145"
      }
    },
    {
      "type": "Feature",
      "geometry": {
        "type": "Point",
        "coordinates": [
          -4.8106455,
          57.070488
        ]
      },
      "properties": {
        "label": "Invergarry, Aldernaig Mill, Weir",
        "type": "Weir",
        "entity": "http://www.wikidata.org/entity/Q114128341",
        "country_qid": "Q145"
      }
    },
    {
      "type": "Feature",
      "geometry": {
        "type": "Point",
        "coordinates": [
          -4.3592633,
          55.792533
        ]
      },
      "properties": {
        "label": "Gorbals Water Works, Waulkmill Glen, Brock Burn Compensation Supply Weir",
        "type": "Weir",
        "entity": "http://www.wikidata.org/entity/Q114128328",
        "country_qid": "Q145"
      }
    },
    {
      "type": "Feature",
      "geometry": {
        "type": "Point",
        "coordinates": [
          -4.1814278,
          56.953056
        ]
      },
      "properties": {
        "label": "Cuaich Weir",
        "type": "Weir",
        "entity": "http://www.wikidata.org/entity/Q114128283",
        "country_qid": "Q145"
      }
    },
    {
      "type": "Feature",
      "geometry": {
        "type": "Point",
        "coordinates": [
          -4.4279005,
          57.598429
        ]
      },
      "properties": {
        "label": "Dingwall, Weir",
        "type": "Weir",
        "entity": "http://www.wikidata.org/entity/Q114128246",
        "country_qid": "Q145"
      }
    },
    {
      "type": "Feature",
      "geometry": {
        "type": "Point",
        "coordinates": [
          -6.2500657,
          55.781572
        ]
      },
      "properties": {
        "label": "Islay, Bridgend, Weir",
        "type": "Weir",
        "entity": "http://www.wikidata.org/entity/Q114128352",
        "country_qid": "Q145"
      }
    },
    {
      "type": "Feature",
      "geometry": {
        "type": "Point",
        "coordinates": [
          -3.6844445,
          55.997827
        ]
      },
      "properties": {
        "label": "Inveravon, weir",
        "type": "Weir",
        "entity": "http://www.wikidata.org/entity/Q114128340",
        "country_qid": "Q145"
      }
    },
    {
      "type": "Feature",
      "geometry": {
        "type": "Point",
        "coordinates": [
          -4.081825,
          55.801051
        ]
      },
      "properties": {
        "label": "Blantyre Mills, Weir",
        "type": "Weir",
        "entity": "http://www.wikidata.org/entity/Q114128241",
        "country_qid": "Q145"
      }
    },
    {
      "type": "Feature",
      "geometry": {
        "type": "Point",
        "coordinates": [
          -4.6472654,
          55.43269
        ]
      },
      "properties": {
        "label": "Ayr, Alloway Mill, Weir",
        "type": "Weir",
        "entity": "http://www.wikidata.org/entity/Q114128255",
        "country_qid": "Q145"
      }
    },
    {
      "type": "Feature",
      "geometry": {
        "type": "Point",
        "coordinates": [
          -4.7461154,
          57.091269
        ]
      },
      "properties": {
        "label": "Aberchalder Weir",
        "type": "Weir",
        "entity": "http://www.wikidata.org/entity/Q114128248",
        "country_qid": "Q145"
      }
    },
    {
      "type": "Feature",
      "geometry": {
        "type": "Point",
        "coordinates": [
          -2.1760516,
          55.787687
        ]
      },
      "properties": {
        "label": "Edington Mill, Weir",
        "type": "Weir",
        "entity": "http://www.wikidata.org/entity/Q114128310",
        "country_qid": "Q145"
      }
    },
    {
      "type": "Feature",
      "geometry": {
        "type": "Point",
        "coordinates": [
          -3.9166039,
          54.989871
        ]
      },
      "properties": {
        "label": "Dubbidale Mill, Weir",
        "type": "Weir",
        "entity": "http://www.wikidata.org/entity/Q114128294",
        "country_qid": "Q145"
      }
    },
    {
      "type": "Feature",
      "geometry": {
        "type": "Point",
        "coordinates": [
          -2.2334253,
          57.090802
        ]
      },
      "properties": {
        "label": "Kingcausie, Weir",
        "type": "Weir",
        "entity": "http://www.wikidata.org/entity/Q114128355",
        "country_qid": "Q145"
      }
    },
    {
      "type": "Feature",
      "geometry": {
        "type": "Point",
        "coordinates": [
          -3.7124993,
          55.656226
        ]
      },
      "properties": {
        "label": "Carmichael Mill, Weir",
        "type": "Weir",
        "entity": "http://www.wikidata.org/entity/Q114128242",
        "country_qid": "Q145"
      }
    },
    {
      "type": "Feature",
      "geometry": {
        "type": "Point",
        "coordinates": [
          -4.6753125,
          55.621251
        ]
      },
      "properties": {
        "label": "Irvine, Weir",
        "type": "Weir",
        "entity": "http://www.wikidata.org/entity/Q114128351",
        "country_qid": "Q145"
      }
    },
    {
      "type": "Feature",
      "geometry": {
        "type": "Point",
        "coordinates": [
          -2.20741,
          52.51969
        ]
      },
      "properties": {
        "label": "Botterham bridge and locks with adjacent circular weir",
        "type": "Weir",
        "entity": "http://www.wikidata.org/entity/Q106399248",
        "country_qid": "Q145"
      }
    },
    {
      "type": "Feature",
      "geometry": {
        "type": "Point",
        "coordinates": [
          -3.8087221,
          54.932267
        ]
      },
      "properties": {
        "label": "Dalbeattie, Maidenholm Forge, Weir",
        "type": "Weir",
        "entity": "http://www.wikidata.org/entity/Q114128287",
        "country_qid": "Q145"
      }
    },
    {
      "type": "Feature",
      "geometry": {
        "type": "Point",
        "coordinates": [
          -4.3567588,
          55.462633
        ]
      },
      "properties": {
        "label": "Lugar Water, Weir",
        "type": "Weir",
        "entity": "http://www.wikidata.org/entity/Q114128365",
        "country_qid": "Q145"
      }
    },
    {
      "type": "Feature",
      "geometry": {
        "type": "Point",
        "coordinates": [
          -3.6130624,
          55.072259
        ]
      },
      "properties": {
        "label": "Dumfries, Stakeford Caul",
        "type": "Weir",
        "entity": "http://www.wikidata.org/entity/Q114128296",
        "country_qid": "Q145"
      }
    },
    {
      "type": "Feature",
      "geometry": {
        "type": "Point",
        "coordinates": [
          -2.7565709,
          55.960677
        ]
      },
      "properties": {
        "label": "Amisfield Park, The Cascade",
        "type": "Weir",
        "entity": "http://www.wikidata.org/entity/Q114128250",
        "country_qid": "Q145"
      }
    },
    {
      "type": "Feature",
      "geometry": {
        "type": "Point",
        "coordinates": [
          -4.4744979,
          55.479939
        ]
      },
      "properties": {
        "label": "Dalmore, Water of Ayr And Tam O'shanter Hone Works, Weir",
        "type": "Weir",
        "entity": "http://www.wikidata.org/entity/Q114128292",
        "country_qid": "Q145"
      }
    },
    {
      "type": "Feature",
      "geometry": {
        "type": "Point",
        "coordinates": [
          -4.2313221,
          57.462979
        ]
      },
      "properties": {
        "label": "Inverness, Ness Islands, Weir",
        "type": "Weir",
        "entity": "http://www.wikidata.org/entity/Q114128346",
        "country_qid": "Q145"
      }
    },
    {
      "type": "Feature",
      "geometry": {
        "type": "Point",
        "coordinates": [
          -4.2320254,
          57.462481
        ]
      },
      "properties": {
        "label": "Inverness, Ness Islands, Weir",
        "type": "Weir",
        "entity": "http://www.wikidata.org/entity/Q114128350",
        "country_qid": "Q145"
      }
    },
    {
      "type": "Feature",
      "geometry": {
        "type": "Point",
        "coordinates": [
          -4.2314638,
          57.462842
        ]
      },
      "properties": {
        "label": "Inverness, Ness Islands, Weir",
        "type": "Weir",
        "entity": "http://www.wikidata.org/entity/Q114128348",
        "country_qid": "Q145"
      }
    },
    {
      "type": "Feature",
      "geometry": {
        "type": "Point",
        "coordinates": [
          -4.2309655,
          57.463147
        ]
      },
      "properties": {
        "label": "Inverness, Ness Islands, Weir",
        "type": "Weir",
        "entity": "http://www.wikidata.org/entity/Q114128343",
        "country_qid": "Q145"
      }
    },
    {
      "type": "Feature",
      "geometry": {
        "type": "Point",
        "coordinates": [
          -2.2441424,
          55.800536
        ]
      },
      "properties": {
        "label": "Chirnsidebridge Paper Mill, Weir",
        "type": "Weir",
        "entity": "http://www.wikidata.org/entity/Q114128276",
        "country_qid": "Q145"
      }
    },
    {
      "type": "Feature",
      "geometry": {
        "type": "Point",
        "coordinates": [
          -4.2303075,
          57.463294
        ]
      },
      "properties": {
        "label": "Inverness, Ness Islands, Weir",
        "type": "Weir",
        "entity": "http://www.wikidata.org/entity/Q114128345",
        "country_qid": "Q145"
      }
    },
    {
      "type": "Feature",
      "geometry": {
        "type": "Point",
        "coordinates": [
          -6.8822745,
          58.087549
        ]
      },
      "properties": {
        "label": "Loch Cragach",
        "type": "Weir",
        "entity": "http://www.wikidata.org/entity/Q114128360",
        "country_qid": "Q145"
      }
    },
    {
      "type": "Feature",
      "geometry": {
        "type": "Point",
        "coordinates": [
          -3.7075592,
          55.657032
        ]
      },
      "properties": {
        "label": "Millhill Mill, Weir",
        "type": "Weir",
        "entity": "http://www.wikidata.org/entity/Q114128243",
        "country_qid": "Q145"
      }
    },
    {
      "type": "Feature",
      "geometry": {
        "type": "Point",
        "coordinates": [
          -2.8535996,
          55.548287
        ]
      },
      "properties": {
        "label": "Selkirk, weir",
        "type": "Weir",
        "entity": "http://www.wikidata.org/entity/Q114128244",
        "country_qid": "Q145"
      }
    },
    {
      "type": "Feature",
      "geometry": {
        "type": "Point",
        "coordinates": [
          -4.5886189,
          55.459294
        ]
      },
      "properties": {
        "label": "Ayr, Overmills, Weir",
        "type": "Weir",
        "entity": "http://www.wikidata.org/entity/Q114128257",
        "country_qid": "Q145"
      }
    },
    {
      "type": "Feature",
      "geometry": {
        "type": "Point",
        "coordinates": [
          0.877045,
          51.7367
        ]
      },
      "properties": {
        "label": "Coastal fish weir 440m north west of Pewet Island",
        "type": "Weir",
        "entity": "http://www.wikidata.org/entity/Q17665131",
        "country_qid": "Q145"
      }
    },
    {
      "type": "Feature",
      "geometry": {
        "type": "Point",
        "coordinates": [
          -4.0788529,
          53.278284
        ]
      },
      "properties": {
        "label": "Gorad Friars Bach Fish Weir",
        "type": "Weir",
        "entity": "http://www.wikidata.org/entity/Q122221203",
        "country_qid": "Q145"
      }
    },
    {
      "type": "Feature",
      "geometry": {
        "type": "Point",
        "coordinates": [
          -4.24574,
          55.852
        ]
      },
      "properties": {
        "label": "Tidal Weir, Glasgow Green, Glasgow",
        "type": "Weir",
        "entity": "http://www.wikidata.org/entity/Q17813908",
        "country_qid": "Q145"
      }
    },
    {
      "type": "Feature",
      "geometry": {
        "type": "Point",
        "coordinates": [
          -0.829290747,
          51.292156786
        ]
      },
      "properties": {
        "label": "Fleet Pond Weir",
        "type": "Weir",
        "entity": "http://www.wikidata.org/entity/Q127607316",
        "country_qid": "Q145"
      }
    },
    {
      "type": "Feature",
      "geometry": {
        "type": "Point",
        "coordinates": [
          -3.773784,
          55.646871
        ]
      },
      "properties": {
        "label": "Bonnington Linn Weir",
        "type": "Weir",
        "entity": "http://www.wikidata.org/entity/Q124784347",
        "country_qid": "Q145"
      }
    },
    {
      "type": "Feature",
      "geometry": {
        "type": "Point",
        "coordinates": [
          -5.6003738,
          57.762304
        ]
      },
      "properties": {
        "label": "River Ewe, weir",
        "type": "Weir",
        "entity": "http://www.wikidata.org/entity/Q114128403",
        "country_qid": "Q145"
      }
    },
    {
      "type": "Feature",
      "geometry": {
        "type": "Point",
        "coordinates": [
          -3.8158443,
          55.165111
        ]
      },
      "properties": {
        "label": "Snade Mill, Caul",
        "type": "Weir",
        "entity": "http://www.wikidata.org/entity/Q114128409",
        "country_qid": "Q145"
      }
    },
    {
      "type": "Feature",
      "geometry": {
        "type": "Point",
        "coordinates": [
          -4.0930117,
          53.24051
        ]
      },
      "properties": {
        "label": "Ogwen Fish Weir",
        "type": "Weir",
        "entity": "http://www.wikidata.org/entity/Q122221148",
        "country_qid": "Q145"
      }
    },
    {
      "type": "Feature",
      "geometry": {
        "type": "Point",
        "coordinates": [
          -2.8879,
          53.1862
        ]
      },
      "properties": {
        "label": "Chester Weir",
        "type": "Weir",
        "entity": "http://www.wikidata.org/entity/Q5093760",
        "country_qid": "Q145"
      }
    },
    {
      "type": "Feature",
      "geometry": {
        "type": "Point",
        "coordinates": [
          -4.2550999,
          53.360482
        ]
      },
      "properties": {
        "label": "Traeth Lligwy Fish Weir",
        "type": "Weir",
        "entity": "http://www.wikidata.org/entity/Q122221180",
        "country_qid": "Q145"
      }
    },
    {
      "type": "Feature",
      "geometry": {
        "type": "Point",
        "coordinates": [
          -0.8871,
          51.528
        ]
      },
      "properties": {
        "label": "Marsh Lock",
        "type": "Weir",
        "entity": "http://www.wikidata.org/entity/Q6773332",
        "country_qid": "Q145"
      }
    },
    {
      "type": "Feature",
      "geometry": {
        "type": "Point",
        "coordinates": [
          -4.1842391,
          53.218797
        ]
      },
      "properties": {
        "label": "Coed Mor Fish Weir",
        "type": "Weir",
        "entity": "http://www.wikidata.org/entity/Q122221181",
        "country_qid": "Q145"
      }
    },
    {
      "type": "Feature",
      "geometry": {
        "type": "Point",
        "coordinates": [
          -4.4655469,
          55.603583
        ]
      },
      "properties": {
        "label": "Riccarton Mill, Weir",
        "type": "Weir",
        "entity": "http://www.wikidata.org/entity/Q114128397",
        "country_qid": "Q145"
      }
    },
    {
      "type": "Feature",
      "geometry": {
        "type": "Point",
        "coordinates": [
          -0.3239,
          51.4315
        ]
      },
      "properties": {
        "label": "Teddington Lock",
        "type": "Weir",
        "entity": "http://www.wikidata.org/entity/Q1610051",
        "country_qid": "Q145"
      }
    },
    {
      "type": "Feature",
      "geometry": {
        "type": "Point",
        "coordinates": [
          -3.0602167,
          55.934088
        ]
      },
      "properties": {
        "label": "River Esk, Inveresk, Weir",
        "type": "Weir",
        "entity": "http://www.wikidata.org/entity/Q114128398",
        "country_qid": "Q145"
      }
    },
    {
      "type": "Feature",
      "geometry": {
        "type": "Point",
        "coordinates": [
          -3.3004744,
          55.91837
        ]
      },
      "properties": {
        "label": "Union Canal, Calder Weir, Edinburgh",
        "type": "Weir",
        "entity": "http://www.wikidata.org/entity/Q114128421",
        "country_qid": "Q145"
      }
    },
    {
      "type": "Feature",
      "geometry": {
        "type": "Point",
        "coordinates": [
          -3.6756239,
          54.90511
        ]
      },
      "properties": {
        "label": "Southwick Mill, Weir",
        "type": "Weir",
        "entity": "http://www.wikidata.org/entity/Q114128410",
        "country_qid": "Q145"
      }
    },
    {
      "type": "Feature",
      "geometry": {
        "type": "Point",
        "coordinates": [
          -4.152,
          55.8283
        ]
      },
      "properties": {
        "label": "Carmyle Weir",
        "type": "Weir",
        "entity": "http://www.wikidata.org/entity/Q130633163",
        "country_qid": "Q145"
      }
    },
    {
      "type": "Feature",
      "geometry": {
        "type": "Point",
        "coordinates": [
          0.911702,
          51.77
        ]
      },
      "properties": {
        "label": "Coastal fish weirs at West Mersea, 570m south east of St Peter's Well",
        "type": "Weir",
        "entity": "http://www.wikidata.org/entity/Q17665125",
        "country_qid": "Q145"
      }
    },
    {
      "type": "Feature",
      "geometry": {
        "type": "Point",
        "coordinates": [
          -4.5646786,
          53.295632
        ]
      },
      "properties": {
        "label": "Newlands Fish Weir",
        "type": "Weir",
        "entity": "http://www.wikidata.org/entity/Q122221189",
        "country_qid": "Q145"
      }
    },
    {
      "type": "Feature",
      "geometry": {
        "type": "Point",
        "coordinates": [
          -4.18094,
          53.2186
        ]
      },
      "properties": {
        "label": "Ynys Gored Goch",
        "type": "Weir",
        "entity": "http://www.wikidata.org/entity/Q3397534",
        "country_qid": "Q145"
      }
    },
    {
      "type": "Feature",
      "geometry": {
        "type": "Point",
        "coordinates": [
          -2.43952,
          55.6
        ]
      },
      "properties": {
        "label": "Cauld On River Tweed, Kelso",
        "type": "Weir",
        "entity": "http://www.wikidata.org/entity/Q17840635",
        "country_qid": "Q145"
      }
    },
    {
      "type": "Feature",
      "geometry": {
        "type": "Point",
        "coordinates": [
          -3.0496578,
          56.295154
        ]
      },
      "properties": {
        "label": "Springfield, Russell Mills, Weir",
        "type": "Weir",
        "entity": "http://www.wikidata.org/entity/Q114128412",
        "country_qid": "Q145"
      }
    },
    {
      "type": "Feature",
      "geometry": {
        "type": "Point",
        "coordinates": [
          -4.0672623,
          53.289868
        ]
      },
      "properties": {
        "label": "Aberlleiniog Fish Weir I",
        "type": "Weir",
        "entity": "http://www.wikidata.org/entity/Q122221173",
        "country_qid": "Q145"
      }
    },
    {
      "type": "Feature",
      "geometry": {
        "type": "Point",
        "coordinates": [
          -1.63211,
          53.2714
        ]
      },
      "properties": {
        "label": "Calver weir and water management system 200m north east of Stocking Farm",
        "type": "Weir",
        "entity": "http://www.wikidata.org/entity/Q17664178",
        "country_qid": "Q145"
      }
    },
    {
      "type": "Feature",
      "geometry": {
        "type": "Point",
        "coordinates": [
          -4.0699475,
          53.286135
        ]
      },
      "properties": {
        "label": "Trecastell Fish Weir",
        "type": "Weir",
        "entity": "http://www.wikidata.org/entity/Q122221191",
        "country_qid": "Q145"
      }
    },
    {
      "type": "Feature",
      "geometry": {
        "type": "Point",
        "coordinates": [
          -0.086657,
          51.787037
        ]
      },
      "properties": {
        "label": "Hertford Castle Weir",
        "type": "Weir",
        "entity": "http://www.wikidata.org/entity/Q15223749",
        "country_qid": "Q145"
      }
    },
    {
      "type": "Feature",
      "geometry": {
        "type": "Point",
        "coordinates": [
          -5.92,
          54.6009
        ]
      },
      "properties": {
        "label": "Lagan Weir",
        "type": "Weir",
        "entity": "http://www.wikidata.org/entity/Q6471869",
        "country_qid": "Q145"
      }
    },
    {
      "type": "Feature",
      "geometry": {
        "type": "Point",
        "coordinates": [
          -2.4767974,
          55.559013
        ]
      },
      "properties": {
        "label": "Sunlaws, Weir",
        "type": "Weir",
        "entity": "http://www.wikidata.org/entity/Q114128416",
        "country_qid": "Q145"
      }
    },
    {
      "type": "Feature",
      "geometry": {
        "type": "Point",
        "coordinates": [
          -3.0900695,
          58.441939
        ]
      },
      "properties": {
        "label": "Wick, Weir",
        "type": "Weir",
        "entity": "http://www.wikidata.org/entity/Q114128540",
        "country_qid": "Q145"
      }
    },
    {
      "type": "Feature",
      "geometry": {
        "type": "Point",
        "coordinates": [
          -3.9171151,
          54.990429
        ]
      },
      "properties": {
        "label": "Old Bridge of Urr, Watermill, Weir",
        "type": "Weir",
        "entity": "http://www.wikidata.org/entity/Q114128387",
        "country_qid": "Q145"
      }
    },
    {
      "type": "Feature",
      "geometry": {
        "type": "Point",
        "coordinates": [
          -2.270141,
          55.659676
        ]
      },
      "properties": {
        "label": "The Hirsel, Caul",
        "type": "Weir",
        "entity": "http://www.wikidata.org/entity/Q114128420",
        "country_qid": "Q145"
      }
    },
    {
      "type": "Feature",
      "geometry": {
        "type": "Point",
        "coordinates": [
          -5.5967856,
          57.758361
        ]
      },
      "properties": {
        "label": "River Ewe, weir",
        "type": "Weir",
        "entity": "http://www.wikidata.org/entity/Q114128399",
        "country_qid": "Q145"
      }
    },
    {
      "type": "Feature",
      "geometry": {
        "type": "Point",
        "coordinates": [
          -3.77994,
          55.6593
        ]
      },
      "properties": {
        "label": "Weir, River Clyde, New Lanark",
        "type": "Weir",
        "entity": "http://www.wikidata.org/entity/Q17571809",
        "country_qid": "Q145"
      }
    },
    {
      "type": "Feature",
      "geometry": {
        "type": "Point",
        "coordinates": [
          -3.1416995,
          55.868413
        ]
      },
      "properties": {
        "label": "Polton, Springfield Paper Mill, Weir",
        "type": "Weir",
        "entity": "http://www.wikidata.org/entity/Q114128394",
        "country_qid": "Q145"
      }
    },
    {
      "type": "Feature",
      "geometry": {
        "type": "Point",
        "coordinates": [
          -2.1977002,
          55.786459
        ]
      },
      "properties": {
        "label": "Whitehall, Weir",
        "type": "Weir",
        "entity": "http://www.wikidata.org/entity/Q114128432",
        "country_qid": "Q145"
      }
    },
    {
      "type": "Feature",
      "geometry": {
        "type": "Point",
        "coordinates": [
          -3.9818474,
          54.9597212
        ]
      },
      "properties": {
        "label": "Glenlochar Barrage",
        "type": "Weir",
        "entity": "http://www.wikidata.org/entity/Q128221714",
        "country_qid": "Q145"
      }
    },
    {
      "type": "Feature",
      "geometry": {
        "type": "Point",
        "coordinates": [
          -3.095553,
          58.442183
        ]
      },
      "properties": {
        "label": "Wick, Weir",
        "type": "Weir",
        "entity": "http://www.wikidata.org/entity/Q114128437",
        "country_qid": "Q145"
      }
    },
    {
      "type": "Feature",
      "geometry": {
        "type": "Point",
        "coordinates": [
          -4.3152087,
          53.123033
        ]
      },
      "properties": {
        "label": "Cored Gwyrfai Fish Weir",
        "type": "Weir",
        "entity": "http://www.wikidata.org/entity/Q122221190",
        "country_qid": "Q145"
      }
    },
    {
      "type": "Feature",
      "geometry": {
        "type": "Point",
        "coordinates": [
          -0.013116,
          51.7281
        ]
      },
      "properties": {
        "label": "Kings Weir",
        "type": "Weir",
        "entity": "http://www.wikidata.org/entity/Q6413032",
        "country_qid": "Q145"
      }
    },
    {
      "type": "Feature",
      "geometry": {
        "type": "Point",
        "coordinates": [
          -3.6627599,
          55.097932
        ]
      },
      "properties": {
        "label": "West Cluden Mill, Weir",
        "type": "Weir",
        "entity": "http://www.wikidata.org/entity/Q114128428",
        "country_qid": "Q145"
      }
    },
    {
      "type": "Feature",
      "geometry": {
        "type": "Point",
        "coordinates": [
          0.896114,
          51.7623
        ]
      },
      "properties": {
        "label": "Coastal fish weir at the northern end of The Nass",
        "type": "Weir",
        "entity": "http://www.wikidata.org/entity/Q17677459",
        "country_qid": "Q145"
      }
    },
    {
      "type": "Feature",
      "geometry": {
        "type": "Point",
        "coordinates": [
          -4.3168,
          55.8258
        ]
      },
      "properties": {
        "label": "Weir, Pollok House, Pollok Park, Pollokshaws Road, Glasgow",
        "type": "Weir",
        "entity": "http://www.wikidata.org/entity/Q17813611",
        "country_qid": "Q145"
      }
    },
    {
      "type": "Feature",
      "geometry": {
        "type": "Point",
        "coordinates": [
          -4.2407559,
          52.250452
        ]
      },
      "properties": {
        "label": "Fish traps on Beach SW of Aberarth",
        "type": "Weir",
        "entity": "http://www.wikidata.org/entity/Q122221727",
        "country_qid": "Q145"
      }
    },
    {
      "type": "Feature",
      "geometry": {
        "type": "Point",
        "coordinates": [
          -4.1796065,
          53.221372
        ]
      },
      "properties": {
        "label": "Gorad Ddu Fish Weir",
        "type": "Weir",
        "entity": "http://www.wikidata.org/entity/Q122221182",
        "country_qid": "Q145"
      }
    },
    {
      "type": "Feature",
      "geometry": {
        "type": "Point",
        "coordinates": [
          -4.63606,
          55.7997
        ]
      },
      "properties": {
        "label": "Weir, Lochwinnoch",
        "type": "Weir",
        "entity": "http://www.wikidata.org/entity/Q17840770",
        "country_qid": "Q145"
      }
    },
    {
      "type": "Feature",
      "geometry": {
        "type": "Point",
        "coordinates": [
          -0.9641,
          51.4607
        ]
      },
      "properties": {
        "label": "Caversham Lock and Weir",
        "type": "Weir",
        "entity": "http://www.wikidata.org/entity/Q5055088",
        "country_qid": "Q145"
      }
    },
    {
      "type": "Feature",
      "geometry": {
        "type": "Point",
        "coordinates": [
          -3.822159,
          55.676126
        ]
      },
      "properties": {
        "label": "Stonebyres Hydoelectric Scheme weir",
        "type": "Weir",
        "entity": "http://www.wikidata.org/entity/Q124779646",
        "country_qid": "Q145"
      }
    },
    {
      "type": "Feature",
      "geometry": {
        "type": "Point",
        "coordinates": [
          -4.3056988,
          55.897276
        ]
      },
      "properties": {
        "label": "Glasgow, Dawsholm, Weir",
        "type": "Weir",
        "entity": "http://www.wikidata.org/entity/Q114128543",
        "country_qid": "Q145"
      }
    },
    {
      "type": "Feature",
      "geometry": {
        "type": "Point",
        "coordinates": [
          -5.5967545,
          57.759908
        ]
      },
      "properties": {
        "label": "River Ewe, weir",
        "type": "Weir",
        "entity": "http://www.wikidata.org/entity/Q114128404",
        "country_qid": "Q145"
      }
    },
    {
      "type": "Feature",
      "geometry": {
        "type": "Point",
        "coordinates": [
          -2.3649828,
          55.816733
        ]
      },
      "properties": {
        "label": "Cockburn Mill, weir",
        "type": "Weir",
        "entity": "http://www.wikidata.org/entity/Q114128442",
        "country_qid": "Q145"
      }
    },
    {
      "type": "Feature",
      "geometry": {
        "type": "Point",
        "coordinates": [
          -1.06915,
          53.25872
        ]
      },
      "properties": {
        "label": "Clumber Cascade",
        "type": "Weir",
        "entity": "http://www.wikidata.org/entity/Q17547323",
        "country_qid": "Q145"
      }
    },
    {
      "type": "Feature",
      "geometry": {
        "type": "Point",
        "coordinates": [
          -1.48644,
          53.0297
        ]
      },
      "properties": {
        "label": "Belper River Weirs, Retaining Walls And Sluices To Belper River Weirs",
        "type": "Weir",
        "entity": "http://www.wikidata.org/entity/Q17545164",
        "country_qid": "Q145"
      }
    },
    {
      "type": "Feature",
      "geometry": {
        "type": "Point",
        "coordinates": [
          -3.8685444,
          55.005143
        ]
      },
      "properties": {
        "label": "Newbank Mill, Weir",
        "type": "Weir",
        "entity": "http://www.wikidata.org/entity/Q114128383",
        "country_qid": "Q145"
      }
    },
    {
      "type": "Feature",
      "geometry": {
        "type": "Point",
        "coordinates": [
          -1.57277,
          54.1167
        ]
      },
      "properties": {
        "label": "Weir At North End Of The Canal, With Piers, Fishing Pavilions And Balustrade",
        "type": "Weir",
        "entity": "http://www.wikidata.org/entity/Q17536400",
        "country_qid": "Q145"
      }
    },
    {
      "type": "Feature",
      "geometry": {
        "type": "Point",
        "coordinates": [
          -3.1953619,
          55.650718
        ]
      },
      "properties": {
        "label": "Peebles, Weir",
        "type": "Weir",
        "entity": "http://www.wikidata.org/entity/Q114128388",
        "country_qid": "Q145"
      }
    },
    {
      "type": "Feature",
      "geometry": {
        "type": "Point",
        "coordinates": [
          -3.4166607,
          55.923199
        ]
      },
      "properties": {
        "label": "Union Canal, Ratho Weir",
        "type": "Weir",
        "entity": "http://www.wikidata.org/entity/Q114128423",
        "country_qid": "Q145"
      }
    },
    {
      "type": "Feature",
      "geometry": {
        "type": "Point",
        "coordinates": [
          -3.28474,
          50.7505
        ]
      },
      "properties": {
        "label": "Tumbling Weir",
        "type": "Weir",
        "entity": "http://www.wikidata.org/entity/Q7852590",
        "country_qid": "Q145"
      }
    },
    {
      "type": "Feature",
      "geometry": {
        "type": "Point",
        "coordinates": [
          -2.35751,
          51.382699
        ]
      },
      "properties": {
        "label": "Bath Weir",
        "type": "Weir",
        "entity": "http://www.wikidata.org/entity/Q117307451",
        "country_qid": "Q145"
      }
    },
    {
      "type": "Feature",
      "geometry": {
        "type": "Point",
        "coordinates": [
          -3.61512,
          55.0676
        ]
      },
      "properties": {
        "label": "Weir, River Nith, Dumfries",
        "type": "Weir",
        "entity": "http://www.wikidata.org/entity/Q17796179",
        "country_qid": "Q145"
      }
    },
    {
      "type": "Feature",
      "geometry": {
        "type": "Point",
        "coordinates": [
          -0.0144,
          51.6727
        ]
      },
      "properties": {
        "label": "Newmans Weir",
        "type": "Weir",
        "entity": "http://www.wikidata.org/entity/Q15262169",
        "country_qid": "Q145"
      }
    },
    {
      "type": "Feature",
      "geometry": {
        "type": "Point",
        "coordinates": [
          -3.0320734,
          55.622206
        ]
      },
      "properties": {
        "label": "Walkerburn, Weir And Salmon Shute",
        "type": "Weir",
        "entity": "http://www.wikidata.org/entity/Q114128426",
        "country_qid": "Q145"
      }
    },
    {
      "type": "Feature",
      "geometry": {
        "type": "Point",
        "coordinates": [
          -2.5617514,
          55.509736
        ]
      },
      "properties": {
        "label": "Whittleinch, Cauld",
        "type": "Weir",
        "entity": "http://www.wikidata.org/entity/Q114128434",
        "country_qid": "Q145"
      }
    },
    {
      "type": "Feature",
      "geometry": {
        "type": "Point",
        "coordinates": [
          -3.2004358,
          52.981316
        ]
      },
      "properties": {
        "label": "Horseshoe Falls",
        "type": "Weir",
        "entity": "http://www.wikidata.org/entity/Q5906032",
        "country_qid": "Q145"
      }
    },
    {
      "type": "Feature",
      "geometry": {
        "type": "Point",
        "coordinates": [
          -3.4489685,
          56.476176
        ]
      },
      "properties": {
        "label": "Stanley, Weir",
        "type": "Weir",
        "entity": "http://www.wikidata.org/entity/Q114128414",
        "country_qid": "Q145"
      }
    },
    {
      "type": "Feature",
      "geometry": {
        "type": "Point",
        "coordinates": [
          -3.30895,
          55.9738
        ]
      },
      "properties": {
        "label": "Fair A Far Dam",
        "type": "Weir",
        "entity": "http://www.wikidata.org/entity/Q17794388",
        "country_qid": "Q145"
      }
    },
    {
      "type": "Feature",
      "geometry": {
        "type": "Point",
        "coordinates": [
          -0.004,
          51.529
        ]
      },
      "properties": {
        "label": "Three Mills Wall River Weir",
        "type": "Weir",
        "entity": "http://www.wikidata.org/entity/Q7797644",
        "country_qid": "Q145"
      }
    },
    {
      "type": "Feature",
      "geometry": {
        "type": "Point",
        "coordinates": [
          -1.864426438,
          51.07759142
        ]
      },
      "properties": {
        "label": "Sawmills Bridge (And Weir)",
        "type": "Weir",
        "entity": "http://www.wikidata.org/entity/Q26274770",
        "country_qid": "Q145"
      }
    },
    {
      "type": "Feature",
      "geometry": {
        "type": "Point",
        "coordinates": [
          -4.545666,
          55.395396
        ]
      },
      "properties": {
        "label": "Skeldon Mills, Weir",
        "type": "Weir",
        "entity": "http://www.wikidata.org/entity/Q114128407",
        "country_qid": "Q145"
      }
    },
    {
      "type": "Feature",
      "geometry": {
        "type": "Point",
        "coordinates": [
          -4.1812822,
          53.21868
        ]
      },
      "properties": {
        "label": "North Weir and Smoke Tower, Ynys Gorad Goch",
        "type": "Weir",
        "entity": "http://www.wikidata.org/entity/Q122217359",
        "country_qid": "Q145"
      }
    },
    {
      "type": "Feature",
      "geometry": {
        "type": "Point",
        "coordinates": [
          -4.4822243,
          54.959728
        ]
      },
      "properties": {
        "label": "Newton Stewart, Weir",
        "type": "Weir",
        "entity": "http://www.wikidata.org/entity/Q114128384",
        "country_qid": "Q145"
      }
    },
    {
      "type": "Feature",
      "geometry": {
        "type": "Point",
        "coordinates": [
          -4.6048194,
          54.908475
        ]
      },
      "properties": {
        "label": "Tarff, Waulk Mill, Weir",
        "type": "Weir",
        "entity": "http://www.wikidata.org/entity/Q114128418",
        "country_qid": "Q145"
      }
    },
    {
      "type": "Feature",
      "geometry": {
        "type": "Point",
        "coordinates": [
          -0.07235,
          51.8031
        ]
      },
      "properties": {
        "label": "Hartham Weir",
        "type": "Weir",
        "entity": "http://www.wikidata.org/entity/Q12059605",
        "country_qid": "Q145"
      }
    },
    {
      "type": "Feature",
      "geometry": {
        "type": "Point",
        "coordinates": [
          -0.0445,
          51.5617
        ]
      },
      "properties": {
        "label": "Middlesex Filter Beds Weir",
        "type": "Weir",
        "entity": "http://www.wikidata.org/entity/Q6841924",
        "country_qid": "Q145"
      }
    },
    {
      "type": "Feature",
      "geometry": {
        "type": "Point",
        "coordinates": [
          -3.0318832,
          55.622216
        ]
      },
      "properties": {
        "label": "Walkerburn, Tweedvale Mills, Weir And Salmon Ladder",
        "type": "Weir",
        "entity": "http://www.wikidata.org/entity/Q114128424",
        "country_qid": "Q145"
      }
    },
    {
      "type": "Feature",
      "geometry": {
        "type": "Point",
        "coordinates": [
          -0.0021,
          51.744
        ]
      },
      "properties": {
        "label": "Carthagena Weir",
        "type": "Weir",
        "entity": "http://www.wikidata.org/entity/Q5047312",
        "country_qid": "Q145"
      }
    },
    {
      "type": "Feature",
      "geometry": {
        "type": "Point",
        "coordinates": [
          -2.4702093,
          55.571537
        ]
      },
      "properties": {
        "label": "Roxburgh Mill, Weir",
        "type": "Weir",
        "entity": "http://www.wikidata.org/entity/Q114128405",
        "country_qid": "Q145"
      }
    },
    {
      "type": "Feature",
      "geometry": {
        "type": "Point",
        "coordinates": [
          0.004863,
          51.7559
        ]
      },
      "properties": {
        "label": "Dobbs Weir",
        "type": "Weir",
        "entity": "http://www.wikidata.org/entity/Q5286545",
        "country_qid": "Q145"
      }
    },
    {
      "type": "Feature",
      "geometry": {
        "type": "Point",
        "coordinates": [
          -4.2562132,
          57.690395
        ]
      },
      "properties": {
        "label": "Poll A' Charachaidh, Weir And Fish Ladder",
        "type": "Weir",
        "entity": "http://www.wikidata.org/entity/Q114128392",
        "country_qid": "Q145"
      }
    },
    {
      "type": "Feature",
      "geometry": {
        "type": "Point",
        "coordinates": [
          -6.0022404,
          57.073595
        ]
      },
      "properties": {
        "label": "Inver Dalavil, weir",
        "type": "Weir",
        "entity": "http://www.wikidata.org/entity/Q114128440",
        "country_qid": "Q145"
      }
    },
    {
      "type": "Feature",
      "geometry": {
        "type": "Point",
        "coordinates": [
          -4.2225547,
          55.774734
        ]
      },
      "properties": {
        "label": "Philipshill Mill, Weir",
        "type": "Weir",
        "entity": "http://www.wikidata.org/entity/Q114128390",
        "country_qid": "Q145"
      }
    },
    {
      "type": "Feature",
      "geometry": {
        "type": "Point",
        "coordinates": [
          -0.04166,
          51.811
        ]
      },
      "properties": {
        "label": "Ware Weir",
        "type": "Weir",
        "entity": "http://www.wikidata.org/entity/Q7969259",
        "country_qid": "Q145"
      }
    },
    {
      "type": "Feature",
      "geometry": {
        "type": "Point",
        "coordinates": [
          -4.0628019,
          53.291024
        ]
      },
      "properties": {
        "label": "Aberlleiniog Fish Weir II",
        "type": "Weir",
        "entity": "http://www.wikidata.org/entity/Q122221183",
        "country_qid": "Q145"
      }
    },
    {
      "type": "Feature",
      "geometry": {
        "type": "Point",
        "coordinates": [
          -2.1963397,
          55.785446
        ]
      },
      "properties": {
        "label": "Whitehall, Weir",
        "type": "Weir",
        "entity": "http://www.wikidata.org/entity/Q114128430",
        "country_qid": "Q145"
      }
    },
    {
      "type": "Feature",
      "geometry": {
        "type": "Point",
        "coordinates": [
          -2.4094966,
          55.859874
        ]
      },
      "properties": {
        "label": "Strafontane Mill, weir",
        "type": "Weir",
        "entity": "http://www.wikidata.org/entity/Q114128444",
        "country_qid": "Q145"
      }
    },
    {
      "type": "Feature",
      "geometry": {
        "type": "Point",
        "coordinates": [
          -2.3919791,
          55.61292
        ]
      },
      "properties": {
        "label": "Sprouston, Cauld",
        "type": "Weir",
        "entity": "http://www.wikidata.org/entity/Q114128413",
        "country_qid": "Q145"
      }
    },
    {
      "type": "Feature",
      "geometry": {
        "type": "Point",
        "coordinates": [
          0.014001,
          51.7641
        ]
      },
      "properties": {
        "label": "Feildes Weir",
        "type": "Weir",
        "entity": "http://www.wikidata.org/entity/Q5441549",
        "country_qid": "Q145"
      }
    },
    {
      "type": "Feature",
      "geometry": {
        "type": "Point",
        "coordinates": [
          -0.0722222,
          51.8031
        ]
      },
      "properties": {
        "label": "Hertford Weir",
        "type": "Weir",
        "entity": "http://www.wikidata.org/entity/Q5744724",
        "country_qid": "Q145"
      }
    },
    {
      "type": "Feature",
      "geometry": {
        "type": "Point",
        "coordinates": [
          -3.61507,
          55.06744
        ]
      },
      "properties": {
        "label": "Whitesands Caul",
        "type": "Weir",
        "entity": "http://www.wikidata.org/entity/Q124372353",
        "country_qid": "Q145"
      }
    },
    {
      "type": "Feature",
      "geometry": {
        "type": "Point",
        "coordinates": [
          -1.23831,
          54.0337
        ]
      },
      "properties": {
        "label": "Weir And Salmon Ladder",
        "type": "Weir",
        "entity": "http://www.wikidata.org/entity/Q17536558",
        "country_qid": "Q145"
      }
    },
    {
      "type": "Feature",
      "geometry": {
        "type": "Point",
        "coordinates": [
          -6.8605404,
          58.115019
        ]
      },
      "properties": {
        "label": "Port Na Carradh",
        "type": "Weir",
        "entity": "http://www.wikidata.org/entity/Q114128396",
        "country_qid": "Q145"
      }
    },
    {
      "type": "Feature",
      "geometry": {
        "type": "Point",
        "coordinates": [
          -0.086657,
          51.787
        ]
      },
      "properties": {
        "label": "Horns Mill Weir",
        "type": "Weir",
        "entity": "http://www.wikidata.org/entity/Q5904465",
        "country_qid": "Q145"
      }
    },
    {
      "type": "Feature",
      "geometry": {
        "type": "Point",
        "coordinates": [
          -4.422155,
          56.547319
        ]
      },
      "properties": {
        "label": "Stronuich, Weir",
        "type": "Weir",
        "entity": "http://www.wikidata.org/entity/Q114128415",
        "country_qid": "Q145"
      }
    },
    {
      "type": "Feature",
      "geometry": {
        "type": "Point",
        "coordinates": [
          -4.0919,
          56.1989
        ]
      },
      "properties": {
        "label": "Weir, Deanston Mills, Deanston",
        "type": "Weir",
        "entity": "http://www.wikidata.org/entity/Q17574743",
        "country_qid": "Q145"
      }
    }
  ]
}