{
  "type": "FeatureCollection",
  "features": [
    {
      "type": "Feature",
      "geometry": {
        "type": "Point",
        "coordinates": [
          -3.0382589,
          5.0794053
        ]
      },
      "properties": {
        "label": "Osagyefo Barge",
        "type": "Thermal power station",
        "entity": "http://www.wikidata.org/entity/Q7105531",
        "country_qid": "Q117"
      }
    },
    {
      "type": "Feature",
      "geometry": {
        "type": "Point",
        "coordinates": [
          0.01055556,
          5.735
        ]
      },
      "properties": {
        "label": "Kpone Thermal Power Station I",
        "type": "Thermal power station",
        "entity": "http://www.wikidata.org/entity/Q25230618",
        "country_qid": "Q117"
      }
    },
    {
      "type": "Feature",
      "geometry": {
        "type": "Point",
        "coordinates": [
          0.012833333,
          5.673944444
        ]
      },
      "properties": {
        "label": "Q56373433",
        "type": "Thermal power station",
        "entity": "http://www.wikidata.org/entity/Q56373433",
        "country_qid": "Q117"
      }
    },
    {
      "type": "Feature",
      "geometry": {
        "type": "Point",
        "coordinates": [
          0.041472222,
          5.6805
        ]
      },
      "properties": {
        "label": "Kpone Thermal Power Station II",
        "type": "Thermal power station",
        "entity": "http://www.wikidata.org/entity/Q25247875",
        "country_qid": "Q117"
      }
    },
    {
      "type": "Feature",
      "geometry": {
        "type": "Point",
        "coordinates": [
          -1.65722,
          4.97167
        ]
      },
      "properties": {
        "label": "Takoradi Power Station",
        "type": "Thermal power station",
        "entity": "http://www.wikidata.org/entity/Q7678482",
        "country_qid": "Q117"
      }
    },
    {
      "type": "Feature",
      "geometry": {
        "type": "Point",
        "coordinates": [
          -1.660305555,
          4.974166666
        ]
      },
      "properties": {
        "label": "Ameri Power Station",
        "type": "Thermal power station",
        "entity": "http://www.wikidata.org/entity/Q56373458",
        "country_qid": "Q117"
      }
    },
    {
      "type": "Feature",
      "geometry": {
        "type": "Point",
        "coordinates": [
          0.013138888,
          5.679694444
        ]
      },
      "properties": {
        "label": "Q56373456",
        "type": "Thermal power station",
        "entity": "http://www.wikidata.org/entity/Q56373456",
        "country_qid": "Q117"
      }
    },
    {
      "type": "Feature",
      "geometry": {
        "type": "Point",
        "coordinates": [
          0.024388888,
          5.694138888
        ]
      },
      "properties": {
        "label": "Q56373434",
        "type": "Thermal power station",
        "entity": "http://www.wikidata.org/entity/Q56373434",
        "country_qid": "Q117"
      }
    },
    {
      "type": "Feature",
      "geometry": {
        "type": "Point",
        "coordinates": [
          0.012222222,
          5.674388888
        ]
      },
      "properties": {
        "label": "Tema Power Station",
        "type": "Thermal power station",
        "entity": "http://www.wikidata.org/entity/Q16734150",
        "country_qid": "Q117"
      }
    },
    {
      "type": "Feature",
      "geometry": {
        "type": "Point",
        "coordinates": [
          0.047388888,
          5.680388888
        ]
      },
      "properties": {
        "label": "Sonon Asogli Thermal Power Station",
        "type": "Thermal power station",
        "entity": "http://www.wikidata.org/entity/Q25102069",
        "country_qid": "Q117"
      }
    }
  ]
}