{
  "type": "FeatureCollection",
  "features": [
    {
      "type": "Feature",
      "geometry": {
        "type": "Point",
        "coordinates": [
          12.6735,
          32.788305555
        ]
      },
      "properties": {
        "label": "Zawiya combined cycle power plant",
        "type": "Thermal power station",
        "entity": "http://www.wikidata.org/entity/Q12011162",
        "country_qid": "Q1016"
      }
    },
    {
      "type": "Feature",
      "geometry": {
        "type": "Point",
        "coordinates": [
          21.618,
          27.5957
        ]
      },
      "properties": {
        "label": "Sarir Power Plant",
        "type": "Thermal power station",
        "entity": "http://www.wikidata.org/entity/Q56373505",
        "country_qid": "Q1016"
      }
    },
    {
      "type": "Feature",
      "geometry": {
        "type": "Point",
        "coordinates": [
          12.973888888,
          32.825111111
        ]
      },
      "properties": {
        "label": "Tripoli West Power Station",
        "type": "Thermal power station",
        "entity": "http://www.wikidata.org/entity/Q56373423",
        "country_qid": "Q1016"
      }
    },
    {
      "type": "Feature",
      "geometry": {
        "type": "Point",
        "coordinates": [
          22.586805555,
          32.78175
        ]
      },
      "properties": {
        "label": "Derna Power Plant",
        "type": "Thermal power station",
        "entity": "http://www.wikidata.org/entity/Q56373469",
        "country_qid": "Q1016"
      }
    },
    {
      "type": "Feature",
      "geometry": {
        "type": "Point",
        "coordinates": [
          15.244055555,
          32.332416666
        ]
      },
      "properties": {
        "label": "Misrata Power Plant",
        "type": "Thermal power station",
        "entity": "http://www.wikidata.org/entity/Q56373387",
        "country_qid": "Q1016"
      }
    },
    {
      "type": "Feature",
      "geometry": {
        "type": "Point",
        "coordinates": [
          12.878388888,
          32.679333333
        ]
      },
      "properties": {
        "label": "Zahra Power Plant",
        "type": "Thermal power station",
        "entity": "http://www.wikidata.org/entity/Q56373427",
        "country_qid": "Q1016"
      }
    },
    {
      "type": "Feature",
      "geometry": {
        "type": "Point",
        "coordinates": [
          12.679333333,
          26.563916666
        ]
      },
      "properties": {
        "label": "Awbari Power Plant",
        "type": "Thermal power station",
        "entity": "http://www.wikidata.org/entity/Q56373497",
        "country_qid": "Q1016"
      }
    },
    {
      "type": "Feature",
      "geometry": {
        "type": "Point",
        "coordinates": [
          16.346111111,
          31.217805555
        ]
      },
      "properties": {
        "label": "Khaleej Power Station",
        "type": "Thermal power station",
        "entity": "http://www.wikidata.org/entity/Q56373390",
        "country_qid": "Q1016"
      }
    },
    {
      "type": "Feature",
      "geometry": {
        "type": "Point",
        "coordinates": [
          20.131916666,
          32.201972222
        ]
      },
      "properties": {
        "label": "Benghazi North Power Plant",
        "type": "Thermal power station",
        "entity": "http://www.wikidata.org/entity/Q11960548",
        "country_qid": "Q1016"
      }
    },
    {
      "type": "Feature",
      "geometry": {
        "type": "Point",
        "coordinates": [
          20.116111111,
          30.954194444
        ]
      },
      "properties": {
        "label": "Zwitina Power Plant",
        "type": "Thermal power station",
        "entity": "http://www.wikidata.org/entity/Q56373464",
        "country_qid": "Q1016"
      }
    },
    {
      "type": "Feature",
      "geometry": {
        "type": "Point",
        "coordinates": [
          14.330194444,
          32.621305555
        ]
      },
      "properties": {
        "label": "Al Khums Power Plant",
        "type": "Thermal power station",
        "entity": "http://www.wikidata.org/entity/Q56373388",
        "country_qid": "Q1016"
      }
    },
    {
      "type": "Feature",
      "geometry": {
        "type": "Point",
        "coordinates": [
          11.144694444,
          31.955888888
        ]
      },
      "properties": {
        "label": "Western Mountain Power Plant",
        "type": "Thermal power station",
        "entity": "http://www.wikidata.org/entity/Q12010551",
        "country_qid": "Q1016"
      }
    },
    {
      "type": "Feature",
      "geometry": {
        "type": "Point",
        "coordinates": [
          13.098777777,
          32.776194444
        ]
      },
      "properties": {
        "label": "Tripoli South Power Plant",
        "type": "Thermal power station",
        "entity": "http://www.wikidata.org/entity/Q56373389",
        "country_qid": "Q1016"
      }
    },
    {
      "type": "Feature",
      "geometry": {
        "type": "Point",
        "coordinates": [
          15.231944444,
          32.331111111
        ]
      },
      "properties": {
        "label": "LISCO Power Plant",
        "type": "Thermal power station",
        "entity": "http://www.wikidata.org/entity/Q11989627",
        "country_qid": "Q1016"
      }
    },
    {
      "type": "Feature",
      "geometry": {
        "type": "Point",
        "coordinates": [
          23.9815,
          32.059361111
        ]
      },
      "properties": {
        "label": "Tobruk Power Station",
        "type": "Thermal power station",
        "entity": "http://www.wikidata.org/entity/Q7811742",
        "country_qid": "Q1016"
      }
    }
  ]
}