{
  "type": "FeatureCollection",
  "features": [
    {
      "type": "Feature",
      "geometry": {
        "type": "Point",
        "coordinates": [
          146.214,
          -41.7302
        ]
      },
      "properties": {
        "label": "Rowallan Power Station",
        "type": "Hydroelectric power station",
        "entity": "http://www.wikidata.org/entity/Q1801072",
        "country_qid": "Q408"
      }
    },
    {
      "type": "Feature",
      "geometry": {
        "type": "Point",
        "coordinates": [
          145.84792,
          -37.34014
        ]
      },
      "properties": {
        "label": "Rubicon Falls Power Station",
        "type": "Hydroelectric power station",
        "entity": "http://www.wikidata.org/entity/Q123527736",
        "country_qid": "Q408"
      }
    },
    {
      "type": "Feature",
      "geometry": {
        "type": "Point",
        "coordinates": [
          145.975138888,
          -42.734055555
        ]
      },
      "properties": {
        "label": "Gordon Power Station",
        "type": "Hydroelectric power station",
        "entity": "http://www.wikidata.org/entity/Q21834601",
        "country_qid": "Q408"
      }
    },
    {
      "type": "Feature",
      "geometry": {
        "type": "Point",
        "coordinates": [
          115.9907,
          -33.39768
        ]
      },
      "properties": {
        "label": "Wellington Dam Hydro Power Station",
        "type": "Hydroelectric power station",
        "entity": "http://www.wikidata.org/entity/Q47144299",
        "country_qid": "Q408"
      }
    },
    {
      "type": "Feature",
      "geometry": {
        "type": "Point",
        "coordinates": [
          146.646,
          -42.5069
        ]
      },
      "properties": {
        "label": "Repulse Power Station",
        "type": "Hydroelectric power station",
        "entity": "http://www.wikidata.org/entity/Q7314755",
        "country_qid": "Q408"
      }
    },
    {
      "type": "Feature",
      "geometry": {
        "type": "Point",
        "coordinates": [
          145.999,
          -36.0093
        ]
      },
      "properties": {
        "label": "Yarrawonga Weir Power Station",
        "type": "Hydroelectric power station",
        "entity": "http://www.wikidata.org/entity/Q8049559",
        "country_qid": "Q408"
      }
    },
    {
      "type": "Feature",
      "geometry": {
        "type": "Point",
        "coordinates": [
          152.631944444,
          -27.372222222
        ]
      },
      "properties": {
        "label": "Wivenhoe Power Station",
        "type": "Hydroelectric power station",
        "entity": "http://www.wikidata.org/entity/Q8028691",
        "country_qid": "Q408"
      }
    },
    {
      "type": "Feature",
      "geometry": {
        "type": "Point",
        "coordinates": [
          147.228694444,
          -36.806
        ]
      },
      "properties": {
        "label": "Bogong Power Station",
        "type": "Hydroelectric power station",
        "entity": "http://www.wikidata.org/entity/Q61448255",
        "country_qid": "Q408"
      }
    },
    {
      "type": "Feature",
      "geometry": {
        "type": "Point",
        "coordinates": [
          148.291333333,
          -35.61125
        ]
      },
      "properties": {
        "label": "Tumut 3",
        "type": "Hydroelectric power station",
        "entity": "http://www.wikidata.org/entity/Q61448240",
        "country_qid": "Q408"
      }
    },
    {
      "type": "Feature",
      "geometry": {
        "type": "Point",
        "coordinates": [
          153.45,
          -28.574
        ]
      },
      "properties": {
        "label": "Mullumbimby Hydro-electric Power Station Complex",
        "type": "Hydroelectric power station",
        "entity": "http://www.wikidata.org/entity/Q55624097",
        "country_qid": "Q408"
      }
    },
    {
      "type": "Feature",
      "geometry": {
        "type": "Point",
        "coordinates": [
          147.111388888,
          -41.423888888
        ]
      },
      "properties": {
        "label": "Trevallyn Power Station",
        "type": "Hydroelectric power station",
        "entity": "http://www.wikidata.org/entity/Q7838915",
        "country_qid": "Q408"
      }
    },
    {
      "type": "Feature",
      "geometry": {
        "type": "Point",
        "coordinates": [
          145.534722222,
          -42.154944444
        ]
      },
      "properties": {
        "label": "John Butters Hydroelectric Power Station",
        "type": "Hydroelectric power station",
        "entity": "http://www.wikidata.org/entity/Q6224154",
        "country_qid": "Q408"
      }
    },
    {
      "type": "Feature",
      "geometry": {
        "type": "Point",
        "coordinates": [
          145.578,
          -17.7678
        ]
      },
      "properties": {
        "label": "Kareeya Hydro Power Station",
        "type": "Hydroelectric power station",
        "entity": "http://www.wikidata.org/entity/Q6369223",
        "country_qid": "Q408"
      }
    },
    {
      "type": "Feature",
      "geometry": {
        "type": "Point",
        "coordinates": [
          145.532083333,
          -41.736111111
        ]
      },
      "properties": {
        "label": "Bastyan Power Station",
        "type": "Hydroelectric power station",
        "entity": "http://www.wikidata.org/entity/Q4868381",
        "country_qid": "Q408"
      }
    },
    {
      "type": "Feature",
      "geometry": {
        "type": "Point",
        "coordinates": [
          150.467,
          -34.734
        ]
      },
      "properties": {
        "label": "Bendeela power station",
        "type": "Hydroelectric power station",
        "entity": "http://www.wikidata.org/entity/Q125919011",
        "country_qid": "Q408"
      }
    },
    {
      "type": "Feature",
      "geometry": {
        "type": "Point",
        "coordinates": [
          145.31,
          -37.6669
        ]
      },
      "properties": {
        "label": "Sugarloaf Hydroelectric Power Station",
        "type": "Hydroelectric power station",
        "entity": "http://www.wikidata.org/entity/Q14935291",
        "country_qid": "Q408"
      }
    },
    {
      "type": "Feature",
      "geometry": {
        "type": "Point",
        "coordinates": [
          146.533,
          -42.4281
        ]
      },
      "properties": {
        "label": "Wayatinah Power Station",
        "type": "Hydroelectric power station",
        "entity": "http://www.wikidata.org/entity/Q7975858",
        "country_qid": "Q408"
      }
    },
    {
      "type": "Feature",
      "geometry": {
        "type": "Point",
        "coordinates": [
          145.65,
          -41.817
        ]
      },
      "properties": {
        "label": "Tribute Power Station",
        "type": "Hydroelectric power station",
        "entity": "http://www.wikidata.org/entity/Q7840519",
        "country_qid": "Q408"
      }
    },
    {
      "type": "Feature",
      "geometry": {
        "type": "Point",
        "coordinates": [
          150.4795,
          -34.723
        ]
      },
      "properties": {
        "label": "Kangaroo Valley Hydroelectric Power Station",
        "type": "Hydroelectric power station",
        "entity": "http://www.wikidata.org/entity/Q60643984",
        "country_qid": "Q408"
      }
    },
    {
      "type": "Feature",
      "geometry": {
        "type": "Point",
        "coordinates": [
          146.139,
          -41.604
        ]
      },
      "properties": {
        "label": "Lemonthyme Power Station",
        "type": "Hydroelectric power station",
        "entity": "http://www.wikidata.org/entity/Q6521428",
        "country_qid": "Q408"
      }
    },
    {
      "type": "Feature",
      "geometry": {
        "type": "Point",
        "coordinates": [
          148.453611111,
          -35.781388888
        ]
      },
      "properties": {
        "label": "Snowy 2.0 hydropower project",
        "type": "Hydroelectric power station",
        "entity": "http://www.wikidata.org/entity/Q104847746",
        "country_qid": "Q408"
      }
    },
    {
      "type": "Feature",
      "geometry": {
        "type": "Point",
        "coordinates": [
          146.681,
          -42.5064
        ]
      },
      "properties": {
        "label": "Cluny Power Station",
        "type": "Hydroelectric power station",
        "entity": "http://www.wikidata.org/entity/Q5136641",
        "country_qid": "Q408"
      }
    },
    {
      "type": "Feature",
      "geometry": {
        "type": "Point",
        "coordinates": [
          146.91888889,
          -41.81166667
        ]
      },
      "properties": {
        "label": "Poatina Hydroelectric Power Station",
        "type": "Hydroelectric power station",
        "entity": "http://www.wikidata.org/entity/Q7206172",
        "country_qid": "Q408"
      }
    },
    {
      "type": "Feature",
      "geometry": {
        "type": "Point",
        "coordinates": [
          146.263,
          -41.3503
        ]
      },
      "properties": {
        "label": "Devils Gate Power Station",
        "type": "Hydroelectric power station",
        "entity": "http://www.wikidata.org/entity/Q5267403",
        "country_qid": "Q408"
      }
    },
    {
      "type": "Feature",
      "geometry": {
        "type": "Point",
        "coordinates": [
          145.84587,
          -37.30275
        ]
      },
      "properties": {
        "label": "Lower Rubicon Power Station",
        "type": "Hydroelectric power station",
        "entity": "http://www.wikidata.org/entity/Q123527701",
        "country_qid": "Q408"
      }
    },
    {
      "type": "Feature",
      "geometry": {
        "type": "Point",
        "coordinates": [
          148.413722222,
          -36.350083333
        ]
      },
      "properties": {
        "label": "Guthega Power Station",
        "type": "Hydroelectric power station",
        "entity": "http://www.wikidata.org/entity/Q5621737",
        "country_qid": "Q408"
      }
    },
    {
      "type": "Feature",
      "geometry": {
        "type": "Point",
        "coordinates": [
          149.001,
          -35.3285
        ]
      },
      "properties": {
        "label": "Mount Stromlo Hydro-Power Station",
        "type": "Hydroelectric power station",
        "entity": "http://www.wikidata.org/entity/Q6923905",
        "country_qid": "Q408"
      }
    },
    {
      "type": "Feature",
      "geometry": {
        "type": "Point",
        "coordinates": [
          138.68633333,
          -34.84636111
        ]
      },
      "properties": {
        "label": "Terminal Storage Mini Hydro",
        "type": "Hydroelectric power station",
        "entity": "http://www.wikidata.org/entity/Q48802179",
        "country_qid": "Q408"
      }
    },
    {
      "type": "Feature",
      "geometry": {
        "type": "Point",
        "coordinates": [
          147.227,
          -36.8061
        ]
      },
      "properties": {
        "label": "Kiewa Hydroelectric Scheme",
        "type": "Hydroelectric power station",
        "entity": "http://www.wikidata.org/entity/Q6405735",
        "country_qid": "Q408"
      }
    },
    {
      "type": "Feature",
      "geometry": {
        "type": "Point",
        "coordinates": [
          147.033,
          -36.1066
        ]
      },
      "properties": {
        "label": "Hume Power Station",
        "type": "Hydroelectric power station",
        "entity": "http://www.wikidata.org/entity/Q5940614",
        "country_qid": "Q408"
      }
    },
    {
      "type": "Feature",
      "geometry": {
        "type": "Point",
        "coordinates": [
          116.7306,
          -34.9772
        ]
      },
      "properties": {
        "label": "PRDSO WALPOLE HG1",
        "type": "Hydroelectric power station",
        "entity": "http://www.wikidata.org/entity/Q133465178",
        "country_qid": "Q408"
      }
    },
    {
      "type": "Feature",
      "geometry": {
        "type": "Point",
        "coordinates": [
          146.39221,
          -36.91291
        ]
      },
      "properties": {
        "label": "William Hovell Power Station",
        "type": "Hydroelectric power station",
        "entity": "http://www.wikidata.org/entity/Q123527608",
        "country_qid": "Q408"
      }
    },
    {
      "type": "Feature",
      "geometry": {
        "type": "Point",
        "coordinates": [
          149.642777777,
          -32.770833333
        ]
      },
      "properties": {
        "label": "Windamere Dam",
        "type": "Hydroelectric power station",
        "entity": "http://www.wikidata.org/entity/Q8024060",
        "country_qid": "Q408"
      }
    },
    {
      "type": "Feature",
      "geometry": {
        "type": "Point",
        "coordinates": [
          146.26,
          -42.26
        ]
      },
      "properties": {
        "label": "Nieterana Power Station",
        "type": "Hydroelectric power station",
        "entity": "http://www.wikidata.org/entity/Q20707083",
        "country_qid": "Q408"
      }
    },
    {
      "type": "Feature",
      "geometry": {
        "type": "Point",
        "coordinates": [
          150.46741667,
          -34.73397222
        ]
      },
      "properties": {
        "label": "Q84766534",
        "type": "Hydroelectric power station",
        "entity": "http://www.wikidata.org/entity/Q84766534",
        "country_qid": "Q408"
      }
    },
    {
      "type": "Feature",
      "geometry": {
        "type": "Point",
        "coordinates": [
          146.123,
          -41.4801
        ]
      },
      "properties": {
        "label": "Wilmot Power Station",
        "type": "Hydroelectric power station",
        "entity": "http://www.wikidata.org/entity/Q8022839",
        "country_qid": "Q408"
      }
    },
    {
      "type": "Feature",
      "geometry": {
        "type": "Point",
        "coordinates": [
          148.246216666,
          -35.398527777
        ]
      },
      "properties": {
        "label": "Tumut Hydroelectric Power Station",
        "type": "Hydroelectric power station",
        "entity": "http://www.wikidata.org/entity/Q1239270",
        "country_qid": "Q408"
      }
    },
    {
      "type": "Feature",
      "geometry": {
        "type": "Point",
        "coordinates": [
          145.647,
          -16.8511
        ]
      },
      "properties": {
        "label": "Barron Gorge Hydroelectric Power Station",
        "type": "Hydroelectric power station",
        "entity": "http://www.wikidata.org/entity/Q4863807",
        "country_qid": "Q408"
      }
    },
    {
      "type": "Feature",
      "geometry": {
        "type": "Point",
        "coordinates": [
          147.45941,
          -36.53434
        ]
      },
      "properties": {
        "label": "Banimboola Hydroelectric Power Station",
        "type": "Hydroelectric power station",
        "entity": "http://www.wikidata.org/entity/Q4855770",
        "country_qid": "Q408"
      }
    },
    {
      "type": "Feature",
      "geometry": {
        "type": "Point",
        "coordinates": [
          145.136111111,
          -41.723611111
        ]
      },
      "properties": {
        "label": "Reece Hydroelectric Power Station",
        "type": "Hydroelectric power station",
        "entity": "http://www.wikidata.org/entity/Q7306575",
        "country_qid": "Q408"
      }
    },
    {
      "type": "Feature",
      "geometry": {
        "type": "Point",
        "coordinates": [
          146.134,
          -41.4797
        ]
      },
      "properties": {
        "label": "Cethana Power Station",
        "type": "Hydroelectric power station",
        "entity": "http://www.wikidata.org/entity/Q5065647",
        "country_qid": "Q408"
      }
    },
    {
      "type": "Feature",
      "geometry": {
        "type": "Point",
        "coordinates": [
          145.7533079,
          -35.7761268
        ]
      },
      "properties": {
        "label": "The Drop Hydro",
        "type": "Hydroelectric power station",
        "entity": "http://www.wikidata.org/entity/Q7731050",
        "country_qid": "Q408"
      }
    },
    {
      "type": "Feature",
      "geometry": {
        "type": "Point",
        "coordinates": [
          146.598,
          -42.4522
        ]
      },
      "properties": {
        "label": "Catagunya Power Station",
        "type": "Hydroelectric power station",
        "entity": "http://www.wikidata.org/entity/Q5051199",
        "country_qid": "Q408"
      }
    },
    {
      "type": "Feature",
      "geometry": {
        "type": "Point",
        "coordinates": [
          147.234,
          -36.8585
        ]
      },
      "properties": {
        "label": "McKay Creek Hydroelectric Power Station",
        "type": "Hydroelectric power station",
        "entity": "http://www.wikidata.org/entity/Q6801697",
        "country_qid": "Q408"
      }
    },
    {
      "type": "Feature",
      "geometry": {
        "type": "Point",
        "coordinates": [
          150.596555555,
          -33.883222222
        ]
      },
      "properties": {
        "label": "Warragamba Power Station",
        "type": "Hydroelectric power station",
        "entity": "http://www.wikidata.org/entity/Q7969919",
        "country_qid": "Q408"
      }
    },
    {
      "type": "Feature",
      "geometry": {
        "type": "Point",
        "coordinates": [
          148.136361111,
          -36.242583333
        ]
      },
      "properties": {
        "label": "Murray-2 Hydroelectric Power Station",
        "type": "Hydroelectric power station",
        "entity": "http://www.wikidata.org/entity/Q6939087",
        "country_qid": "Q408"
      }
    },
    {
      "type": "Feature",
      "geometry": {
        "type": "Point",
        "coordinates": [
          148.190194444,
          -36.246833333
        ]
      },
      "properties": {
        "label": "Murray-1 Hydroelectric Power Station",
        "type": "Hydroelectric power station",
        "entity": "http://www.wikidata.org/entity/Q6939083",
        "country_qid": "Q408"
      }
    },
    {
      "type": "Feature",
      "geometry": {
        "type": "Point",
        "coordinates": [
          145.86482,
          -37.374
        ]
      },
      "properties": {
        "label": "Royston Power Station",
        "type": "Hydroelectric power station",
        "entity": "http://www.wikidata.org/entity/Q123527687",
        "country_qid": "Q408"
      }
    },
    {
      "type": "Feature",
      "geometry": {
        "type": "Point",
        "coordinates": [
          146.844,
          -42.6127
        ]
      },
      "properties": {
        "label": "Meadowbank Power Station",
        "type": "Hydroelectric power station",
        "entity": "http://www.wikidata.org/entity/Q6803307",
        "country_qid": "Q408"
      }
    },
    {
      "type": "Feature",
      "geometry": {
        "type": "Point",
        "coordinates": [
          147.520444444,
          -36.556555555
        ]
      },
      "properties": {
        "label": "Dartmouth power station",
        "type": "Hydroelectric power station",
        "entity": "http://www.wikidata.org/entity/Q61448250",
        "country_qid": "Q408"
      }
    },
    {
      "type": "Feature",
      "geometry": {
        "type": "Point",
        "coordinates": [
          148.367472222,
          -35.95225
        ]
      },
      "properties": {
        "label": "Tumut 1",
        "type": "Hydroelectric power station",
        "entity": "http://www.wikidata.org/entity/Q12007859",
        "country_qid": "Q408"
      }
    },
    {
      "type": "Feature",
      "geometry": {
        "type": "Point",
        "coordinates": [
          146.456666666,
          -42.296944444
        ]
      },
      "properties": {
        "label": "Tungatinah Power Station",
        "type": "Hydroelectric power station",
        "entity": "http://www.wikidata.org/entity/Q7853031",
        "country_qid": "Q408"
      }
    },
    {
      "type": "Feature",
      "geometry": {
        "type": "Point",
        "coordinates": [
          147.186027777,
          -36.760472222
        ]
      },
      "properties": {
        "label": "West Kiewa Power Station",
        "type": "Hydroelectric power station",
        "entity": "http://www.wikidata.org/entity/Q61448257",
        "country_qid": "Q408"
      }
    },
    {
      "type": "Feature",
      "geometry": {
        "type": "Point",
        "coordinates": [
          146.51,
          -42.3764
        ]
      },
      "properties": {
        "label": "Liapootah Power Station",
        "type": "Hydroelectric power station",
        "entity": "http://www.wikidata.org/entity/Q6540173",
        "country_qid": "Q408"
      }
    },
    {
      "type": "Feature",
      "geometry": {
        "type": "Point",
        "coordinates": [
          146.268,
          -41.6733
        ]
      },
      "properties": {
        "label": "Fisher Power Station",
        "type": "Hydroelectric power station",
        "entity": "http://www.wikidata.org/entity/Q5454834",
        "country_qid": "Q408"
      }
    },
    {
      "type": "Feature",
      "geometry": {
        "type": "Point",
        "coordinates": [
          146.456944444,
          -42.301111111
        ]
      },
      "properties": {
        "label": "Tarraleah Power Station",
        "type": "Hydroelectric power station",
        "entity": "http://www.wikidata.org/entity/Q7686654",
        "country_qid": "Q408"
      }
    },
    {
      "type": "Feature",
      "geometry": {
        "type": "Point",
        "coordinates": [
          146.262,
          -42.2669
        ]
      },
      "properties": {
        "label": "Butlers Gorge Power Station",
        "type": "Hydroelectric power station",
        "entity": "http://www.wikidata.org/entity/Q5002701",
        "country_qid": "Q408"
      }
    },
    {
      "type": "Feature",
      "geometry": {
        "type": "Point",
        "coordinates": [
          151.808053164,
          -30.599621962
        ]
      },
      "properties": {
        "label": "Gara River Hydro-Electric Scheme",
        "type": "Hydroelectric power station",
        "entity": "http://www.wikidata.org/entity/Q55612301",
        "country_qid": "Q408"
      }
    },
    {
      "type": "Feature",
      "geometry": {
        "type": "Point",
        "coordinates": [
          148.246166666,
          -35.398527777
        ]
      },
      "properties": {
        "label": "Blowering Hydroelectric Power Plant Australia",
        "type": "Hydroelectric power station",
        "entity": "http://www.wikidata.org/entity/Q61448242",
        "country_qid": "Q408"
      }
    },
    {
      "type": "Feature",
      "geometry": {
        "type": "Point",
        "coordinates": [
          146.228,
          -38.0797
        ]
      },
      "properties": {
        "label": "Blue Rock Dam Power Station",
        "type": "Hydroelectric power station",
        "entity": "http://www.wikidata.org/entity/Q4929791",
        "country_qid": "Q408"
      }
    },
    {
      "type": "Feature",
      "geometry": {
        "type": "Point",
        "coordinates": [
          145.646055555,
          -41.69975
        ]
      },
      "properties": {
        "label": "Mackintosh Power Station",
        "type": "Hydroelectric power station",
        "entity": "http://www.wikidata.org/entity/Q6724549",
        "country_qid": "Q408"
      }
    },
    {
      "type": "Feature",
      "geometry": {
        "type": "Point",
        "coordinates": [
          148.385472222,
          -35.911361111
        ]
      },
      "properties": {
        "label": "Tumut 2",
        "type": "Hydroelectric power station",
        "entity": "http://www.wikidata.org/entity/Q19393489",
        "country_qid": "Q408"
      }
    },
    {
      "type": "Feature",
      "geometry": {
        "type": "Point",
        "coordinates": [
          145.86058,
          -37.32714
        ]
      },
      "properties": {
        "label": "Rubicon Power Station",
        "type": "Hydroelectric power station",
        "entity": "http://www.wikidata.org/entity/Q123527658",
        "country_qid": "Q408"
      }
    },
    {
      "type": "Feature",
      "geometry": {
        "type": "Point",
        "coordinates": [
          145.921361111,
          -37.222138888
        ]
      },
      "properties": {
        "label": "Eildon Hydroelectric Power Station",
        "type": "Hydroelectric power station",
        "entity": "http://www.wikidata.org/entity/Q5349293",
        "country_qid": "Q408"
      }
    }
  ]
}