{
  "type": "FeatureCollection",
  "features": [
    {
      "type": "Feature",
      "geometry": {
        "type": "Point",
        "coordinates": [
          46.93472222,
          39.15972222
        ]
      },
      "properties": {
        "label": "Khudafarin hydroelectric power station",
        "type": "Hydroelectric power station",
        "entity": "http://www.wikidata.org/entity/Q6401941",
        "country_qid": "Q227"
      }
    },
    {
      "type": "Feature",
      "geometry": {
        "type": "Point",
        "coordinates": [
          45.8234,
          39.01466
        ]
      },
      "properties": {
        "label": "Bilav Hydroelectric Power Station",
        "type": "Hydroelectric power station",
        "entity": "http://www.wikidata.org/entity/Q12837589",
        "country_qid": "Q227"
      }
    },
    {
      "type": "Feature",
      "geometry": {
        "type": "Point",
        "coordinates": [
          45.40222222,
          39.09111111
        ]
      },
      "properties": {
        "label": "Aras Dam",
        "type": "Hydroelectric power station",
        "entity": "http://www.wikidata.org/entity/Q3380358",
        "country_qid": "Q227"
      }
    },
    {
      "type": "Feature",
      "geometry": {
        "type": "Point",
        "coordinates": [
          47.032936,
          39.179338
        ]
      },
      "properties": {
        "label": "Giz Galasi Dam",
        "type": "Hydroelectric power station",
        "entity": "http://www.wikidata.org/entity/Q20110407",
        "country_qid": "Q227"
      }
    },
    {
      "type": "Feature",
      "geometry": {
        "type": "Point",
        "coordinates": [
          49.00558,
          41.16519
        ]
      },
      "properties": {
        "label": "Takhtakorpu Hydroelectric Power Station",
        "type": "Hydroelectric power station",
        "entity": "http://www.wikidata.org/entity/Q20584801",
        "country_qid": "Q227"
      }
    },
    {
      "type": "Feature",
      "geometry": {
        "type": "Point",
        "coordinates": [
          47.02833333,
          40.79
        ]
      },
      "properties": {
        "label": "Mingechevir Hydro Power Plant",
        "type": "Hydroelectric power station",
        "entity": "http://www.wikidata.org/entity/Q2505221",
        "country_qid": "Q227"
      }
    },
    {
      "type": "Feature",
      "geometry": {
        "type": "Point",
        "coordinates": [
          47.5992962,
          39.5773701
        ]
      },
      "properties": {
        "label": "Fuzuli Hydro Power Plant",
        "type": "Hydroelectric power station",
        "entity": "http://www.wikidata.org/entity/Q21596764",
        "country_qid": "Q227"
      }
    },
    {
      "type": "Feature",
      "geometry": {
        "type": "Point",
        "coordinates": [
          46.2828,
          40.9192
        ]
      },
      "properties": {
        "label": "Yenikend Hydroelectric Power Station",
        "type": "Hydroelectric power station",
        "entity": "http://www.wikidata.org/entity/Q8052319",
        "country_qid": "Q227"
      }
    },
    {
      "type": "Feature",
      "geometry": {
        "type": "Point",
        "coordinates": [
          46.650744,
          40.207557
        ]
      },
      "properties": {
        "label": "Sarsang Hydro Power Plant",
        "type": "Hydroelectric power station",
        "entity": "http://www.wikidata.org/entity/Q4408769",
        "country_qid": "Q227"
      }
    },
    {
      "type": "Feature",
      "geometry": {
        "type": "Point",
        "coordinates": [
          46.1710524,
          40.9470702
        ]
      },
      "properties": {
        "label": "Shamkir Hydroelectric Power Station",
        "type": "Hydroelectric power station",
        "entity": "http://www.wikidata.org/entity/Q7487597",
        "country_qid": "Q227"
      }
    }
  ]
}