{
  "type": "FeatureCollection",
  "features": [
    {
      "type": "Feature",
      "geometry": {
        "type": "Point",
        "coordinates": [
          85.908333333,
          27.866666666
        ]
      },
      "properties": {
        "label": "Chaku Khola Hydropower Station",
        "type": "Hydroelectric power station",
        "entity": "http://www.wikidata.org/entity/Q98078833",
        "country_qid": "Q837"
      }
    },
    {
      "type": "Feature",
      "geometry": {
        "type": "Point",
        "coordinates": [
          86.213,
          27.925
        ]
      },
      "properties": {
        "label": "Upper Tamakoshi Hydroelectric Project",
        "type": "Hydroelectric power station",
        "entity": "http://www.wikidata.org/entity/Q25109907",
        "country_qid": "Q837"
      }
    },
    {
      "type": "Feature",
      "geometry": {
        "type": "Point",
        "coordinates": [
          83.88348,
          28.37161
        ]
      },
      "properties": {
        "label": "Upper Mardi Khola Hydropower Station",
        "type": "Hydroelectric power station",
        "entity": "http://www.wikidata.org/entity/Q104879717",
        "country_qid": "Q837"
      }
    },
    {
      "type": "Feature",
      "geometry": {
        "type": "Point",
        "coordinates": [
          87.89194444,
          26.82277778
        ]
      },
      "properties": {
        "label": "Mai Hydropower Station",
        "type": "Hydroelectric power station",
        "entity": "http://www.wikidata.org/entity/Q25036395",
        "country_qid": "Q837"
      }
    },
    {
      "type": "Feature",
      "geometry": {
        "type": "Point",
        "coordinates": [
          84.14215,
          28.37428
        ]
      },
      "properties": {
        "label": "Madkyu Khola Hydropower Station",
        "type": "Hydroelectric power station",
        "entity": "http://www.wikidata.org/entity/Q104879188",
        "country_qid": "Q837"
      }
    },
    {
      "type": "Feature",
      "geometry": {
        "type": "Point",
        "coordinates": [
          87.969166666,
          27.0
        ]
      },
      "properties": {
        "label": "Upper Mai-C Hydropower Station",
        "type": "Hydroelectric power station",
        "entity": "http://www.wikidata.org/entity/Q104873212",
        "country_qid": "Q837"
      }
    },
    {
      "type": "Feature",
      "geometry": {
        "type": "Point",
        "coordinates": [
          81.297222222,
          29.258333333
        ]
      },
      "properties": {
        "label": "Budhiganga Hydropower Project",
        "type": "Hydroelectric power station",
        "entity": "http://www.wikidata.org/entity/Q97657079",
        "country_qid": "Q837"
      }
    },
    {
      "type": "Feature",
      "geometry": {
        "type": "Point",
        "coordinates": [
          86.016111111,
          27.630555555
        ]
      },
      "properties": {
        "label": "Charnawati Khola Hydroelectric Project",
        "type": "Hydroelectric power station",
        "entity": "http://www.wikidata.org/entity/Q97959526",
        "country_qid": "Q837"
      }
    },
    {
      "type": "Feature",
      "geometry": {
        "type": "Point",
        "coordinates": [
          87.827777777,
          27.185555555
        ]
      },
      "properties": {
        "label": "Hewa Khola-A Hydroelectric Project",
        "type": "Hydroelectric power station",
        "entity": "http://www.wikidata.org/entity/Q97453124",
        "country_qid": "Q837"
      }
    },
    {
      "type": "Feature",
      "geometry": {
        "type": "Point",
        "coordinates": [
          85.2999,
          28.1865
        ]
      },
      "properties": {
        "label": "Chilime Hydropower Plant",
        "type": "Hydroelectric power station",
        "entity": "http://www.wikidata.org/entity/Q17150837",
        "country_qid": "Q837"
      }
    },
    {
      "type": "Feature",
      "geometry": {
        "type": "Point",
        "coordinates": [
          86.101111111,
          27.474444444
        ]
      },
      "properties": {
        "label": "Khimti I Hydropower Plant",
        "type": "Hydroelectric power station",
        "entity": "http://www.wikidata.org/entity/Q97474365",
        "country_qid": "Q837"
      }
    },
    {
      "type": "Feature",
      "geometry": {
        "type": "Point",
        "coordinates": [
          87.86916667,
          26.76583333
        ]
      },
      "properties": {
        "label": "Mai Cascade Hydropower Plant",
        "type": "Hydroelectric power station",
        "entity": "http://www.wikidata.org/entity/Q21775809",
        "country_qid": "Q837"
      }
    },
    {
      "type": "Feature",
      "geometry": {
        "type": "Point",
        "coordinates": [
          83.4185,
          28.2834
        ]
      },
      "properties": {
        "label": "Daram Khola-A Hydropower Station",
        "type": "Hydroelectric power station",
        "entity": "http://www.wikidata.org/entity/Q104873205",
        "country_qid": "Q837"
      }
    },
    {
      "type": "Feature",
      "geometry": {
        "type": "Point",
        "coordinates": [
          84.686519,
          28.134106
        ]
      },
      "properties": {
        "label": "Daraudi A Hydropower Plant",
        "type": "Hydroelectric power station",
        "entity": "http://www.wikidata.org/entity/Q104873204",
        "country_qid": "Q837"
      }
    },
    {
      "type": "Feature",
      "geometry": {
        "type": "Point",
        "coordinates": [
          85.92388889,
          27.91277778
        ]
      },
      "properties": {
        "label": "Bhote Koshi Project",
        "type": "Hydroelectric power station",
        "entity": "http://www.wikidata.org/entity/Q4902058",
        "country_qid": "Q837"
      }
    },
    {
      "type": "Feature",
      "geometry": {
        "type": "Point",
        "coordinates": [
          84.02781,
          28.18656
        ]
      },
      "properties": {
        "label": "Bijayapur-I Small Hydropower Project",
        "type": "Hydroelectric power station",
        "entity": "http://www.wikidata.org/entity/Q97279819",
        "country_qid": "Q837"
      }
    },
    {
      "type": "Feature",
      "geometry": {
        "type": "Point",
        "coordinates": [
          83.88128,
          28.35538
        ]
      },
      "properties": {
        "label": "Mardi Khola Hydropower Station",
        "type": "Hydroelectric power station",
        "entity": "http://www.wikidata.org/entity/Q104871658",
        "country_qid": "Q837"
      }
    },
    {
      "type": "Feature",
      "geometry": {
        "type": "Point",
        "coordinates": [
          85.18644444,
          28.02544444
        ]
      },
      "properties": {
        "label": "Q65197097",
        "type": "Hydroelectric power station",
        "entity": "http://www.wikidata.org/entity/Q65197097",
        "country_qid": "Q837"
      }
    },
    {
      "type": "Feature",
      "geometry": {
        "type": "Point",
        "coordinates": [
          84.41988889,
          28.18941667
        ]
      },
      "properties": {
        "label": "Q65197090",
        "type": "Hydroelectric power station",
        "entity": "http://www.wikidata.org/entity/Q65197090",
        "country_qid": "Q837"
      }
    },
    {
      "type": "Feature",
      "geometry": {
        "type": "Point",
        "coordinates": [
          84.53988889,
          27.87638889
        ]
      },
      "properties": {
        "label": "Q65197088",
        "type": "Hydroelectric power station",
        "entity": "http://www.wikidata.org/entity/Q65197088",
        "country_qid": "Q837"
      }
    },
    {
      "type": "Feature",
      "geometry": {
        "type": "Point",
        "coordinates": [
          86.21688889,
          27.84644444
        ]
      },
      "properties": {
        "label": "Q65199035",
        "type": "Hydroelectric power station",
        "entity": "http://www.wikidata.org/entity/Q65199035",
        "country_qid": "Q837"
      }
    },
    {
      "type": "Feature",
      "geometry": {
        "type": "Point",
        "coordinates": [
          85.532777777,
          27.561388888
        ]
      },
      "properties": {
        "label": "Khopasi Hydro Power",
        "type": "Hydroelectric power station",
        "entity": "http://www.wikidata.org/entity/Q18388058",
        "country_qid": "Q837"
      }
    },
    {
      "type": "Feature",
      "geometry": {
        "type": "Point",
        "coordinates": [
          81.4722,
          28.9231
        ]
      },
      "properties": {
        "label": "Upper Karnali Hydropower Project",
        "type": "Hydroelectric power station",
        "entity": "http://www.wikidata.org/entity/Q18395094",
        "country_qid": "Q837"
      }
    },
    {
      "type": "Feature",
      "geometry": {
        "type": "Point",
        "coordinates": [
          83.9921,
          28.2318
        ]
      },
      "properties": {
        "label": "Seti Hydropower Station",
        "type": "Hydroelectric power station",
        "entity": "http://www.wikidata.org/entity/Q97280173",
        "country_qid": "Q837"
      }
    },
    {
      "type": "Feature",
      "geometry": {
        "type": "Point",
        "coordinates": [
          85.19413889,
          27.51094444
        ]
      },
      "properties": {
        "label": "Arun III",
        "type": "Hydroelectric power station",
        "entity": "http://www.wikidata.org/entity/Q4802090",
        "country_qid": "Q837"
      }
    },
    {
      "type": "Feature",
      "geometry": {
        "type": "Point",
        "coordinates": [
          85.88,
          27.81919444
        ]
      },
      "properties": {
        "label": "Q65197123",
        "type": "Hydroelectric power station",
        "entity": "http://www.wikidata.org/entity/Q65197123",
        "country_qid": "Q837"
      }
    },
    {
      "type": "Feature",
      "geometry": {
        "type": "Point",
        "coordinates": [
          83.61522222,
          27.93083333
        ]
      },
      "properties": {
        "label": "Kaligandaki A Hydroelectric Power Station",
        "type": "Hydroelectric power station",
        "entity": "http://www.wikidata.org/entity/Q16893044",
        "country_qid": "Q837"
      }
    },
    {
      "type": "Feature",
      "geometry": {
        "type": "Point",
        "coordinates": [
          86.11716667,
          27.50186111
        ]
      },
      "properties": {
        "label": "Q65197082",
        "type": "Hydroelectric power station",
        "entity": "http://www.wikidata.org/entity/Q65197082",
        "country_qid": "Q837"
      }
    },
    {
      "type": "Feature",
      "geometry": {
        "type": "Point",
        "coordinates": [
          85.11366667,
          27.54002778
        ]
      },
      "properties": {
        "label": "Q65197084",
        "type": "Hydroelectric power station",
        "entity": "http://www.wikidata.org/entity/Q65197084",
        "country_qid": "Q837"
      }
    },
    {
      "type": "Feature",
      "geometry": {
        "type": "Point",
        "coordinates": [
          86.62105556,
          27.41458333
        ]
      },
      "properties": {
        "label": "Q65197118",
        "type": "Hydroelectric power station",
        "entity": "http://www.wikidata.org/entity/Q65197118",
        "country_qid": "Q837"
      }
    },
    {
      "type": "Feature",
      "geometry": {
        "type": "Point",
        "coordinates": [
          85.152777777,
          27.608333333
        ]
      },
      "properties": {
        "label": "Kulekhani Dam",
        "type": "Hydroelectric power station",
        "entity": "http://www.wikidata.org/entity/Q13179342",
        "country_qid": "Q837"
      }
    },
    {
      "type": "Feature",
      "geometry": {
        "type": "Point",
        "coordinates": [
          84.36288889,
          28.28313889
        ]
      },
      "properties": {
        "label": "Q65197094",
        "type": "Hydroelectric power station",
        "entity": "http://www.wikidata.org/entity/Q65197094",
        "country_qid": "Q837"
      }
    },
    {
      "type": "Feature",
      "geometry": {
        "type": "Point",
        "coordinates": [
          83.967913222,
          28.195773564
        ]
      },
      "properties": {
        "label": "Fewa Hydropower Station",
        "type": "Hydroelectric power station",
        "entity": "http://www.wikidata.org/entity/Q97279895",
        "country_qid": "Q837"
      }
    },
    {
      "type": "Feature",
      "geometry": {
        "type": "Point",
        "coordinates": [
          85.91944444,
          27.78194444
        ]
      },
      "properties": {
        "label": "Sunkoshi Small Hydropower Plant",
        "type": "Hydroelectric power station",
        "entity": "http://www.wikidata.org/entity/Q22952152",
        "country_qid": "Q837"
      }
    },
    {
      "type": "Feature",
      "geometry": {
        "type": "Point",
        "coordinates": [
          85.26666667,
          27.6
        ]
      },
      "properties": {
        "label": "Pharping Hydro Power Project",
        "type": "Hydroelectric power station",
        "entity": "http://www.wikidata.org/entity/Q13183618",
        "country_qid": "Q837"
      }
    },
    {
      "type": "Feature",
      "geometry": {
        "type": "Point",
        "coordinates": [
          85.35875,
          28.24097222
        ]
      },
      "properties": {
        "label": "Q65197128",
        "type": "Hydroelectric power station",
        "entity": "http://www.wikidata.org/entity/Q65197128",
        "country_qid": "Q837"
      }
    }
  ]
}