{
  "type": "FeatureCollection",
  "features": [
    {
      "type": "Feature",
      "geometry": {
        "type": "Point",
        "coordinates": [
          73.1933,
          35.3173
        ]
      },
      "properties": {
        "label": "Dasu Dam",
        "type": "Hydroelectric power station",
        "entity": "http://www.wikidata.org/entity/Q16247263",
        "country_qid": "Q843"
      }
    },
    {
      "type": "Feature",
      "geometry": {
        "type": "Point",
        "coordinates": [
          71.61361111,
          32.95638889
        ]
      },
      "properties": {
        "label": "Kalabagh Dam",
        "type": "Hydroelectric power station",
        "entity": "http://www.wikidata.org/entity/Q6349998",
        "country_qid": "Q843"
      }
    },
    {
      "type": "Feature",
      "geometry": {
        "type": "Point",
        "coordinates": [
          73.021,
          34.8586
        ]
      },
      "properties": {
        "label": "Allai Khwar Hydropower Plant",
        "type": "Hydroelectric power station",
        "entity": "http://www.wikidata.org/entity/Q16250815",
        "country_qid": "Q843"
      }
    },
    {
      "type": "Feature",
      "geometry": {
        "type": "Point",
        "coordinates": [
          73.739166666,
          35.519444444
        ]
      },
      "properties": {
        "label": "Diamer-Bhasha Dam",
        "type": "Hydroelectric power station",
        "entity": "http://www.wikidata.org/entity/Q1140572",
        "country_qid": "Q843"
      }
    },
    {
      "type": "Feature",
      "geometry": {
        "type": "Point",
        "coordinates": [
          71.358333333,
          34.164166666
        ]
      },
      "properties": {
        "label": "Warsak Dam",
        "type": "Hydroelectric power station",
        "entity": "http://www.wikidata.org/entity/Q7970870",
        "country_qid": "Q843"
      }
    },
    {
      "type": "Feature",
      "geometry": {
        "type": "Point",
        "coordinates": [
          69.88138889,
          32.09861111
        ]
      },
      "properties": {
        "label": "Gomal Zam Dam",
        "type": "Hydroelectric power station",
        "entity": "http://www.wikidata.org/entity/Q11972351",
        "country_qid": "Q843"
      }
    },
    {
      "type": "Feature",
      "geometry": {
        "type": "Point",
        "coordinates": [
          73.65455556,
          34.20233333
        ]
      },
      "properties": {
        "label": "Kohala Hydropower Project",
        "type": "Hydroelectric power station",
        "entity": "http://www.wikidata.org/entity/Q18126877",
        "country_qid": "Q843"
      }
    },
    {
      "type": "Feature",
      "geometry": {
        "type": "Point",
        "coordinates": [
          70.53224722,
          33.03346667
        ]
      },
      "properties": {
        "label": "Kurram Garhi Hydropower Plant",
        "type": "Hydroelectric power station",
        "entity": "http://www.wikidata.org/entity/Q17050758",
        "country_qid": "Q843"
      }
    },
    {
      "type": "Feature",
      "geometry": {
        "type": "Point",
        "coordinates": [
          71.53297778,
          34.35319167
        ]
      },
      "properties": {
        "label": "Mohmand Dam",
        "type": "Hydroelectric power station",
        "entity": "http://www.wikidata.org/entity/Q6935710",
        "country_qid": "Q843"
      }
    },
    {
      "type": "Feature",
      "geometry": {
        "type": "Point",
        "coordinates": [
          72.9946214,
          35.1055938
        ]
      },
      "properties": {
        "label": "Duber Khwar Hydroelectric Plant",
        "type": "Hydroelectric power station",
        "entity": "http://www.wikidata.org/entity/Q16247312",
        "country_qid": "Q843"
      }
    },
    {
      "type": "Feature",
      "geometry": {
        "type": "Point",
        "coordinates": [
          71.9580567,
          35.9504049
        ]
      },
      "properties": {
        "label": "Golen Gol Hydropower Project",
        "type": "Hydroelectric power station",
        "entity": "http://www.wikidata.org/entity/Q16247465",
        "country_qid": "Q843"
      }
    },
    {
      "type": "Feature",
      "geometry": {
        "type": "Point",
        "coordinates": [
          66.863,
          25.472
        ]
      },
      "properties": {
        "label": "Winder Dam",
        "type": "Hydroelectric power station",
        "entity": "http://www.wikidata.org/entity/Q16903494",
        "country_qid": "Q843"
      }
    },
    {
      "type": "Feature",
      "geometry": {
        "type": "Point",
        "coordinates": [
          71.91894444,
          34.51875
        ]
      },
      "properties": {
        "label": "Malakand-III Hydroelectric Plant",
        "type": "Hydroelectric power station",
        "entity": "http://www.wikidata.org/entity/Q65201056",
        "country_qid": "Q843"
      }
    },
    {
      "type": "Feature",
      "geometry": {
        "type": "Point",
        "coordinates": [
          71.37975,
          32.435972222
        ]
      },
      "properties": {
        "label": "Chashma Barrage",
        "type": "Hydroelectric power station",
        "entity": "http://www.wikidata.org/entity/Q5087276",
        "country_qid": "Q843"
      }
    },
    {
      "type": "Feature",
      "geometry": {
        "type": "Point",
        "coordinates": [
          72.259722,
          33.78
        ]
      },
      "properties": {
        "label": "Ghazi-Barotha Hydropower Project",
        "type": "Hydroelectric power station",
        "entity": "http://www.wikidata.org/entity/Q3445691",
        "country_qid": "Q843"
      }
    },
    {
      "type": "Feature",
      "geometry": {
        "type": "Point",
        "coordinates": [
          72.8115,
          34.9053
        ]
      },
      "properties": {
        "label": "Khan Khwar Hydropower Plant",
        "type": "Hydroelectric power station",
        "entity": "http://www.wikidata.org/entity/Q16893320",
        "country_qid": "Q843"
      }
    },
    {
      "type": "Feature",
      "geometry": {
        "type": "Point",
        "coordinates": [
          73.5107553,
          34.196283
        ]
      },
      "properties": {
        "label": "Neelum-Jhelum Hydropower Station",
        "type": "Hydroelectric power station",
        "entity": "http://www.wikidata.org/entity/Q14326986",
        "country_qid": "Q843"
      }
    },
    {
      "type": "Feature",
      "geometry": {
        "type": "Point",
        "coordinates": [
          70.502571,
          33.009651
        ]
      },
      "properties": {
        "label": "Baran Dam",
        "type": "Hydroelectric power station",
        "entity": "http://www.wikidata.org/entity/Q123352655",
        "country_qid": "Q843"
      }
    },
    {
      "type": "Feature",
      "geometry": {
        "type": "Point",
        "coordinates": [
          71.52192222,
          32.91853056
        ]
      },
      "properties": {
        "label": "Jinnah Barrage",
        "type": "Hydroelectric power station",
        "entity": "http://www.wikidata.org/entity/Q15229594",
        "country_qid": "Q843"
      }
    },
    {
      "type": "Feature",
      "geometry": {
        "type": "Point",
        "coordinates": [
          73.8625,
          33.4553
        ]
      },
      "properties": {
        "label": "Gulpur Hydropower Project",
        "type": "Hydroelectric power station",
        "entity": "http://www.wikidata.org/entity/Q16247626",
        "country_qid": "Q843"
      }
    },
    {
      "type": "Feature",
      "geometry": {
        "type": "Point",
        "coordinates": [
          73.60122778,
          33.59980278
        ]
      },
      "properties": {
        "label": "Karot Hydropower Project",
        "type": "Hydroelectric power station",
        "entity": "http://www.wikidata.org/entity/Q24947737",
        "country_qid": "Q843"
      }
    },
    {
      "type": "Feature",
      "geometry": {
        "type": "Point",
        "coordinates": [
          72.69833333,
          34.08972222
        ]
      },
      "properties": {
        "label": "Tarbela Dam",
        "type": "Hydroelectric power station",
        "entity": "http://www.wikidata.org/entity/Q1551258",
        "country_qid": "Q843"
      }
    },
    {
      "type": "Feature",
      "geometry": {
        "type": "Point",
        "coordinates": [
          71.2679,
          33.7128
        ]
      },
      "properties": {
        "label": "Lower Spat Gah Hydropower Project",
        "type": "Hydroelectric power station",
        "entity": "http://www.wikidata.org/entity/Q123600846",
        "country_qid": "Q843"
      }
    },
    {
      "type": "Feature",
      "geometry": {
        "type": "Point",
        "coordinates": [
          67.32,
          26.875
        ]
      },
      "properties": {
        "label": "Nai Gaj Dam",
        "type": "Hydroelectric power station",
        "entity": "http://www.wikidata.org/entity/Q17011929",
        "country_qid": "Q843"
      }
    },
    {
      "type": "Feature",
      "geometry": {
        "type": "Point",
        "coordinates": [
          73.385,
          30.345
        ]
      },
      "properties": {
        "label": "Pakpatan Hydropower Project",
        "type": "Hydroelectric power station",
        "entity": "http://www.wikidata.org/entity/Q29831042",
        "country_qid": "Q843"
      }
    },
    {
      "type": "Feature",
      "geometry": {
        "type": "Point",
        "coordinates": [
          73.710046,
          33.092529
        ]
      },
      "properties": {
        "label": "New Bong Escape Hydropower Project",
        "type": "Hydroelectric power station",
        "entity": "http://www.wikidata.org/entity/Q22952142",
        "country_qid": "Q843"
      }
    },
    {
      "type": "Feature",
      "geometry": {
        "type": "Point",
        "coordinates": [
          71.0167,
          33.9667
        ]
      },
      "properties": {
        "label": "Bara Dam",
        "type": "Hydroelectric power station",
        "entity": "http://www.wikidata.org/entity/Q4858023",
        "country_qid": "Q843"
      }
    },
    {
      "type": "Feature",
      "geometry": {
        "type": "Point",
        "coordinates": [
          71.9317,
          34.5574
        ]
      },
      "properties": {
        "label": "Jabban Hydropower Plant",
        "type": "Hydroelectric power station",
        "entity": "http://www.wikidata.org/entity/Q16892807",
        "country_qid": "Q843"
      }
    },
    {
      "type": "Feature",
      "geometry": {
        "type": "Point",
        "coordinates": [
          72.0455,
          34.4201
        ]
      },
      "properties": {
        "label": "Machai Hydropower Plant",
        "type": "Hydroelectric power station",
        "entity": "http://www.wikidata.org/entity/Q55621635",
        "country_qid": "Q843"
      }
    },
    {
      "type": "Feature",
      "geometry": {
        "type": "Point",
        "coordinates": [
          73.598,
          30.8827
        ]
      },
      "properties": {
        "label": "Renala Khurd Hydropower Plant",
        "type": "Hydroelectric power station",
        "entity": "http://www.wikidata.org/entity/Q16899260",
        "country_qid": "Q843"
      }
    },
    {
      "type": "Feature",
      "geometry": {
        "type": "Point",
        "coordinates": [
          74.115,
          30.7942
        ]
      },
      "properties": {
        "label": "Chichonki Malian Hydropower Plant",
        "type": "Hydroelectric power station",
        "entity": "http://www.wikidata.org/entity/Q16258061",
        "country_qid": "Q843"
      }
    },
    {
      "type": "Feature",
      "geometry": {
        "type": "Point",
        "coordinates": [
          71.91891944,
          34.518825
        ]
      },
      "properties": {
        "label": "Dargai Hydropower Plant",
        "type": "Hydroelectric power station",
        "entity": "http://www.wikidata.org/entity/Q17003555",
        "country_qid": "Q843"
      }
    },
    {
      "type": "Feature",
      "geometry": {
        "type": "Point",
        "coordinates": [
          66.5833,
          25.75
        ]
      },
      "properties": {
        "label": "Hingol Dam",
        "type": "Hydroelectric power station",
        "entity": "http://www.wikidata.org/entity/Q5767167",
        "country_qid": "Q843"
      }
    },
    {
      "type": "Feature",
      "geometry": {
        "type": "Point",
        "coordinates": [
          74.0101,
          32.5108
        ]
      },
      "properties": {
        "label": "Shadiwal Hydropower Plant",
        "type": "Hydroelectric power station",
        "entity": "http://www.wikidata.org/entity/Q16900018",
        "country_qid": "Q843"
      }
    },
    {
      "type": "Feature",
      "geometry": {
        "type": "Point",
        "coordinates": [
          73.6418,
          33.1422
        ]
      },
      "properties": {
        "label": "Mangla Dam",
        "type": "Hydroelectric power station",
        "entity": "http://www.wikidata.org/entity/Q1286541",
        "country_qid": "Q843"
      }
    },
    {
      "type": "Feature",
      "geometry": {
        "type": "Point",
        "coordinates": [
          73.5617173,
          32.6938096
        ]
      },
      "properties": {
        "label": "Rasul Hydropower Plant",
        "type": "Hydroelectric power station",
        "entity": "http://www.wikidata.org/entity/Q120767729",
        "country_qid": "Q843"
      }
    },
    {
      "type": "Feature",
      "geometry": {
        "type": "Point",
        "coordinates": [
          73.496,
          35.6019
        ]
      },
      "properties": {
        "label": "Tangir Hydropower Project",
        "type": "Hydroelectric power station",
        "entity": "http://www.wikidata.org/entity/Q16901168",
        "country_qid": "Q843"
      }
    },
    {
      "type": "Feature",
      "geometry": {
        "type": "Point",
        "coordinates": [
          73.57151389,
          33.76775
        ]
      },
      "properties": {
        "label": "Azad Pattan Hydropower Project",
        "type": "Hydroelectric power station",
        "entity": "http://www.wikidata.org/entity/Q24946113",
        "country_qid": "Q843"
      }
    },
    {
      "type": "Feature",
      "geometry": {
        "type": "Point",
        "coordinates": [
          75.637222222,
          35.244444444
        ]
      },
      "properties": {
        "label": "Satpara Dam",
        "type": "Hydroelectric power station",
        "entity": "http://www.wikidata.org/entity/Q7426443",
        "country_qid": "Q843"
      }
    },
    {
      "type": "Feature",
      "geometry": {
        "type": "Point",
        "coordinates": [
          74.2672,
          32.2425
        ]
      },
      "properties": {
        "label": "Nandipur Hydropower Plant",
        "type": "Hydroelectric power station",
        "entity": "http://www.wikidata.org/entity/Q16895658",
        "country_qid": "Q843"
      }
    },
    {
      "type": "Feature",
      "geometry": {
        "type": "Point",
        "coordinates": [
          73.428888888,
          34.343888888
        ]
      },
      "properties": {
        "label": "Patrind power station",
        "type": "Hydroelectric power station",
        "entity": "http://www.wikidata.org/entity/Q16896488",
        "country_qid": "Q843"
      }
    },
    {
      "type": "Feature",
      "geometry": {
        "type": "Point",
        "coordinates": [
          73.54266111,
          34.72312222
        ]
      },
      "properties": {
        "label": "Suki Kinari Hydropower Project",
        "type": "Hydroelectric power station",
        "entity": "http://www.wikidata.org/entity/Q24947725",
        "country_qid": "Q843"
      }
    }
  ]
}