{
  "type": "FeatureCollection",
  "features": [
    {
      "type": "Feature",
      "geometry": {
        "type": "Point",
        "coordinates": [
          127.280277777,
          37.527944444
        ]
      },
      "properties": {
        "label": "Paldang Dam",
        "type": "Hydroelectric power station",
        "entity": "http://www.wikidata.org/entity/Q12621569",
        "country_qid": "Q884"
      }
    },
    {
      "type": "Feature",
      "geometry": {
        "type": "Point",
        "coordinates": [
          128.536944444,
          38.020277777
        ]
      },
      "properties": {
        "label": "Yangyang Pumped Storage Power Station",
        "type": "Hydroelectric power station",
        "entity": "http://www.wikidata.org/entity/Q8048665",
        "country_qid": "Q884"
      }
    },
    {
      "type": "Feature",
      "geometry": {
        "type": "Point",
        "coordinates": [
          127.1090361,
          35.5412291
        ]
      },
      "properties": {
        "label": "Seomjingang Dam",
        "type": "Hydroelectric power station",
        "entity": "http://www.wikidata.org/entity/Q12601834",
        "country_qid": "Q884"
      }
    },
    {
      "type": "Feature",
      "geometry": {
        "type": "Point",
        "coordinates": [
          127.7725,
          35.255277777
        ]
      },
      "properties": {
        "label": "Sancheong pumped-storage power station",
        "type": "Hydroelectric power station",
        "entity": "http://www.wikidata.org/entity/Q11999351",
        "country_qid": "Q884"
      }
    },
    {
      "type": "Feature",
      "geometry": {
        "type": "Point",
        "coordinates": [
          126.34222222,
          37.49666667
        ]
      },
      "properties": {
        "label": "Incheon Tidal Power Station",
        "type": "Hydroelectric power station",
        "entity": "http://www.wikidata.org/entity/Q6014462",
        "country_qid": "Q884"
      }
    },
    {
      "type": "Feature",
      "geometry": {
        "type": "Point",
        "coordinates": [
          127.843333333,
          36.758888888
        ]
      },
      "properties": {
        "label": "Q61356105",
        "type": "Hydroelectric power station",
        "entity": "http://www.wikidata.org/entity/Q61356105",
        "country_qid": "Q884"
      }
    },
    {
      "type": "Feature",
      "geometry": {
        "type": "Point",
        "coordinates": [
          128.4235114,
          36.7535726
        ]
      },
      "properties": {
        "label": "Yecheon pumped-storage power station",
        "type": "Hydroelectric power station",
        "entity": "http://www.wikidata.org/entity/Q12010964",
        "country_qid": "Q884"
      }
    },
    {
      "type": "Feature",
      "geometry": {
        "type": "Point",
        "coordinates": [
          126.31,
          34.565555555
        ]
      },
      "properties": {
        "label": "Uldolmok Tidal Power Station",
        "type": "Hydroelectric power station",
        "entity": "http://www.wikidata.org/entity/Q7878823",
        "country_qid": "Q884"
      }
    },
    {
      "type": "Feature",
      "geometry": {
        "type": "Point",
        "coordinates": [
          129.0147413,
          36.4056074
        ]
      },
      "properties": {
        "label": "Cheongsong pumped-storage power station",
        "type": "Hydroelectric power station",
        "entity": "http://www.wikidata.org/entity/Q11963514",
        "country_qid": "Q884"
      }
    },
    {
      "type": "Feature",
      "geometry": {
        "type": "Point",
        "coordinates": [
          127.4877778,
          37.7425
        ]
      },
      "properties": {
        "label": "Cheongpyeong pumped-storage power station",
        "type": "Hydroelectric power station",
        "entity": "http://www.wikidata.org/entity/Q11963512",
        "country_qid": "Q884"
      }
    },
    {
      "type": "Feature",
      "geometry": {
        "type": "Point",
        "coordinates": [
          127.420638888,
          37.723416666
        ]
      },
      "properties": {
        "label": "Cheongpyeong Dam",
        "type": "Hydroelectric power station",
        "entity": "http://www.wikidata.org/entity/Q12619304",
        "country_qid": "Q884"
      }
    },
    {
      "type": "Feature",
      "geometry": {
        "type": "Point",
        "coordinates": [
          127.669388888,
          37.968138888
        ]
      },
      "properties": {
        "label": "Chuncheon Dam Sam",
        "type": "Hydroelectric power station",
        "entity": "http://www.wikidata.org/entity/Q16100197",
        "country_qid": "Q884"
      }
    },
    {
      "type": "Feature",
      "geometry": {
        "type": "Point",
        "coordinates": [
          127.9925,
          37.00611111
        ]
      },
      "properties": {
        "label": "Chungju Dam",
        "type": "Hydroelectric power station",
        "entity": "http://www.wikidata.org/entity/Q5116376",
        "country_qid": "Q884"
      }
    },
    {
      "type": "Feature",
      "geometry": {
        "type": "Point",
        "coordinates": [
          128.8783726,
          35.4128776
        ]
      },
      "properties": {
        "label": "Samrangjin pumped-storage power station",
        "type": "Hydroelectric power station",
        "entity": "http://www.wikidata.org/entity/Q19387521",
        "country_qid": "Q884"
      }
    },
    {
      "type": "Feature",
      "geometry": {
        "type": "Point",
        "coordinates": [
          128.82158333,
          37.70686111
        ]
      },
      "properties": {
        "label": "Q84761164",
        "type": "Hydroelectric power station",
        "entity": "http://www.wikidata.org/entity/Q84761164",
        "country_qid": "Q884"
      }
    },
    {
      "type": "Feature",
      "geometry": {
        "type": "Point",
        "coordinates": [
          127.7023818,
          35.9615618
        ]
      },
      "properties": {
        "label": "Muju pumped-storage power plant",
        "type": "Hydroelectric power station",
        "entity": "http://www.wikidata.org/entity/Q11990169",
        "country_qid": "Q884"
      }
    },
    {
      "type": "Feature",
      "geometry": {
        "type": "Point",
        "coordinates": [
          126.612282,
          37.313656
        ]
      },
      "properties": {
        "label": "Sihwa Lake Tidal Power Station",
        "type": "Hydroelectric power station",
        "entity": "http://www.wikidata.org/entity/Q562741",
        "country_qid": "Q884"
      }
    },
    {
      "type": "Feature",
      "geometry": {
        "type": "Point",
        "coordinates": [
          128.0676778,
          35.5455626
        ]
      },
      "properties": {
        "label": "Hapcheon Power Plant",
        "type": "Hydroelectric power station",
        "entity": "http://www.wikidata.org/entity/Q84761182",
        "country_qid": "Q884"
      }
    },
    {
      "type": "Feature",
      "geometry": {
        "type": "Point",
        "coordinates": [
          128.88333333,
          36.5375
        ]
      },
      "properties": {
        "label": "Imha Dam",
        "type": "Hydroelectric power station",
        "entity": "http://www.wikidata.org/entity/Q12060693",
        "country_qid": "Q884"
      }
    },
    {
      "type": "Feature",
      "geometry": {
        "type": "Point",
        "coordinates": [
          128.77388889,
          36.58472222
        ]
      },
      "properties": {
        "label": "Andong Dam",
        "type": "Hydroelectric power station",
        "entity": "http://www.wikidata.org/entity/Q4754530",
        "country_qid": "Q884"
      }
    },
    {
      "type": "Feature",
      "geometry": {
        "type": "Point",
        "coordinates": [
          126.322611,
          36.9585
        ]
      },
      "properties": {
        "label": "Garorim Bay Tidal Power Station",
        "type": "Hydroelectric power station",
        "entity": "http://www.wikidata.org/entity/Q5523745",
        "country_qid": "Q884"
      }
    },
    {
      "type": "Feature",
      "geometry": {
        "type": "Point",
        "coordinates": [
          127.81444444,
          37.94555556
        ]
      },
      "properties": {
        "label": "Soyang Dam",
        "type": "Hydroelectric power station",
        "entity": "http://www.wikidata.org/entity/Q624034",
        "country_qid": "Q884"
      }
    }
  ]
}