{
  "type": "FeatureCollection",
  "features": [
    {
      "type": "Feature",
      "geometry": {
        "type": "Point",
        "coordinates": [
          80.44972229,
          6.70333338
        ]
      },
      "properties": {
        "label": "Denawaka Ganga Mini Hydro Power Project",
        "type": "Hydroelectric power station",
        "entity": "http://www.wikidata.org/entity/Q20987392",
        "country_qid": "Q854"
      }
    },
    {
      "type": "Feature",
      "geometry": {
        "type": "Point",
        "coordinates": [
          80.5279291,
          6.8691874
        ]
      },
      "properties": {
        "label": "Canyon hydroelectric power station",
        "type": "Hydroelectric power station",
        "entity": "http://www.wikidata.org/entity/Q84761141",
        "country_qid": "Q854"
      }
    },
    {
      "type": "Feature",
      "geometry": {
        "type": "Point",
        "coordinates": [
          81.0685,
          6.8021
        ]
      },
      "properties": {
        "label": "Uma Oya Hydropower Complex",
        "type": "Hydroelectric power station",
        "entity": "http://www.wikidata.org/entity/Q28457473",
        "country_qid": "Q854"
      }
    },
    {
      "type": "Feature",
      "geometry": {
        "type": "Point",
        "coordinates": [
          80.454444444,
          6.978888888
        ]
      },
      "properties": {
        "label": "Broadlands Dam",
        "type": "Hydroelectric power station",
        "entity": "http://www.wikidata.org/entity/Q15117260",
        "country_qid": "Q854"
      }
    },
    {
      "type": "Feature",
      "geometry": {
        "type": "Point",
        "coordinates": [
          80.925,
          7.2
        ]
      },
      "properties": {
        "label": "Randenigala Dam",
        "type": "Hydroelectric power station",
        "entity": "http://www.wikidata.org/entity/Q7291667",
        "country_qid": "Q854"
      }
    },
    {
      "type": "Feature",
      "geometry": {
        "type": "Point",
        "coordinates": [
          80.805833333,
          7.2
        ]
      },
      "properties": {
        "label": "Victoria Power Station",
        "type": "Hydroelectric power station",
        "entity": "http://www.wikidata.org/entity/Q24326443",
        "country_qid": "Q854"
      }
    },
    {
      "type": "Feature",
      "geometry": {
        "type": "Point",
        "coordinates": [
          80.4920585,
          6.9180687
        ]
      },
      "properties": {
        "label": "New Laxapana Power Station",
        "type": "Hydroelectric power station",
        "entity": "http://www.wikidata.org/entity/Q84761143",
        "country_qid": "Q854"
      }
    },
    {
      "type": "Feature",
      "geometry": {
        "type": "Point",
        "coordinates": [
          80.2836013,
          6.6041664
        ]
      },
      "properties": {
        "label": "Kukule Ganga Power Station",
        "type": "Hydroelectric power station",
        "entity": "http://www.wikidata.org/entity/Q19378328",
        "country_qid": "Q854"
      }
    },
    {
      "type": "Feature",
      "geometry": {
        "type": "Point",
        "coordinates": [
          80.525,
          6.908611111
        ]
      },
      "properties": {
        "label": "Wimalasurendra Power Station",
        "type": "Hydroelectric power station",
        "entity": "http://www.wikidata.org/entity/Q15838226",
        "country_qid": "Q854"
      }
    },
    {
      "type": "Feature",
      "geometry": {
        "type": "Point",
        "coordinates": [
          80.4916287,
          6.918594
        ]
      },
      "properties": {
        "label": "Old Laxapana Power Station",
        "type": "Hydroelectric power station",
        "entity": "http://www.wikidata.org/entity/Q84761140",
        "country_qid": "Q854"
      }
    },
    {
      "type": "Feature",
      "geometry": {
        "type": "Point",
        "coordinates": [
          80.658055555,
          6.946666666
        ]
      },
      "properties": {
        "label": "Upper Kotmale Dam",
        "type": "Hydroelectric power station",
        "entity": "http://www.wikidata.org/entity/Q7898727",
        "country_qid": "Q854"
      }
    },
    {
      "type": "Feature",
      "geometry": {
        "type": "Point",
        "coordinates": [
          80.475833333,
          7.110833333
        ]
      },
      "properties": {
        "label": "Maha Oya Pumped Storage Power Station",
        "type": "Hydroelectric power station",
        "entity": "http://www.wikidata.org/entity/Q133255752",
        "country_qid": "Q854"
      }
    },
    {
      "type": "Feature",
      "geometry": {
        "type": "Point",
        "coordinates": [
          80.59722222,
          7.06083333
        ]
      },
      "properties": {
        "label": "Kotmale Dam",
        "type": "Hydroelectric power station",
        "entity": "http://www.wikidata.org/entity/Q6434138",
        "country_qid": "Q854"
      }
    },
    {
      "type": "Feature",
      "geometry": {
        "type": "Point",
        "coordinates": [
          80.95,
          7.2
        ]
      },
      "properties": {
        "label": "Rantembe Dam",
        "type": "Hydroelectric power station",
        "entity": "http://www.wikidata.org/entity/Q17053576",
        "country_qid": "Q854"
      }
    },
    {
      "type": "Feature",
      "geometry": {
        "type": "Point",
        "coordinates": [
          80.456666666,
          6.977777777
        ]
      },
      "properties": {
        "label": "Polpitiya Power Station",
        "type": "Hydroelectric power station",
        "entity": "http://www.wikidata.org/entity/Q15830743",
        "country_qid": "Q854"
      }
    },
    {
      "type": "Feature",
      "geometry": {
        "type": "Point",
        "coordinates": [
          80.8542,
          6.43389
        ]
      },
      "properties": {
        "label": "Udawalawe Dam",
        "type": "Hydroelectric power station",
        "entity": "http://www.wikidata.org/entity/Q19701296",
        "country_qid": "Q854"
      }
    },
    {
      "type": "Feature",
      "geometry": {
        "type": "Point",
        "coordinates": [
          80.666666666,
          7.666666666
        ]
      },
      "properties": {
        "label": "Bowatenna Dam",
        "type": "Hydroelectric power station",
        "entity": "http://www.wikidata.org/entity/Q15830465",
        "country_qid": "Q854"
      }
    },
    {
      "type": "Feature",
      "geometry": {
        "type": "Point",
        "coordinates": [
          80.784722222,
          7.241388888
        ]
      },
      "properties": {
        "label": "Victoria Dam",
        "type": "Hydroelectric power station",
        "entity": "http://www.wikidata.org/entity/Q3440914",
        "country_qid": "Q854"
      }
    }
  ]
}