{
  "type": "FeatureCollection",
  "features": [
    {
      "type": "Feature",
      "geometry": {
        "type": "Point",
        "coordinates": [
          28.441944444,
          -20.168055555
        ]
      },
      "properties": {
        "label": "Bulawayo Solid Waste Energy Plant",
        "type": "power plant",
        "entity": "http://www.wikidata.org/entity/Q111170327",
        "country_qid": "Q954"
      }
    },
    {
      "type": "Feature",
      "geometry": {
        "type": "Point",
        "coordinates": [
          29.802777777,
          -18.790833333
        ]
      },
      "properties": {
        "label": "Kwekwe Solar Power Station",
        "type": "power plant",
        "entity": "http://www.wikidata.org/entity/Q107463201",
        "country_qid": "Q954"
      }
    },
    {
      "type": "Feature",
      "geometry": {
        "type": "Point",
        "coordinates": [
          32.487222222,
          -18.778055555
        ]
      },
      "properties": {
        "label": "Ngonyezi Pumped Hydroelectric Energy Storage Power Station",
        "type": "power plant",
        "entity": "http://www.wikidata.org/entity/Q108542415",
        "country_qid": "Q954"
      }
    },
    {
      "type": "Feature",
      "geometry": {
        "type": "Point",
        "coordinates": [
          31.256111111,
          -18.116944444
        ]
      },
      "properties": {
        "label": "Harava Solar Power Station",
        "type": "power plant",
        "entity": "http://www.wikidata.org/entity/Q111943211",
        "country_qid": "Q954"
      }
    },
    {
      "type": "Feature",
      "geometry": {
        "type": "Point",
        "coordinates": [
          29.781833333,
          -18.655333333
        ]
      },
      "properties": {
        "label": "Munyati Thermal Power Station",
        "type": "power plant",
        "entity": "http://www.wikidata.org/entity/Q56373948",
        "country_qid": "Q954"
      }
    },
    {
      "type": "Feature",
      "geometry": {
        "type": "Point",
        "coordinates": [
          26.973055555,
          -18.648888888
        ]
      },
      "properties": {
        "label": "Hwange Solar Power Station",
        "type": "power plant",
        "entity": "http://www.wikidata.org/entity/Q113297957",
        "country_qid": "Q954"
      }
    },
    {
      "type": "Feature",
      "geometry": {
        "type": "Point",
        "coordinates": [
          28.193888888,
          -20.006666666
        ]
      },
      "properties": {
        "label": "Umguza Solar Power Station",
        "type": "power plant",
        "entity": "http://www.wikidata.org/entity/Q108123200",
        "country_qid": "Q954"
      }
    },
    {
      "type": "Feature",
      "geometry": {
        "type": "Point",
        "coordinates": [
          29.199722222,
          -21.018055555
        ]
      },
      "properties": {
        "label": "Colleen Bawn Solar Power Station",
        "type": "power plant",
        "entity": "http://www.wikidata.org/entity/Q97402084",
        "country_qid": "Q954"
      }
    },
    {
      "type": "Feature",
      "geometry": {
        "type": "Point",
        "coordinates": [
          25.848333333,
          -17.9275
        ]
      },
      "properties": {
        "label": "Victoria Falls Solar Power Station",
        "type": "power plant",
        "entity": "http://www.wikidata.org/entity/Q111942790",
        "country_qid": "Q954"
      }
    },
    {
      "type": "Feature",
      "geometry": {
        "type": "Point",
        "coordinates": [
          31.3825,
          -21.054166666
        ]
      },
      "properties": {
        "label": "Chiredzi Solar Power Station",
        "type": "power plant",
        "entity": "http://www.wikidata.org/entity/Q96374936",
        "country_qid": "Q954"
      }
    },
    {
      "type": "Feature",
      "geometry": {
        "type": "Point",
        "coordinates": [
          26.47,
          -18.3835
        ]
      },
      "properties": {
        "label": "Hwange Thermal Power Station",
        "type": "power plant",
        "entity": "http://www.wikidata.org/entity/Q1657787",
        "country_qid": "Q954"
      }
    },
    {
      "type": "Feature",
      "geometry": {
        "type": "Point",
        "coordinates": [
          31.031805555,
          -17.845722222
        ]
      },
      "properties": {
        "label": "Harare Thermal Power Station",
        "type": "power plant",
        "entity": "http://www.wikidata.org/entity/Q56373946",
        "country_qid": "Q954"
      }
    },
    {
      "type": "Feature",
      "geometry": {
        "type": "Point",
        "coordinates": [
          28.575611111,
          -20.159194444
        ]
      },
      "properties": {
        "label": "Bulawayo Thermal Power Station",
        "type": "power plant",
        "entity": "http://www.wikidata.org/entity/Q56373952",
        "country_qid": "Q954"
      }
    },
    {
      "type": "Feature",
      "geometry": {
        "type": "Point",
        "coordinates": [
          30.615555555,
          -17.999722222
        ]
      },
      "properties": {
        "label": "Norton Solar Power Station",
        "type": "power plant",
        "entity": "http://www.wikidata.org/entity/Q108365703",
        "country_qid": "Q954"
      }
    },
    {
      "type": "Feature",
      "geometry": {
        "type": "Point",
        "coordinates": [
          28.7614,
          -16.5217
        ]
      },
      "properties": {
        "label": "Kariba Dam",
        "type": "power plant",
        "entity": "http://www.wikidata.org/entity/Q1367609",
        "country_qid": "Q954"
      }
    },
    {
      "type": "Feature",
      "geometry": {
        "type": "Point",
        "coordinates": [
          29.358611111,
          -19.786111111
        ]
      },
      "properties": {
        "label": "Shangani Solar Power Station",
        "type": "power plant",
        "entity": "http://www.wikidata.org/entity/Q111943264",
        "country_qid": "Q954"
      }
    },
    {
      "type": "Feature",
      "geometry": {
        "type": "Point",
        "coordinates": [
          31.079722222,
          -17.725833333
        ]
      },
      "properties": {
        "label": "Pomona Waste To Energy Power Station",
        "type": "power plant",
        "entity": "http://www.wikidata.org/entity/Q112701970",
        "country_qid": "Q954"
      }
    }
  ]
}