{
  "type": "FeatureCollection",
  "features": [
    {
      "type": "Feature",
      "geometry": {
        "type": "Point",
        "coordinates": [
          44.487272,
          48.783293
        ]
      },
      "properties": {
        "label": "Volgograd Broadcasting Tower",
        "type": "Communication tower",
        "entity": "http://www.wikidata.org/entity/Q134427292",
        "country_qid": "Q159"
      }
    },
    {
      "type": "Feature",
      "geometry": {
        "type": "Point",
        "coordinates": [
          30.320833333,
          59.976666666
        ]
      },
      "properties": {
        "label": "Saint Petersburg TV Tower",
        "type": "Communication tower",
        "entity": "http://www.wikidata.org/entity/Q1355638",
        "country_qid": "Q159"
      }
    },
    {
      "type": "Feature",
      "geometry": {
        "type": "Point",
        "coordinates": [
          129.723,
          62.0274
        ]
      },
      "properties": {
        "label": "Yakutsk TV Tower",
        "type": "Communication tower",
        "entity": "http://www.wikidata.org/entity/Q8047264",
        "country_qid": "Q159"
      }
    },
    {
      "type": "Feature",
      "geometry": {
        "type": "Point",
        "coordinates": [
          22.01361111,
          54.59166667
        ]
      },
      "properties": {
        "label": "Veselovka TV Mast",
        "type": "Communication tower",
        "entity": "http://www.wikidata.org/entity/Q2270031",
        "country_qid": "Q159"
      }
    },
    {
      "type": "Feature",
      "geometry": {
        "type": "Point",
        "coordinates": [
          43.99176,
          56.30775
        ]
      },
      "properties": {
        "label": "Nizhny Novgorod TV Tower",
        "type": "Communication tower",
        "entity": "http://www.wikidata.org/entity/Q100982357",
        "country_qid": "Q159"
      }
    },
    {
      "type": "Feature",
      "geometry": {
        "type": "Point",
        "coordinates": [
          30.35472222,
          59.96305556
        ]
      },
      "properties": {
        "label": "Altay cellphone system tower",
        "type": "Communication tower",
        "entity": "http://www.wikidata.org/entity/Q4387529",
        "country_qid": "Q159"
      }
    },
    {
      "type": "Feature",
      "geometry": {
        "type": "Point",
        "coordinates": [
          44.530686,
          48.741446
        ]
      },
      "properties": {
        "label": "Volgograd TV Tower",
        "type": "Communication tower",
        "entity": "http://www.wikidata.org/entity/Q134426527",
        "country_qid": "Q159"
      }
    },
    {
      "type": "Feature",
      "geometry": {
        "type": "Point",
        "coordinates": [
          48.05,
          46.360277777
        ]
      },
      "properties": {
        "label": "Communication tower in Astrakhan",
        "type": "Communication tower",
        "entity": "http://www.wikidata.org/entity/Q4071700",
        "country_qid": "Q159"
      }
    },
    {
      "type": "Feature",
      "geometry": {
        "type": "Point",
        "coordinates": [
          61.405192,
          55.153135
        ]
      },
      "properties": {
        "label": "Q134988631",
        "type": "Communication tower",
        "entity": "http://www.wikidata.org/entity/Q134988631",
        "country_qid": "Q159"
      }
    },
    {
      "type": "Feature",
      "geometry": {
        "type": "Point",
        "coordinates": [
          37.611388888,
          55.717222222
        ]
      },
      "properties": {
        "label": "Shukhov Tower",
        "type": "Communication tower",
        "entity": "http://www.wikidata.org/entity/Q662367",
        "country_qid": "Q159"
      }
    },
    {
      "type": "Feature",
      "geometry": {
        "type": "Point",
        "coordinates": [
          37.611666666,
          55.819722222
        ]
      },
      "properties": {
        "label": "Ostankino Tower",
        "type": "Communication tower",
        "entity": "http://www.wikidata.org/entity/Q181324",
        "country_qid": "Q159"
      }
    },
    {
      "type": "Feature",
      "geometry": {
        "type": "Point",
        "coordinates": [
          37.489444444,
          55.781388888
        ]
      },
      "properties": {
        "label": "Moscow Octod Tower",
        "type": "Communication tower",
        "entity": "http://www.wikidata.org/entity/Q2017711",
        "country_qid": "Q159"
      }
    },
    {
      "type": "Feature",
      "geometry": {
        "type": "Point",
        "coordinates": [
          36.6,
          50.6
        ]
      },
      "properties": {
        "label": "Belgorod Tower",
        "type": "Communication tower",
        "entity": "http://www.wikidata.org/entity/Q15640382",
        "country_qid": "Q159"
      }
    },
    {
      "type": "Feature",
      "geometry": {
        "type": "Point",
        "coordinates": [
          55.92526944,
          54.72233889
        ]
      },
      "properties": {
        "label": "Telecentre (Ufa)",
        "type": "Communication tower",
        "entity": "http://www.wikidata.org/entity/Q4454173",
        "country_qid": "Q159"
      }
    }
  ]
}