{
  "type": "FeatureCollection",
  "features": [
    {
      "type": "Feature",
      "geometry": {
        "type": "Point",
        "coordinates": [
          109.0929864,
          -7.6856287
        ]
      },
      "properties": {
        "label": "Cilacap Power Plant",
        "type": "Coal-fired power station",
        "entity": "http://www.wikidata.org/entity/Q17762472",
        "country_qid": "Q252"
      }
    },
    {
      "type": "Feature",
      "geometry": {
        "type": "Point",
        "coordinates": [
          111.3737969,
          -8.2582072
        ]
      },
      "properties": {
        "label": "Pacitan Power Plant",
        "type": "Coal-fired power station",
        "entity": "http://www.wikidata.org/entity/Q11994608",
        "country_qid": "Q252"
      }
    },
    {
      "type": "Feature",
      "geometry": {
        "type": "Point",
        "coordinates": [
          108.615,
          -6.77
        ]
      },
      "properties": {
        "label": "Cirebon Steam Power Plant",
        "type": "Coal-fired power station",
        "entity": "http://www.wikidata.org/entity/Q5121854",
        "country_qid": "Q252"
      }
    },
    {
      "type": "Feature",
      "geometry": {
        "type": "Point",
        "coordinates": [
          109.1372529,
          -7.6836378
        ]
      },
      "properties": {
        "label": "Adipala Power Plant",
        "type": "Coal-fired power station",
        "entity": "http://www.wikidata.org/entity/Q19730961",
        "country_qid": "Q252"
      }
    },
    {
      "type": "Feature",
      "geometry": {
        "type": "Point",
        "coordinates": [
          106.464445,
          -6.0592373
        ]
      },
      "properties": {
        "label": "Q12005459",
        "type": "Coal-fired power station",
        "entity": "http://www.wikidata.org/entity/Q12005459",
        "country_qid": "Q252"
      }
    },
    {
      "type": "Feature",
      "geometry": {
        "type": "Point",
        "coordinates": [
          107.9702339,
          -6.2746363
        ]
      },
      "properties": {
        "label": "Indramayu Power Plant",
        "type": "Coal-fired power station",
        "entity": "http://www.wikidata.org/entity/Q19375553",
        "country_qid": "Q252"
      }
    },
    {
      "type": "Feature",
      "geometry": {
        "type": "Point",
        "coordinates": [
          105.8290619,
          -6.3917358
        ]
      },
      "properties": {
        "label": "Labuan Angin Power Plant",
        "type": "Coal-fired power station",
        "entity": "http://www.wikidata.org/entity/Q19378710",
        "country_qid": "Q252"
      }
    },
    {
      "type": "Feature",
      "geometry": {
        "type": "Point",
        "coordinates": [
          111.4756054,
          -6.6360318
        ]
      },
      "properties": {
        "label": "Rembang Power Plant",
        "type": "Coal-fired power station",
        "entity": "http://www.wikidata.org/entity/Q19386456",
        "country_qid": "Q252"
      }
    },
    {
      "type": "Feature",
      "geometry": {
        "type": "Point",
        "coordinates": [
          106.030333333,
          -5.892388888
        ]
      },
      "properties": {
        "label": "Suralaya Power Station",
        "type": "Coal-fired power station",
        "entity": "http://www.wikidata.org/entity/Q6333253",
        "country_qid": "Q252"
      }
    },
    {
      "type": "Feature",
      "geometry": {
        "type": "Point",
        "coordinates": [
          106.5461504,
          -7.0234246
        ]
      },
      "properties": {
        "label": "Palabuhanratu Power Plant",
        "type": "Coal-fired power station",
        "entity": "http://www.wikidata.org/entity/Q25470952",
        "country_qid": "Q252"
      }
    },
    {
      "type": "Feature",
      "geometry": {
        "type": "Point",
        "coordinates": [
          110.7431513,
          -6.4455381
        ]
      },
      "properties": {
        "label": "Tanjung Jati Power Plant",
        "type": "Coal-fired power station",
        "entity": "http://www.wikidata.org/entity/Q12005195",
        "country_qid": "Q252"
      }
    },
    {
      "type": "Feature",
      "geometry": {
        "type": "Point",
        "coordinates": [
          113.582611111,
          -7.713833333
        ]
      },
      "properties": {
        "label": "Paiton Power Station",
        "type": "Coal-fired power station",
        "entity": "http://www.wikidata.org/entity/Q16896355",
        "country_qid": "Q252"
      }
    }
  ]
}