{
  "type": "FeatureCollection",
  "features": [
    {
      "type": "Feature",
      "geometry": {
        "type": "Point",
        "coordinates": [
          12.8392,
          48.1938
        ]
      },
      "properties": {
        "label": "Burghausen refinery",
        "type": "Oil refinery",
        "entity": "http://www.wikidata.org/entity/Q15125781",
        "country_qid": "Q183"
      }
    },
    {
      "type": "Feature",
      "geometry": {
        "type": "Point",
        "coordinates": [
          9.89666667,
          53.53388889
        ]
      },
      "properties": {
        "label": "Eurotank",
        "type": "Oil refinery",
        "entity": "http://www.wikidata.org/entity/Q15107079",
        "country_qid": "Q183"
      }
    },
    {
      "type": "Feature",
      "geometry": {
        "type": "Point",
        "coordinates": [
          10.180277777,
          52.418333333
        ]
      },
      "properties": {
        "label": "Gasolin-Raffinerie Dollbergen",
        "type": "Oil refinery",
        "entity": "http://www.wikidata.org/entity/Q53513418",
        "country_qid": "Q183"
      }
    },
    {
      "type": "Feature",
      "geometry": {
        "type": "Point",
        "coordinates": [
          6.69778,
          51.63555
        ]
      },
      "properties": {
        "label": "BP Ruhr-Raffinerie",
        "type": "Oil refinery",
        "entity": "http://www.wikidata.org/entity/Q42916740",
        "country_qid": "Q183"
      }
    },
    {
      "type": "Feature",
      "geometry": {
        "type": "Point",
        "coordinates": [
          6.93196,
          51.005977
        ]
      },
      "properties": {
        "label": "Esso-Raffinerie Köln",
        "type": "Oil refinery",
        "entity": "http://www.wikidata.org/entity/Q53513421",
        "country_qid": "Q183"
      }
    },
    {
      "type": "Feature",
      "geometry": {
        "type": "Point",
        "coordinates": [
          9.84781,
          52.38594
        ]
      },
      "properties": {
        "label": "Deurag-Nerag",
        "type": "Oil refinery",
        "entity": "http://www.wikidata.org/entity/Q1201668",
        "country_qid": "Q183"
      }
    },
    {
      "type": "Feature",
      "geometry": {
        "type": "Point",
        "coordinates": [
          12.0,
          51.285
        ]
      },
      "properties": {
        "label": "Total Refinery Mitteldeutschland",
        "type": "Oil refinery",
        "entity": "http://www.wikidata.org/entity/Q111976857",
        "country_qid": "Q183"
      }
    },
    {
      "type": "Feature",
      "geometry": {
        "type": "Point",
        "coordinates": [
          7.30944,
          52.5586
        ]
      },
      "properties": {
        "label": "Erdöl-Raffinerie Emsland",
        "type": "Oil refinery",
        "entity": "http://www.wikidata.org/entity/Q1349579",
        "country_qid": "Q183"
      }
    },
    {
      "type": "Feature",
      "geometry": {
        "type": "Point",
        "coordinates": [
          8.096194444,
          53.612805555
        ]
      },
      "properties": {
        "label": "Oil refinery and depot Wilhelmshaven",
        "type": "Oil refinery",
        "entity": "http://www.wikidata.org/entity/Q2576244",
        "country_qid": "Q183"
      }
    },
    {
      "type": "Feature",
      "geometry": {
        "type": "Point",
        "coordinates": [
          14.24,
          53.1
        ]
      },
      "properties": {
        "label": "PCK refinery",
        "type": "Oil refinery",
        "entity": "http://www.wikidata.org/entity/Q14524622",
        "country_qid": "Q183"
      }
    },
    {
      "type": "Feature",
      "geometry": {
        "type": "Point",
        "coordinates": [
          6.98444444,
          50.85972222
        ]
      },
      "properties": {
        "label": "Rheinland Raffinerie",
        "type": "Oil refinery",
        "entity": "http://www.wikidata.org/entity/Q1260981",
        "country_qid": "Q183"
      }
    },
    {
      "type": "Feature",
      "geometry": {
        "type": "Point",
        "coordinates": [
          8.48275,
          50.033555555
        ]
      },
      "properties": {
        "label": "Caltex-Raffinerie Raunheim",
        "type": "Oil refinery",
        "entity": "http://www.wikidata.org/entity/Q53596638",
        "country_qid": "Q183"
      }
    },
    {
      "type": "Feature",
      "geometry": {
        "type": "Point",
        "coordinates": [
          9.074166666,
          54.157777777
        ]
      },
      "properties": {
        "label": "Raffinerie Heide",
        "type": "Oil refinery",
        "entity": "http://www.wikidata.org/entity/Q15841584",
        "country_qid": "Q183"
      }
    },
    {
      "type": "Feature",
      "geometry": {
        "type": "Point",
        "coordinates": [
          11.858237,
          51.295324
        ]
      },
      "properties": {
        "label": "Mineralölwerk Lützkendorf",
        "type": "Oil refinery",
        "entity": "http://www.wikidata.org/entity/Q26794496",
        "country_qid": "Q183"
      }
    },
    {
      "type": "Feature",
      "geometry": {
        "type": "Point",
        "coordinates": [
          11.48165,
          48.79161
        ]
      },
      "properties": {
        "label": "Q117813125",
        "type": "Oil refinery",
        "entity": "http://www.wikidata.org/entity/Q117813125",
        "country_qid": "Q183"
      }
    },
    {
      "type": "Feature",
      "geometry": {
        "type": "Point",
        "coordinates": [
          7.3478,
          52.317
        ]
      },
      "properties": {
        "label": "Raffinerie Salzbergen",
        "type": "Oil refinery",
        "entity": "http://www.wikidata.org/entity/Q1782213",
        "country_qid": "Q183"
      }
    },
    {
      "type": "Feature",
      "geometry": {
        "type": "Point",
        "coordinates": [
          8.44444444,
          49.52472222
        ]
      },
      "properties": {
        "label": "Q15110396",
        "type": "Oil refinery",
        "entity": "http://www.wikidata.org/entity/Q15110396",
        "country_qid": "Q183"
      }
    },
    {
      "type": "Feature",
      "geometry": {
        "type": "Point",
        "coordinates": [
          8.329647,
          49.059317
        ]
      },
      "properties": {
        "label": "MiRO",
        "type": "Oil refinery",
        "entity": "http://www.wikidata.org/entity/Q1761694",
        "country_qid": "Q183"
      }
    }
  ]
}