{
  "type": "FeatureCollection",
  "features": [
    {
      "type": "Feature",
      "geometry": {
        "type": "Point",
        "coordinates": [
          16.702633,
          48.239161
        ]
      },
      "properties": {
        "label": "Zuckerfabrik Leopoldsdorf",
        "type": "Industrial building",
        "entity": "http://www.wikidata.org/entity/Q98651759",
        "country_qid": "Q533534"
      }
    },
    {
      "type": "Feature",
      "geometry": {
        "type": "Point",
        "coordinates": [
          16.313154,
          48.086459
        ]
      },
      "properties": {
        "label": "Q123266337",
        "type": "Industrial building",
        "entity": "http://www.wikidata.org/entity/Q123266337",
        "country_qid": "Q533534"
      }
    },
    {
      "type": "Feature",
      "geometry": {
        "type": "Point",
        "coordinates": [
          15.5875,
          48.404611111
        ]
      },
      "properties": {
        "label": "Tabakfabrik Krems-Stein",
        "type": "Industrial building",
        "entity": "http://www.wikidata.org/entity/Q104533832",
        "country_qid": "Q533534"
      }
    },
    {
      "type": "Feature",
      "geometry": {
        "type": "Point",
        "coordinates": [
          16.228972814,
          48.007859534
        ]
      },
      "properties": {
        "label": "Q115052207",
        "type": "Industrial building",
        "entity": "http://www.wikidata.org/entity/Q115052207",
        "country_qid": "Q533534"
      }
    },
    {
      "type": "Feature",
      "geometry": {
        "type": "Point",
        "coordinates": [
          16.234979322,
          48.080998949
        ]
      },
      "properties": {
        "label": "Q115051709",
        "type": "Industrial building",
        "entity": "http://www.wikidata.org/entity/Q115051709",
        "country_qid": "Q533534"
      }
    },
    {
      "type": "Feature",
      "geometry": {
        "type": "Point",
        "coordinates": [
          16.220725277,
          48.00837139
        ]
      },
      "properties": {
        "label": "Weikersdorfer Schlossmühle",
        "type": "Industrial building",
        "entity": "http://www.wikidata.org/entity/Q116374599",
        "country_qid": "Q533534"
      }
    },
    {
      "type": "Feature",
      "geometry": {
        "type": "Point",
        "coordinates": [
          16.938332,
          48.146655
        ]
      },
      "properties": {
        "label": "Hainburg Austria Tabakwerke",
        "type": "Industrial building",
        "entity": "http://www.wikidata.org/entity/Q70590153",
        "country_qid": "Q533534"
      }
    },
    {
      "type": "Feature",
      "geometry": {
        "type": "Point",
        "coordinates": [
          16.754467,
          48.022857
        ]
      },
      "properties": {
        "label": "Q97602026",
        "type": "Industrial building",
        "entity": "http://www.wikidata.org/entity/Q97602026",
        "country_qid": "Q533534"
      }
    },
    {
      "type": "Feature",
      "geometry": {
        "type": "Point",
        "coordinates": [
          16.299953437,
          47.956566416
        ]
      },
      "properties": {
        "label": "Old mill of Tattendorf",
        "type": "Industrial building",
        "entity": "http://www.wikidata.org/entity/Q114928766",
        "country_qid": "Q533534"
      }
    },
    {
      "type": "Feature",
      "geometry": {
        "type": "Point",
        "coordinates": [
          14.311743,
          46.618976
        ]
      },
      "properties": {
        "label": "Q106044900",
        "type": "Industrial building",
        "entity": "http://www.wikidata.org/entity/Q106044900",
        "country_qid": "Q533534"
      }
    },
    {
      "type": "Feature",
      "geometry": {
        "type": "Point",
        "coordinates": [
          16.250744,
          48.007894
        ]
      },
      "properties": {
        "label": "Leesdorfer Hofmühle",
        "type": "Industrial building",
        "entity": "http://www.wikidata.org/entity/Q98446661",
        "country_qid": "Q533534"
      }
    },
    {
      "type": "Feature",
      "geometry": {
        "type": "Point",
        "coordinates": [
          13.229022222,
          48.249258333
        ]
      },
      "properties": {
        "label": "Brauerei Raschhofer",
        "type": "Industrial building",
        "entity": "http://www.wikidata.org/entity/Q126520355",
        "country_qid": "Q533534"
      }
    },
    {
      "type": "Feature",
      "geometry": {
        "type": "Point",
        "coordinates": [
          16.302909961,
          48.021338728
        ]
      },
      "properties": {
        "label": "Rothmühle",
        "type": "Industrial building",
        "entity": "http://www.wikidata.org/entity/Q116325111",
        "country_qid": "Q533534"
      }
    },
    {
      "type": "Feature",
      "geometry": {
        "type": "Point",
        "coordinates": [
          16.241149739,
          48.007021599
        ]
      },
      "properties": {
        "label": "Schäfflermühle",
        "type": "Industrial building",
        "entity": "http://www.wikidata.org/entity/Q116317220",
        "country_qid": "Q533534"
      }
    },
    {
      "type": "Feature",
      "geometry": {
        "type": "Point",
        "coordinates": [
          16.238702849,
          48.007034536
        ]
      },
      "properties": {
        "label": "Trottmannmühle",
        "type": "Industrial building",
        "entity": "http://www.wikidata.org/entity/Q116314992",
        "country_qid": "Q533534"
      }
    },
    {
      "type": "Feature",
      "geometry": {
        "type": "Point",
        "coordinates": [
          16.230878144,
          48.006869526
        ]
      },
      "properties": {
        "label": "Q115052315",
        "type": "Industrial building",
        "entity": "http://www.wikidata.org/entity/Q115052315",
        "country_qid": "Q533534"
      }
    },
    {
      "type": "Feature",
      "geometry": {
        "type": "Point",
        "coordinates": [
          16.255351269,
          48.006781157
        ]
      },
      "properties": {
        "label": "Hansymühle",
        "type": "Industrial building",
        "entity": "http://www.wikidata.org/entity/Q116380379",
        "country_qid": "Q533534"
      }
    },
    {
      "type": "Feature",
      "geometry": {
        "type": "Point",
        "coordinates": [
          16.227145833,
          48.008389122
        ]
      },
      "properties": {
        "label": "Q115051990",
        "type": "Industrial building",
        "entity": "http://www.wikidata.org/entity/Q115051990",
        "country_qid": "Q533534"
      }
    }
  ]
}