{
  "type": "FeatureCollection",
  "features": [
    {
      "type": "Feature",
      "geometry": {
        "type": "Point",
        "coordinates": [
          75.821624,
          21.046545
        ]
      },
      "properties": {
        "label": "Bhusawal C cabin",
        "type": "Industrial building",
        "entity": "http://www.wikidata.org/entity/Q63355454",
        "country_qid": "Q668"
      }
    },
    {
      "type": "Feature",
      "geometry": {
        "type": "Point",
        "coordinates": [
          72.570106,
          23.085912
        ]
      },
      "properties": {
        "label": "Sabarmati F cabin",
        "type": "Industrial building",
        "entity": "http://www.wikidata.org/entity/Q63355334",
        "country_qid": "Q668"
      }
    },
    {
      "type": "Feature",
      "geometry": {
        "type": "Point",
        "coordinates": [
          72.520108,
          23.212087
        ]
      },
      "properties": {
        "label": "Iffco cabin",
        "type": "Industrial building",
        "entity": "http://www.wikidata.org/entity/Q63368865",
        "country_qid": "Q668"
      }
    },
    {
      "type": "Feature",
      "geometry": {
        "type": "Point",
        "coordinates": [
          81.443063,
          21.209789
        ]
      },
      "properties": {
        "label": "Bmy C cabin",
        "type": "Industrial building",
        "entity": "http://www.wikidata.org/entity/Q63354870",
        "country_qid": "Q668"
      }
    },
    {
      "type": "Feature",
      "geometry": {
        "type": "Point",
        "coordinates": [
          74.638449,
          24.792781
        ]
      },
      "properties": {
        "label": "Shambhupura C cabin",
        "type": "Industrial building",
        "entity": "http://www.wikidata.org/entity/Q63369134",
        "country_qid": "Q668"
      }
    },
    {
      "type": "Feature",
      "geometry": {
        "type": "Point",
        "coordinates": [
          83.888267,
          21.809025
        ]
      },
      "properties": {
        "label": "Lajkura cabin",
        "type": "Industrial building",
        "entity": "http://www.wikidata.org/entity/Q63368996",
        "country_qid": "Q668"
      }
    },
    {
      "type": "Feature",
      "geometry": {
        "type": "Point",
        "coordinates": [
          84.913857,
          22.233321
        ]
      },
      "properties": {
        "label": "K-cabin Bondamunda",
        "type": "Industrial building",
        "entity": "http://www.wikidata.org/entity/Q63370482",
        "country_qid": "Q668"
      }
    },
    {
      "type": "Feature",
      "geometry": {
        "type": "Point",
        "coordinates": [
          77.709215,
          22.591346
        ]
      },
      "properties": {
        "label": "Itarsi B cabin",
        "type": "Industrial building",
        "entity": "http://www.wikidata.org/entity/Q63361382",
        "country_qid": "Q668"
      }
    },
    {
      "type": "Feature",
      "geometry": {
        "type": "Point",
        "coordinates": [
          77.787463,
          23.509201
        ]
      },
      "properties": {
        "label": "Betwa cabin",
        "type": "Industrial building",
        "entity": "http://www.wikidata.org/entity/Q63369836",
        "country_qid": "Q668"
      }
    },
    {
      "type": "Feature",
      "geometry": {
        "type": "Point",
        "coordinates": [
          86.692871,
          23.492772
        ]
      },
      "properties": {
        "label": "Adra East cabin",
        "type": "Industrial building",
        "entity": "http://www.wikidata.org/entity/Q63369004",
        "country_qid": "Q668"
      }
    },
    {
      "type": "Feature",
      "geometry": {
        "type": "Point",
        "coordinates": [
          73.485951,
          19.674468
        ]
      },
      "properties": {
        "label": "Block And Catch Siding cabin No.3",
        "type": "Industrial building",
        "entity": "http://www.wikidata.org/entity/Q63355840",
        "country_qid": "Q668"
      }
    },
    {
      "type": "Feature",
      "geometry": {
        "type": "Point",
        "coordinates": [
          75.822458,
          21.049919
        ]
      },
      "properties": {
        "label": "Bhusawal B cabin",
        "type": "Industrial building",
        "entity": "http://www.wikidata.org/entity/Q63361010",
        "country_qid": "Q668"
      }
    },
    {
      "type": "Feature",
      "geometry": {
        "type": "Point",
        "coordinates": [
          77.303032,
          28.458853
        ]
      },
      "properties": {
        "label": "Tuglakabad cabin",
        "type": "Industrial building",
        "entity": "http://www.wikidata.org/entity/Q63355305",
        "country_qid": "Q668"
      }
    },
    {
      "type": "Feature",
      "geometry": {
        "type": "Point",
        "coordinates": [
          77.774856,
          22.61521
        ]
      },
      "properties": {
        "label": "Itarsi F cabin",
        "type": "Industrial building",
        "entity": "http://www.wikidata.org/entity/Q63354743",
        "country_qid": "Q668"
      }
    },
    {
      "type": "Feature",
      "geometry": {
        "type": "Point",
        "coordinates": [
          76.375851,
          26.0356
        ]
      },
      "properties": {
        "label": "Sawai Madhopur D cabin",
        "type": "Industrial building",
        "entity": "http://www.wikidata.org/entity/Q63360940",
        "country_qid": "Q668"
      }
    },
    {
      "type": "Feature",
      "geometry": {
        "type": "Point",
        "coordinates": [
          77.276461,
          28.547701
        ]
      },
      "properties": {
        "label": "Tuglakabad East cabin",
        "type": "Industrial building",
        "entity": "http://www.wikidata.org/entity/Q63355255",
        "country_qid": "Q668"
      }
    },
    {
      "type": "Feature",
      "geometry": {
        "type": "Point",
        "coordinates": [
          70.150716,
          23.095023
        ]
      },
      "properties": {
        "label": "Gandhidham cabin",
        "type": "Industrial building",
        "entity": "http://www.wikidata.org/entity/Q63355438",
        "country_qid": "Q668"
      }
    },
    {
      "type": "Feature",
      "geometry": {
        "type": "Point",
        "coordinates": [
          80.323909842,
          26.453190192
        ]
      },
      "properties": {
        "label": "Juhi Outer cabin",
        "type": "Industrial building",
        "entity": "http://www.wikidata.org/entity/Q63354862",
        "country_qid": "Q668"
      }
    },
    {
      "type": "Feature",
      "geometry": {
        "type": "Point",
        "coordinates": [
          88.3512542,
          22.5076458
        ]
      },
      "properties": {
        "label": "Mile-5b railway cabin",
        "type": "Industrial building",
        "entity": "http://www.wikidata.org/entity/Q59247387",
        "country_qid": "Q668"
      }
    },
    {
      "type": "Feature",
      "geometry": {
        "type": "Point",
        "coordinates": [
          83.172391,
          25.289359
        ]
      },
      "properties": {
        "label": "Flyover cabin, Pandit Deen Dayal Upadhyaya Nagar",
        "type": "Industrial building",
        "entity": "http://www.wikidata.org/entity/Q63355111",
        "country_qid": "Q668"
      }
    },
    {
      "type": "Feature",
      "geometry": {
        "type": "Point",
        "coordinates": [
          81.499084,
          21.236052
        ]
      },
      "properties": {
        "label": "Bhilai cabin",
        "type": "Industrial building",
        "entity": "http://www.wikidata.org/entity/Q63356119",
        "country_qid": "Q668"
      }
    },
    {
      "type": "Feature",
      "geometry": {
        "type": "Point",
        "coordinates": [
          79.561183,
          17.975697
        ]
      },
      "properties": {
        "label": "Kazipet E cabin",
        "type": "Industrial building",
        "entity": "http://www.wikidata.org/entity/Q63355642",
        "country_qid": "Q668"
      }
    },
    {
      "type": "Feature",
      "geometry": {
        "type": "Point",
        "coordinates": [
          73.359131134,
          18.854079332
        ]
      },
      "properties": {
        "label": "Nagnath cabin",
        "type": "Industrial building",
        "entity": "http://www.wikidata.org/entity/Q63369573",
        "country_qid": "Q668"
      }
    },
    {
      "type": "Feature",
      "geometry": {
        "type": "Point",
        "coordinates": [
          77.30022,
          28.677357
        ]
      },
      "properties": {
        "label": "Delhi Shahdara Block cabin",
        "type": "Industrial building",
        "entity": "http://www.wikidata.org/entity/Q63361146",
        "country_qid": "Q668"
      }
    },
    {
      "type": "Feature",
      "geometry": {
        "type": "Point",
        "coordinates": [
          82.402106,
          22.027897
        ]
      },
      "properties": {
        "label": "Latia cabin",
        "type": "Industrial building",
        "entity": "http://www.wikidata.org/entity/Q63355570",
        "country_qid": "Q668"
      }
    },
    {
      "type": "Feature",
      "geometry": {
        "type": "Point",
        "coordinates": [
          73.499954,
          19.701406
        ]
      },
      "properties": {
        "label": "Block And Catch Siding cabin No.2",
        "type": "Industrial building",
        "entity": "http://www.wikidata.org/entity/Q63355322",
        "country_qid": "Q668"
      }
    },
    {
      "type": "Feature",
      "geometry": {
        "type": "Point",
        "coordinates": [
          71.636363,
          22.734875
        ]
      },
      "properties": {
        "label": "Surendra Nagar gate",
        "type": "Industrial building",
        "entity": "http://www.wikidata.org/entity/Q63361472",
        "country_qid": "Q668"
      }
    },
    {
      "type": "Feature",
      "geometry": {
        "type": "Point",
        "coordinates": [
          86.865534,
          23.734566
        ]
      },
      "properties": {
        "label": "Kulti Link cabin",
        "type": "Industrial building",
        "entity": "http://www.wikidata.org/entity/Q63361498",
        "country_qid": "Q668"
      }
    },
    {
      "type": "Feature",
      "geometry": {
        "type": "Point",
        "coordinates": [
          74.449555861,
          20.23147357
        ]
      },
      "properties": {
        "label": "Manmad B cabin",
        "type": "Industrial building",
        "entity": "http://www.wikidata.org/entity/Q63361483",
        "country_qid": "Q668"
      }
    },
    {
      "type": "Feature",
      "geometry": {
        "type": "Point",
        "coordinates": [
          85.463592,
          23.64052
        ]
      },
      "properties": {
        "label": "Barkakana Avoiding cabin",
        "type": "Industrial building",
        "entity": "http://www.wikidata.org/entity/Q63369035",
        "country_qid": "Q668"
      }
    },
    {
      "type": "Feature",
      "geometry": {
        "type": "Point",
        "coordinates": [
          77.625579642,
          13.006731169
        ]
      },
      "properties": {
        "label": "Baiyyappanahalli Yard cabin",
        "type": "Industrial building",
        "entity": "http://www.wikidata.org/entity/Q63369893",
        "country_qid": "Q668"
      }
    },
    {
      "type": "Feature",
      "geometry": {
        "type": "Point",
        "coordinates": [
          73.159087,
          22.344458
        ]
      },
      "properties": {
        "label": "Vadodara D cabin",
        "type": "Industrial building",
        "entity": "http://www.wikidata.org/entity/Q63355563",
        "country_qid": "Q668"
      }
    },
    {
      "type": "Feature",
      "geometry": {
        "type": "Point",
        "coordinates": [
          80.45759,
          16.29953
        ]
      },
      "properties": {
        "label": "Manipuram cabin",
        "type": "Industrial building",
        "entity": "http://www.wikidata.org/entity/Q63358212",
        "country_qid": "Q668"
      }
    },
    {
      "type": "Feature",
      "geometry": {
        "type": "Point",
        "coordinates": [
          75.042913,
          23.335631
        ]
      },
      "properties": {
        "label": "Ratlam A cabin",
        "type": "Industrial building",
        "entity": "http://www.wikidata.org/entity/Q63369953",
        "country_qid": "Q668"
      }
    },
    {
      "type": "Feature",
      "geometry": {
        "type": "Point",
        "coordinates": [
          78.545787,
          25.41949
        ]
      },
      "properties": {
        "label": "Jhansi A cabin",
        "type": "Industrial building",
        "entity": "http://www.wikidata.org/entity/Q63354937",
        "country_qid": "Q668"
      }
    },
    {
      "type": "Feature",
      "geometry": {
        "type": "Point",
        "coordinates": [
          76.271,
          10.759868
        ]
      },
      "properties": {
        "label": "Shoranur B cabin",
        "type": "Industrial building",
        "entity": "http://www.wikidata.org/entity/Q63368939",
        "country_qid": "Q668"
      }
    },
    {
      "type": "Feature",
      "geometry": {
        "type": "Point",
        "coordinates": [
          74.615232,
          24.896442
        ]
      },
      "properties": {
        "label": "Berach Jn cabin",
        "type": "Industrial building",
        "entity": "http://www.wikidata.org/entity/Q63360898",
        "country_qid": "Q668"
      }
    },
    {
      "type": "Feature",
      "geometry": {
        "type": "Point",
        "coordinates": [
          72.570275,
          23.101488
        ]
      },
      "properties": {
        "label": "Sabarmati D cabin",
        "type": "Industrial building",
        "entity": "http://www.wikidata.org/entity/Q63368879",
        "country_qid": "Q668"
      }
    },
    {
      "type": "Feature",
      "geometry": {
        "type": "Point",
        "coordinates": [
          75.067019,
          23.35979
        ]
      },
      "properties": {
        "label": "Ratlam East cabin",
        "type": "Industrial building",
        "entity": "http://www.wikidata.org/entity/Q63369948",
        "country_qid": "Q668"
      }
    },
    {
      "type": "Feature",
      "geometry": {
        "type": "Point",
        "coordinates": [
          81.841869,
          25.356832
        ]
      },
      "properties": {
        "label": "Link Jn. cabin",
        "type": "Industrial building",
        "entity": "http://www.wikidata.org/entity/Q63361278",
        "country_qid": "Q668"
      }
    },
    {
      "type": "Feature",
      "geometry": {
        "type": "Point",
        "coordinates": [
          73.17783,
          22.318357
        ]
      },
      "properties": {
        "label": "Vadodara C cabin",
        "type": "Industrial building",
        "entity": "http://www.wikidata.org/entity/Q63368841",
        "country_qid": "Q668"
      }
    },
    {
      "type": "Feature",
      "geometry": {
        "type": "Point",
        "coordinates": [
          75.904655999,
          25.297230387
        ]
      },
      "properties": {
        "label": "Gurla N cabin",
        "type": "Industrial building",
        "entity": "http://www.wikidata.org/entity/Q63355204",
        "country_qid": "Q668"
      }
    },
    {
      "type": "Feature",
      "geometry": {
        "type": "Point",
        "coordinates": [
          83.10921,
          25.27379
        ]
      },
      "properties": {
        "label": "New West cabin",
        "type": "Industrial building",
        "entity": "http://www.wikidata.org/entity/Q63355134",
        "country_qid": "Q668"
      }
    },
    {
      "type": "Feature",
      "geometry": {
        "type": "Point",
        "coordinates": [
          88.257363,
          24.23827
        ]
      },
      "properties": {
        "label": "Azimganj Jn cabin",
        "type": "Industrial building",
        "entity": "http://www.wikidata.org/entity/Q63361439",
        "country_qid": "Q668"
      }
    },
    {
      "type": "Feature",
      "geometry": {
        "type": "Point",
        "coordinates": [
          74.940231,
          30.150805
        ]
      },
      "properties": {
        "label": "Bhatinda B cabin",
        "type": "Industrial building",
        "entity": "http://www.wikidata.org/entity/Q63369387",
        "country_qid": "Q668"
      }
    },
    {
      "type": "Feature",
      "geometry": {
        "type": "Point",
        "coordinates": [
          72.592931,
          23.050805
        ]
      },
      "properties": {
        "label": "Sabarmati A cabin",
        "type": "Industrial building",
        "entity": "http://www.wikidata.org/entity/Q63355450",
        "country_qid": "Q668"
      }
    },
    {
      "type": "Feature",
      "geometry": {
        "type": "Point",
        "coordinates": [
          77.650955,
          15.140041
        ]
      },
      "properties": {
        "label": "Gooty Junction cabin",
        "type": "Industrial building",
        "entity": "http://www.wikidata.org/entity/Q63369511",
        "country_qid": "Q668"
      }
    },
    {
      "type": "Feature",
      "geometry": {
        "type": "Point",
        "coordinates": [
          72.535718,
          23.179203
        ]
      },
      "properties": {
        "label": "Iffco cabin",
        "type": "Industrial building",
        "entity": "http://www.wikidata.org/entity/Q63369326",
        "country_qid": "Q668"
      }
    },
    {
      "type": "Feature",
      "geometry": {
        "type": "Point",
        "coordinates": [
          81.464891,
          21.220991
        ]
      },
      "properties": {
        "label": "Bmy H cabin",
        "type": "Industrial building",
        "entity": "http://www.wikidata.org/entity/Q63355880",
        "country_qid": "Q668"
      }
    },
    {
      "type": "Feature",
      "geometry": {
        "type": "Point",
        "coordinates": [
          79.577271,
          17.974824
        ]
      },
      "properties": {
        "label": "Kazipet F cabin",
        "type": "Industrial building",
        "entity": "http://www.wikidata.org/entity/Q63361419",
        "country_qid": "Q668"
      }
    },
    {
      "type": "Feature",
      "geometry": {
        "type": "Point",
        "coordinates": [
          72.042828,
          23.137395
        ]
      },
      "properties": {
        "label": "Viramgam D cabin",
        "type": "Industrial building",
        "entity": "http://www.wikidata.org/entity/Q63361511",
        "country_qid": "Q668"
      }
    },
    {
      "type": "Feature",
      "geometry": {
        "type": "Point",
        "coordinates": [
          78.462205614,
          17.425691927
        ]
      },
      "properties": {
        "label": "Hussain Sagar Junction",
        "type": "Industrial building",
        "entity": "http://www.wikidata.org/entity/Q63361403",
        "country_qid": "Q668"
      }
    },
    {
      "type": "Feature",
      "geometry": {
        "type": "Point",
        "coordinates": [
          85.43383,
          22.024168
        ]
      },
      "properties": {
        "label": "Joda Block cabin",
        "type": "Industrial building",
        "entity": "http://www.wikidata.org/entity/Q63369017",
        "country_qid": "Q668"
      }
    },
    {
      "type": "Feature",
      "geometry": {
        "type": "Point",
        "coordinates": [
          76.306549,
          9.979712
        ]
      },
      "properties": {
        "label": "Ernakulam D cabin",
        "type": "Industrial building",
        "entity": "http://www.wikidata.org/entity/Q63370114",
        "country_qid": "Q668"
      }
    },
    {
      "type": "Feature",
      "geometry": {
        "type": "Point",
        "coordinates": [
          73.069462,
          19.246247
        ]
      },
      "properties": {
        "label": "Ulhas Bridge cabin",
        "type": "Industrial building",
        "entity": "http://www.wikidata.org/entity/Q63361421",
        "country_qid": "Q668"
      }
    },
    {
      "type": "Feature",
      "geometry": {
        "type": "Point",
        "coordinates": [
          81.300896,
          21.197156
        ]
      },
      "properties": {
        "label": "Durg Link cabin",
        "type": "Industrial building",
        "entity": "http://www.wikidata.org/entity/Q63368857",
        "country_qid": "Q668"
      }
    },
    {
      "type": "Feature",
      "geometry": {
        "type": "Point",
        "coordinates": [
          88.342811,
          22.583533
        ]
      },
      "properties": {
        "label": "Howrah Jn. cabin",
        "type": "Industrial building",
        "entity": "http://www.wikidata.org/entity/Q63355834",
        "country_qid": "Q668"
      }
    },
    {
      "type": "Feature",
      "geometry": {
        "type": "Point",
        "coordinates": [
          78.00176,
          29.767009
        ]
      },
      "properties": {
        "label": "Laksar North cabin",
        "type": "Industrial building",
        "entity": "http://www.wikidata.org/entity/Q63356271",
        "country_qid": "Q668"
      }
    },
    {
      "type": "Feature",
      "geometry": {
        "type": "Point",
        "coordinates": [
          73.042923,
          19.188667
        ]
      },
      "properties": {
        "label": "Diva Jn. cabin",
        "type": "Industrial building",
        "entity": "http://www.wikidata.org/entity/Q63361446",
        "country_qid": "Q668"
      }
    },
    {
      "type": "Feature",
      "geometry": {
        "type": "Point",
        "coordinates": [
          86.885648,
          23.745854
        ]
      },
      "properties": {
        "label": "Sitarampur Link cabin",
        "type": "Industrial building",
        "entity": "http://www.wikidata.org/entity/Q63369108",
        "country_qid": "Q668"
      }
    },
    {
      "type": "Feature",
      "geometry": {
        "type": "Point",
        "coordinates": [
          73.159395,
          22.363671
        ]
      },
      "properties": {
        "label": "Vadodara E cabin",
        "type": "Industrial building",
        "entity": "http://www.wikidata.org/entity/Q63355385",
        "country_qid": "Q668"
      }
    },
    {
      "type": "Feature",
      "geometry": {
        "type": "Point",
        "coordinates": [
          77.312882,
          28.591796
        ]
      },
      "properties": {
        "label": "India Government Mint, Noida",
        "type": "Industrial building",
        "entity": "http://www.wikidata.org/entity/Q28173588",
        "country_qid": "Q668"
      }
    },
    {
      "type": "Feature",
      "geometry": {
        "type": "Point",
        "coordinates": [
          77.733333333,
          11.35
        ]
      },
      "properties": {
        "label": "Electric Loco Shed, Erode",
        "type": "Industrial building",
        "entity": "http://www.wikidata.org/entity/Q28122577",
        "country_qid": "Q668"
      }
    },
    {
      "type": "Feature",
      "geometry": {
        "type": "Point",
        "coordinates": [
          77.23149,
          28.65195
        ]
      },
      "properties": {
        "label": "Delhi",
        "type": "Industrial building",
        "entity": "http://www.wikidata.org/entity/Q127430107",
        "country_qid": "Q668"
      }
    },
    {
      "type": "Feature",
      "geometry": {
        "type": "Point",
        "coordinates": [
          72.7377,
          21.1389
        ]
      },
      "properties": {
        "label": "Vipul shipyard",
        "type": "Industrial building",
        "entity": "http://www.wikidata.org/entity/Q7933511",
        "country_qid": "Q668"
      }
    },
    {
      "type": "Feature",
      "geometry": {
        "type": "Point",
        "coordinates": [
          80.328925,
          26.455402
        ]
      },
      "properties": {
        "label": "Electric Loco Shed, Kanpur",
        "type": "Industrial building",
        "entity": "http://www.wikidata.org/entity/Q104901981",
        "country_qid": "Q668"
      }
    },
    {
      "type": "Feature",
      "geometry": {
        "type": "Point",
        "coordinates": [
          77.02635,
          28.4601
        ]
      },
      "properties": {
        "label": "Garhgaon",
        "type": "Industrial building",
        "entity": "http://www.wikidata.org/entity/Q127430275",
        "country_qid": "Q668"
      }
    },
    {
      "type": "Feature",
      "geometry": {
        "type": "Point",
        "coordinates": [
          80.29366,
          13.10403
        ]
      },
      "properties": {
        "label": "Electric Loco Shed, Royapuram",
        "type": "Industrial building",
        "entity": "http://www.wikidata.org/entity/Q94701577",
        "country_qid": "Q668"
      }
    },
    {
      "type": "Feature",
      "geometry": {
        "type": "Point",
        "coordinates": [
          86.087726,
          23.649514
        ]
      },
      "properties": {
        "label": "Bokaro Steel City A cabin",
        "type": "Industrial building",
        "entity": "http://www.wikidata.org/entity/Q63370494",
        "country_qid": "Q668"
      }
    },
    {
      "type": "Feature",
      "geometry": {
        "type": "Point",
        "coordinates": [
          75.894185999,
          17.671491529
        ]
      },
      "properties": {
        "label": "Narsing Girji Mill",
        "type": "Industrial building",
        "entity": "http://www.wikidata.org/entity/Q99292991",
        "country_qid": "Q668"
      }
    },
    {
      "type": "Feature",
      "geometry": {
        "type": "Point",
        "coordinates": [
          77.290482,
          28.512366
        ]
      },
      "properties": {
        "label": "Electric Loco Shed, Tuglakabad",
        "type": "Industrial building",
        "entity": "http://www.wikidata.org/entity/Q98755404",
        "country_qid": "Q668"
      }
    },
    {
      "type": "Feature",
      "geometry": {
        "type": "Point",
        "coordinates": [
          86.1481,
          23.8733
        ]
      },
      "properties": {
        "label": "Electric Loco Shed, Gomoh",
        "type": "Industrial building",
        "entity": "http://www.wikidata.org/entity/Q104856574",
        "country_qid": "Q668"
      }
    },
    {
      "type": "Feature",
      "geometry": {
        "type": "Point",
        "coordinates": [
          80.6195,
          16.5184
        ]
      },
      "properties": {
        "label": "Electric Loco Shed, Vijayawada",
        "type": "Industrial building",
        "entity": "http://www.wikidata.org/entity/Q104876157",
        "country_qid": "Q668"
      }
    },
    {
      "type": "Feature",
      "geometry": {
        "type": "Point",
        "coordinates": [
          72.860086,
          19.011939
        ]
      },
      "properties": {
        "label": "Mumbai Refinery Mahul",
        "type": "Industrial building",
        "entity": "http://www.wikidata.org/entity/Q6935320",
        "country_qid": "Q668"
      }
    },
    {
      "type": "Feature",
      "geometry": {
        "type": "Point",
        "coordinates": [
          87.199696,
          23.57172
        ]
      },
      "properties": {
        "label": "Andal-East cabin",
        "type": "Industrial building",
        "entity": "http://www.wikidata.org/entity/Q63371200",
        "country_qid": "Q668"
      }
    },
    {
      "type": "Feature",
      "geometry": {
        "type": "Point",
        "coordinates": [
          77.28985,
          26.90791
        ]
      },
      "properties": {
        "label": "Bayana",
        "type": "Industrial building",
        "entity": "http://www.wikidata.org/entity/Q127429739",
        "country_qid": "Q668"
      }
    },
    {
      "type": "Feature",
      "geometry": {
        "type": "Point",
        "coordinates": [
          72.926,
          20.61
        ]
      },
      "properties": {
        "label": "Electric Loco Shed, Valsad",
        "type": "Industrial building",
        "entity": "http://www.wikidata.org/entity/Q39058522",
        "country_qid": "Q668"
      }
    },
    {
      "type": "Feature",
      "geometry": {
        "type": "Point",
        "coordinates": [
          72.58726,
          23.02579
        ]
      },
      "properties": {
        "label": "Ahmadabad",
        "type": "Industrial building",
        "entity": "http://www.wikidata.org/entity/Q127429484",
        "country_qid": "Q668"
      }
    },
    {
      "type": "Feature",
      "geometry": {
        "type": "Point",
        "coordinates": [
          78.186611111,
          26.143530555
        ]
      },
      "properties": {
        "label": "Rail Spring Karkhana",
        "type": "Industrial building",
        "entity": "http://www.wikidata.org/entity/Q7283915",
        "country_qid": "Q668"
      }
    },
    {
      "type": "Feature",
      "geometry": {
        "type": "Point",
        "coordinates": [
          95.61861111,
          27.39083333
        ]
      },
      "properties": {
        "label": "Digboi Refinery",
        "type": "Industrial building",
        "entity": "http://www.wikidata.org/entity/Q5275564",
        "country_qid": "Q668"
      }
    },
    {
      "type": "Feature",
      "geometry": {
        "type": "Point",
        "coordinates": [
          83.1325,
          17.6425
        ]
      },
      "properties": {
        "label": "Vizag back to back HVDC converter station",
        "type": "Industrial building",
        "entity": "http://www.wikidata.org/entity/Q7937990",
        "country_qid": "Q668"
      }
    },
    {
      "type": "Feature",
      "geometry": {
        "type": "Point",
        "coordinates": [
          86.598194444,
          20.247638888
        ]
      },
      "properties": {
        "label": "Paradip Refinery",
        "type": "Industrial building",
        "entity": "http://www.wikidata.org/entity/Q7134170",
        "country_qid": "Q668"
      }
    },
    {
      "type": "Feature",
      "geometry": {
        "type": "Point",
        "coordinates": [
          81.4206,
          21.203
        ]
      },
      "properties": {
        "label": "Electric Loco Shed, Bhilai",
        "type": "Industrial building",
        "entity": "http://www.wikidata.org/entity/Q104856436",
        "country_qid": "Q668"
      }
    },
    {
      "type": "Feature",
      "geometry": {
        "type": "Point",
        "coordinates": [
          87.798331,
          24.822167
        ]
      },
      "properties": {
        "label": "Bonidanga Link cabin",
        "type": "Industrial building",
        "entity": "http://www.wikidata.org/entity/Q63371471",
        "country_qid": "Q668"
      }
    },
    {
      "type": "Feature",
      "geometry": {
        "type": "Point",
        "coordinates": [
          82.125212,
          22.082796
        ]
      },
      "properties": {
        "label": "Bilaspur Chord cabin",
        "type": "Industrial building",
        "entity": "http://www.wikidata.org/entity/Q63371509",
        "country_qid": "Q668"
      }
    },
    {
      "type": "Feature",
      "geometry": {
        "type": "Point",
        "coordinates": [
          75.848,
          30.912
        ]
      },
      "properties": {
        "label": "Electric Loco Shed, Ludhiana",
        "type": "Industrial building",
        "entity": "http://www.wikidata.org/entity/Q104870433",
        "country_qid": "Q668"
      }
    },
    {
      "type": "Feature",
      "geometry": {
        "type": "Point",
        "coordinates": [
          72.841,
          18.9287
        ]
      },
      "properties": {
        "label": "Bombay Dockyard",
        "type": "Industrial building",
        "entity": "http://www.wikidata.org/entity/Q891830",
        "country_qid": "Q668"
      }
    },
    {
      "type": "Feature",
      "geometry": {
        "type": "Point",
        "coordinates": [
          83.2897,
          17.7221
        ]
      },
      "properties": {
        "label": "Electric Loco Shed, Visakhapatnam",
        "type": "Industrial building",
        "entity": "http://www.wikidata.org/entity/Q104872344",
        "country_qid": "Q668"
      }
    },
    {
      "type": "Feature",
      "geometry": {
        "type": "Point",
        "coordinates": [
          74.951944444,
          30.23
        ]
      },
      "properties": {
        "label": "Guru Gobind Singh Refinery",
        "type": "Industrial building",
        "entity": "http://www.wikidata.org/entity/Q5620369",
        "country_qid": "Q668"
      }
    },
    {
      "type": "Feature",
      "geometry": {
        "type": "Point",
        "coordinates": [
          87.203608,
          23.569452
        ]
      },
      "properties": {
        "label": "Udl East Outer cabin",
        "type": "Industrial building",
        "entity": "http://www.wikidata.org/entity/Q63371199",
        "country_qid": "Q668"
      }
    },
    {
      "type": "Feature",
      "geometry": {
        "type": "Point",
        "coordinates": [
          80.277527777,
          13.160444444
        ]
      },
      "properties": {
        "label": "Manali Refinery",
        "type": "Industrial building",
        "entity": "http://www.wikidata.org/entity/Q113987261",
        "country_qid": "Q668"
      }
    },
    {
      "type": "Feature",
      "geometry": {
        "type": "Point",
        "coordinates": [
          83.70805556,
          25.12833333
        ]
      },
      "properties": {
        "label": "Sasaram back to back HVDC converter station",
        "type": "Industrial building",
        "entity": "http://www.wikidata.org/entity/Q7425009",
        "country_qid": "Q668"
      }
    },
    {
      "type": "Feature",
      "geometry": {
        "type": "Point",
        "coordinates": [
          77.58755,
          13.10149
        ]
      },
      "properties": {
        "label": "Rail Wheel Factory",
        "type": "Industrial building",
        "entity": "http://www.wikidata.org/entity/Q7283920",
        "country_qid": "Q668"
      }
    },
    {
      "type": "Feature",
      "geometry": {
        "type": "Point",
        "coordinates": [
          79.082037,
          21.11716
        ]
      },
      "properties": {
        "label": "Electric Loco Shed, Ajni",
        "type": "Industrial building",
        "entity": "http://www.wikidata.org/entity/Q98755392",
        "country_qid": "Q668"
      }
    },
    {
      "type": "Feature",
      "geometry": {
        "type": "Point",
        "coordinates": [
          79.66845,
          13.08191
        ]
      },
      "properties": {
        "label": "Electric Loco Shed, Arakkonam",
        "type": "Industrial building",
        "entity": "http://www.wikidata.org/entity/Q94701454",
        "country_qid": "Q668"
      }
    },
    {
      "type": "Feature",
      "geometry": {
        "type": "Point",
        "coordinates": [
          87.168796,
          23.584024
        ]
      },
      "properties": {
        "label": "Andal West cabin",
        "type": "Industrial building",
        "entity": "http://www.wikidata.org/entity/Q63371201",
        "country_qid": "Q668"
      }
    },
    {
      "type": "Feature",
      "geometry": {
        "type": "Point",
        "coordinates": [
          83.266,
          17.7
        ]
      },
      "properties": {
        "label": "Naval Dockyard",
        "type": "Industrial building",
        "entity": "http://www.wikidata.org/entity/Q22101737",
        "country_qid": "Q668"
      }
    },
    {
      "type": "Feature",
      "geometry": {
        "type": "Point",
        "coordinates": [
          73.1809,
          22.3108
        ]
      },
      "properties": {
        "label": "Electric Loco Shed, Vadodara",
        "type": "Industrial building",
        "entity": "http://www.wikidata.org/entity/Q39059689",
        "country_qid": "Q668"
      }
    },
    {
      "type": "Feature",
      "geometry": {
        "type": "Point",
        "coordinates": [
          73.82692973,
          18.51344146
        ]
      },
      "properties": {
        "label": "Prabhat Studio Complex",
        "type": "Industrial building",
        "entity": "http://www.wikidata.org/entity/Q98802507",
        "country_qid": "Q668"
      }
    },
    {
      "type": "Feature",
      "geometry": {
        "type": "Point",
        "coordinates": [
          80.208438888,
          13.098319444
        ]
      },
      "properties": {
        "label": "Integral Coach Factory",
        "type": "Industrial building",
        "entity": "http://www.wikidata.org/entity/Q3519752",
        "country_qid": "Q668"
      }
    },
    {
      "type": "Feature",
      "geometry": {
        "type": "Point",
        "coordinates": [
          84.974611,
          22.267173
        ]
      },
      "properties": {
        "label": "Link C-cabin",
        "type": "Industrial building",
        "entity": "http://www.wikidata.org/entity/Q63370486",
        "country_qid": "Q668"
      }
    },
    {
      "type": "Feature",
      "geometry": {
        "type": "Point",
        "coordinates": [
          78.1587,
          24.2515
        ]
      },
      "properties": {
        "label": "Bina Refinery",
        "type": "Industrial building",
        "entity": "http://www.wikidata.org/entity/Q17018647",
        "country_qid": "Q668"
      }
    },
    {
      "type": "Feature",
      "geometry": {
        "type": "Point",
        "coordinates": [
          86.969316,
          23.691972
        ]
      },
      "properties": {
        "label": "Electric Loco Shed, Asansol",
        "type": "Industrial building",
        "entity": "http://www.wikidata.org/entity/Q97855526",
        "country_qid": "Q668"
      }
    },
    {
      "type": "Feature",
      "geometry": {
        "type": "Point",
        "coordinates": [
          86.078541,
          23.671356
        ]
      },
      "properties": {
        "label": "Bksc North cabin",
        "type": "Industrial building",
        "entity": "http://www.wikidata.org/entity/Q63370496",
        "country_qid": "Q668"
      }
    },
    {
      "type": "Feature",
      "geometry": {
        "type": "Point",
        "coordinates": [
          87.915793,
          24.782115
        ]
      },
      "properties": {
        "label": "New Farakka-B cabin",
        "type": "Industrial building",
        "entity": "http://www.wikidata.org/entity/Q63370644",
        "country_qid": "Q668"
      }
    },
    {
      "type": "Feature",
      "geometry": {
        "type": "Point",
        "coordinates": [
          85.987,
          25.466
        ]
      },
      "properties": {
        "label": "Barauni Refinery",
        "type": "Industrial building",
        "entity": "http://www.wikidata.org/entity/Q4858511",
        "country_qid": "Q668"
      }
    },
    {
      "type": "Feature",
      "geometry": {
        "type": "Point",
        "coordinates": [
          88.13333333,
          22.03333333
        ]
      },
      "properties": {
        "label": "Haldia Refinery",
        "type": "Industrial building",
        "entity": "http://www.wikidata.org/entity/Q5641276",
        "country_qid": "Q668"
      }
    },
    {
      "type": "Feature",
      "geometry": {
        "type": "Point",
        "coordinates": [
          78.533333333,
          17.433333333
        ]
      },
      "properties": {
        "label": "Electric Loco Shed, Lallaguda",
        "type": "Industrial building",
        "entity": "http://www.wikidata.org/entity/Q104856429",
        "country_qid": "Q668"
      }
    },
    {
      "type": "Feature",
      "geometry": {
        "type": "Point",
        "coordinates": [
          88.33524,
          22.604813
        ]
      },
      "properties": {
        "label": "Electric Loco Shed, Howrah",
        "type": "Industrial building",
        "entity": "http://www.wikidata.org/entity/Q97144282",
        "country_qid": "Q668"
      }
    },
    {
      "type": "Feature",
      "geometry": {
        "type": "Point",
        "coordinates": [
          76.233333,
          21.3
        ]
      },
      "properties": {
        "label": "Burhanpur",
        "type": "Industrial building",
        "entity": "http://www.wikidata.org/entity/Q127431762",
        "country_qid": "Q668"
      }
    },
    {
      "type": "Feature",
      "geometry": {
        "type": "Point",
        "coordinates": [
          77.597212,
          29.940002
        ]
      },
      "properties": {
        "label": "Hindan cabin",
        "type": "Industrial building",
        "entity": "http://www.wikidata.org/entity/Q63370860",
        "country_qid": "Q668"
      }
    },
    {
      "type": "Feature",
      "geometry": {
        "type": "Point",
        "coordinates": [
          88.366988888,
          22.574355555
        ]
      },
      "properties": {
        "label": "Charu Guha Studio",
        "type": "Industrial building",
        "entity": "http://www.wikidata.org/entity/Q104451592",
        "country_qid": "Q668"
      }
    },
    {
      "type": "Feature",
      "geometry": {
        "type": "Point",
        "coordinates": [
          75.810173,
          21.05185
        ]
      },
      "properties": {
        "label": "Electric Loco Shed, Bhusawal",
        "type": "Industrial building",
        "entity": "http://www.wikidata.org/entity/Q99760743",
        "country_qid": "Q668"
      }
    },
    {
      "type": "Feature",
      "geometry": {
        "type": "Point",
        "coordinates": [
          75.351080555,
          31.328269444
        ]
      },
      "properties": {
        "label": "Rail Coach Factory",
        "type": "Industrial building",
        "entity": "http://www.wikidata.org/entity/Q3633292",
        "country_qid": "Q668"
      }
    },
    {
      "type": "Feature",
      "geometry": {
        "type": "Point",
        "coordinates": [
          73.958129492,
          15.371523854
        ]
      },
      "properties": {
        "label": "Rassaim Shipyard",
        "type": "Industrial building",
        "entity": "http://www.wikidata.org/entity/Q124421772",
        "country_qid": "Q668"
      }
    },
    {
      "type": "Feature",
      "geometry": {
        "type": "Point",
        "coordinates": [
          78.5325,
          17.435833333
        ]
      },
      "properties": {
        "label": "Electric Loco Shed, Lallaguda",
        "type": "Industrial building",
        "entity": "http://www.wikidata.org/entity/Q59326369",
        "country_qid": "Q668"
      }
    },
    {
      "type": "Feature",
      "geometry": {
        "type": "Point",
        "coordinates": [
          83.37483,
          25.67899
        ]
      },
      "properties": {
        "label": "Shadiyabad",
        "type": "Industrial building",
        "entity": "http://www.wikidata.org/entity/Q127431260",
        "country_qid": "Q668"
      }
    },
    {
      "type": "Feature",
      "geometry": {
        "type": "Point",
        "coordinates": [
          74.002766,
          15.343137
        ]
      },
      "properties": {
        "label": "Chowgule Group",
        "type": "Industrial building",
        "entity": "http://www.wikidata.org/entity/Q113698960",
        "country_qid": "Q668"
      }
    },
    {
      "type": "Feature",
      "geometry": {
        "type": "Point",
        "coordinates": [
          90.53166667,
          26.51583333
        ]
      },
      "properties": {
        "label": "Bongaigaon Refinery",
        "type": "Industrial building",
        "entity": "http://www.wikidata.org/entity/Q4941822",
        "country_qid": "Q668"
      }
    },
    {
      "type": "Feature",
      "geometry": {
        "type": "Point",
        "coordinates": [
          78.474956,
          17.369393
        ]
      },
      "properties": {
        "label": "Victoria Maternity Hospital, Hyderabad",
        "type": "Industrial building",
        "entity": "http://www.wikidata.org/entity/Q125510418",
        "country_qid": "Q668"
      }
    },
    {
      "type": "Feature",
      "geometry": {
        "type": "Point",
        "coordinates": [
          79.14333333,
          20.08916667
        ]
      },
      "properties": {
        "label": "Chandrapur back to back HVDC converter station",
        "type": "Industrial building",
        "entity": "http://www.wikidata.org/entity/Q5071436",
        "country_qid": "Q668"
      }
    },
    {
      "type": "Feature",
      "geometry": {
        "type": "Point",
        "coordinates": [
          77.654766,
          12.961223
        ]
      },
      "properties": {
        "label": "U R Rao Satellite Centre",
        "type": "Industrial building",
        "entity": "http://www.wikidata.org/entity/Q3520778",
        "country_qid": "Q668"
      }
    },
    {
      "type": "Feature",
      "geometry": {
        "type": "Point",
        "coordinates": [
          88.444,
          22.938
        ]
      },
      "properties": {
        "label": "Kanchrapara Railway Workshop",
        "type": "Industrial building",
        "entity": "http://www.wikidata.org/entity/Q60740014",
        "country_qid": "Q668"
      }
    },
    {
      "type": "Feature",
      "geometry": {
        "type": "Point",
        "coordinates": [
          79.511,
          17.974
        ]
      },
      "properties": {
        "label": "Electric Loco Shed, Kazipet",
        "type": "Industrial building",
        "entity": "http://www.wikidata.org/entity/Q104868533",
        "country_qid": "Q668"
      }
    },
    {
      "type": "Feature",
      "geometry": {
        "type": "Point",
        "coordinates": [
          77.767,
          22.608
        ]
      },
      "properties": {
        "label": "Electric Loco Shed, Itarsi",
        "type": "Industrial building",
        "entity": "http://www.wikidata.org/entity/Q104868535",
        "country_qid": "Q668"
      }
    },
    {
      "type": "Feature",
      "geometry": {
        "type": "Point",
        "coordinates": [
          86.911111111,
          23.858911111
        ]
      },
      "properties": {
        "label": "Chittaranjan Locomotive Works",
        "type": "Industrial building",
        "entity": "http://www.wikidata.org/entity/Q3348301",
        "country_qid": "Q668"
      }
    },
    {
      "type": "Feature",
      "geometry": {
        "type": "Point",
        "coordinates": [
          85.099408,
          20.86161
        ]
      },
      "properties": {
        "label": "Electric Loco Shed, Angul",
        "type": "Industrial building",
        "entity": "http://www.wikidata.org/entity/Q98384839",
        "country_qid": "Q668"
      }
    },
    {
      "type": "Feature",
      "geometry": {
        "type": "Point",
        "coordinates": [
          69.74722222,
          22.33166667
        ]
      },
      "properties": {
        "label": "Essar Refinery",
        "type": "Industrial building",
        "entity": "http://www.wikidata.org/entity/Q12417189",
        "country_qid": "Q668"
      }
    },
    {
      "type": "Feature",
      "geometry": {
        "type": "Point",
        "coordinates": [
          78.499178419,
          17.389318689
        ]
      },
      "properties": {
        "label": "Kacheguda_railway_station_building",
        "type": "Industrial building",
        "entity": "http://www.wikidata.org/entity/Q133309199",
        "country_qid": "Q668"
      }
    },
    {
      "type": "Feature",
      "geometry": {
        "type": "Point",
        "coordinates": [
          83.320157,
          18.049447
        ]
      },
      "properties": {
        "label": "Sri Vijayarama Gajapathi Co-operative Sugars Factory",
        "type": "Industrial building",
        "entity": "http://www.wikidata.org/entity/Q130484614",
        "country_qid": "Q668"
      }
    },
    {
      "type": "Feature",
      "geometry": {
        "type": "Point",
        "coordinates": [
          72.6183,
          21.6928
        ]
      },
      "properties": {
        "label": "Q55582979",
        "type": "Industrial building",
        "entity": "http://www.wikidata.org/entity/Q55582979",
        "country_qid": "Q668"
      }
    },
    {
      "type": "Feature",
      "geometry": {
        "type": "Point",
        "coordinates": [
          78.5534,
          25.4439
        ]
      },
      "properties": {
        "label": "Electric Loco Shed, Jhansi",
        "type": "Industrial building",
        "entity": "http://www.wikidata.org/entity/Q104870462",
        "country_qid": "Q668"
      }
    },
    {
      "type": "Feature",
      "geometry": {
        "type": "Point",
        "coordinates": [
          74.003056432,
          15.342898954
        ]
      },
      "properties": {
        "label": "Loutolim Shipyard",
        "type": "Industrial building",
        "entity": "http://www.wikidata.org/entity/Q124421754",
        "country_qid": "Q668"
      }
    },
    {
      "type": "Feature",
      "geometry": {
        "type": "Point",
        "coordinates": [
          82.724006,
          18.797786
        ]
      },
      "properties": {
        "label": "Koraput B cabin B.H.",
        "type": "Industrial building",
        "entity": "http://www.wikidata.org/entity/Q63371472",
        "country_qid": "Q668"
      }
    },
    {
      "type": "Feature",
      "geometry": {
        "type": "Point",
        "coordinates": [
          72.203672,
          25.94364
        ]
      },
      "properties": {
        "label": "Pachpadra Refinery",
        "type": "Industrial building",
        "entity": "http://www.wikidata.org/entity/Q61268627",
        "country_qid": "Q668"
      }
    },
    {
      "type": "Feature",
      "geometry": {
        "type": "Point",
        "coordinates": [
          84.971299,
          24.798676
        ]
      },
      "properties": {
        "label": "West cabin Gaya",
        "type": "Industrial building",
        "entity": "http://www.wikidata.org/entity/Q63371245",
        "country_qid": "Q668"
      }
    },
    {
      "type": "Feature",
      "geometry": {
        "type": "Point",
        "coordinates": [
          80.345598,
          13.312114
        ]
      },
      "properties": {
        "label": "Kattupalli Shipyard",
        "type": "Industrial building",
        "entity": "http://www.wikidata.org/entity/Q6378390",
        "country_qid": "Q668"
      }
    },
    {
      "type": "Feature",
      "geometry": {
        "type": "Point",
        "coordinates": [
          78.720496,
          10.790678
        ]
      },
      "properties": {
        "label": "Golden Rock Railway Workshop",
        "type": "Industrial building",
        "entity": "http://www.wikidata.org/entity/Q5579743",
        "country_qid": "Q668"
      }
    },
    {
      "type": "Feature",
      "geometry": {
        "type": "Point",
        "coordinates": [
          84.945577,
          22.23969
        ]
      },
      "properties": {
        "label": "A-cabin Bondamunda",
        "type": "Industrial building",
        "entity": "http://www.wikidata.org/entity/Q63370483",
        "country_qid": "Q668"
      }
    },
    {
      "type": "Feature",
      "geometry": {
        "type": "Point",
        "coordinates": [
          80.966867,
          26.83113
        ]
      },
      "properties": {
        "label": "Dilkusha cabin",
        "type": "Industrial building",
        "entity": "http://www.wikidata.org/entity/Q63370894",
        "country_qid": "Q668"
      }
    },
    {
      "type": "Feature",
      "geometry": {
        "type": "Point",
        "coordinates": [
          88.305512,
          22.657411
        ]
      },
      "properties": {
        "label": "CC link-West",
        "type": "Industrial building",
        "entity": "http://www.wikidata.org/entity/Q63371365",
        "country_qid": "Q668"
      }
    },
    {
      "type": "Feature",
      "geometry": {
        "type": "Point",
        "coordinates": [
          73.523888888,
          22.470555555
        ]
      },
      "properties": {
        "label": "Mint above Gate No. 4",
        "type": "Industrial building",
        "entity": "http://www.wikidata.org/entity/Q63323009",
        "country_qid": "Q668"
      }
    },
    {
      "type": "Feature",
      "geometry": {
        "type": "Point",
        "coordinates": [
          75.801153,
          23.184543
        ]
      },
      "properties": {
        "label": "Ujn C cabin",
        "type": "Industrial building",
        "entity": "http://www.wikidata.org/entity/Q63371800",
        "country_qid": "Q668"
      }
    },
    {
      "type": "Feature",
      "geometry": {
        "type": "Point",
        "coordinates": [
          88.27171,
          24.1839
        ]
      },
      "properties": {
        "label": "Murshidabad",
        "type": "Industrial building",
        "entity": "http://www.wikidata.org/entity/Q127430773",
        "country_qid": "Q668"
      }
    },
    {
      "type": "Feature",
      "geometry": {
        "type": "Point",
        "coordinates": [
          82.95962,
          25.29227
        ]
      },
      "properties": {
        "label": "Banaras Locomotive Works",
        "type": "Industrial building",
        "entity": "http://www.wikidata.org/entity/Q3322605",
        "country_qid": "Q668"
      }
    },
    {
      "type": "Feature",
      "geometry": {
        "type": "Point",
        "coordinates": [
          76.87225,
          29.470944444
        ]
      },
      "properties": {
        "label": "Panipat Refinery",
        "type": "Industrial building",
        "entity": "http://www.wikidata.org/entity/Q7131186",
        "country_qid": "Q668"
      }
    },
    {
      "type": "Feature",
      "geometry": {
        "type": "Point",
        "coordinates": [
          78.501605693,
          17.433795608
        ]
      },
      "properties": {
        "label": "Secunderabad Junction_railway station building",
        "type": "Industrial building",
        "entity": "http://www.wikidata.org/entity/Q132934196",
        "country_qid": "Q668"
      }
    },
    {
      "type": "Feature",
      "geometry": {
        "type": "Point",
        "coordinates": [
          86.0855,
          23.6568
        ]
      },
      "properties": {
        "label": "Electric Loco Shed, Bokaro Steel City",
        "type": "Industrial building",
        "entity": "http://www.wikidata.org/entity/Q104876144",
        "country_qid": "Q668"
      }
    },
    {
      "type": "Feature",
      "geometry": {
        "type": "Point",
        "coordinates": [
          77.432491,
          28.646939
        ]
      },
      "properties": {
        "label": "Electric Loco Shed, Ghaziabad",
        "type": "Industrial building",
        "entity": "http://www.wikidata.org/entity/Q97628005",
        "country_qid": "Q668"
      }
    },
    {
      "type": "Feature",
      "geometry": {
        "type": "Point",
        "coordinates": [
          77.692842,
          13.002399
        ]
      },
      "properties": {
        "label": "Diesel Loco Shed, Krishnarajapuram",
        "type": "Industrial building",
        "entity": "http://www.wikidata.org/entity/Q96191966",
        "country_qid": "Q668"
      }
    },
    {
      "type": "Feature",
      "geometry": {
        "type": "Point",
        "coordinates": [
          77.686444444,
          27.378305555
        ]
      },
      "properties": {
        "label": "Mathura Refinery",
        "type": "Industrial building",
        "entity": "http://www.wikidata.org/entity/Q15982506",
        "country_qid": "Q668"
      }
    },
    {
      "type": "Feature",
      "geometry": {
        "type": "Point",
        "coordinates": [
          73.1305,
          19.23525
        ]
      },
      "properties": {
        "label": "Loco Shed, Kalyan",
        "type": "Industrial building",
        "entity": "http://www.wikidata.org/entity/Q29026448",
        "country_qid": "Q668"
      }
    },
    {
      "type": "Feature",
      "geometry": {
        "type": "Point",
        "coordinates": [
          88.315286,
          22.652855
        ]
      },
      "properties": {
        "label": "CC Railwayly Link cabin",
        "type": "Industrial building",
        "entity": "http://www.wikidata.org/entity/Q63371364",
        "country_qid": "Q668"
      }
    },
    {
      "type": "Feature",
      "geometry": {
        "type": "Point",
        "coordinates": [
          78.01667,
          27.18333
        ]
      },
      "properties": {
        "label": "Agra",
        "type": "Industrial building",
        "entity": "http://www.wikidata.org/entity/Q127429479",
        "country_qid": "Q668"
      }
    },
    {
      "type": "Feature",
      "geometry": {
        "type": "Point",
        "coordinates": [
          72.8253194,
          19.0523641
        ]
      },
      "properties": {
        "label": "Mehboob Studio",
        "type": "Industrial building",
        "entity": "http://www.wikidata.org/entity/Q15252736",
        "country_qid": "Q668"
      }
    },
    {
      "type": "Feature",
      "geometry": {
        "type": "Point",
        "coordinates": [
          72.8867,
          19.1613
        ]
      },
      "properties": {
        "label": "Film City",
        "type": "Industrial building",
        "entity": "http://www.wikidata.org/entity/Q3072027",
        "country_qid": "Q668"
      }
    },
    {
      "type": "Feature",
      "geometry": {
        "type": "Point",
        "coordinates": [
          78.422224735,
          17.427305316
        ]
      },
      "properties": {
        "label": "Annapurna Studios",
        "type": "Industrial building",
        "entity": "http://www.wikidata.org/entity/Q4768004",
        "country_qid": "Q668"
      }
    },
    {
      "type": "Feature",
      "geometry": {
        "type": "Point",
        "coordinates": [
          77.3156,
          28.569
        ]
      },
      "properties": {
        "label": "Asian Academy of Film & Television",
        "type": "Industrial building",
        "entity": "http://www.wikidata.org/entity/Q4806551",
        "country_qid": "Q668"
      }
    },
    {
      "type": "Feature",
      "geometry": {
        "type": "Point",
        "coordinates": [
          72.866666666,
          19.066666666
        ]
      },
      "properties": {
        "label": "Ranjit Studios",
        "type": "Industrial building",
        "entity": "http://www.wikidata.org/entity/Q7293174",
        "country_qid": "Q668"
      }
    },
    {
      "type": "Feature",
      "geometry": {
        "type": "Point",
        "coordinates": [
          72.876493175,
          19.28204102
        ]
      },
      "properties": {
        "label": "Guru Dutt Films",
        "type": "Industrial building",
        "entity": "http://www.wikidata.org/entity/Q5620347",
        "country_qid": "Q668"
      }
    },
    {
      "type": "Feature",
      "geometry": {
        "type": "Point",
        "coordinates": [
          78.6802,
          17.2523
        ]
      },
      "properties": {
        "label": "Ramoji Film City",
        "type": "Industrial building",
        "entity": "http://www.wikidata.org/entity/Q1786944",
        "country_qid": "Q668"
      }
    },
    {
      "type": "Feature",
      "geometry": {
        "type": "Point",
        "coordinates": [
          75.31555556,
          19.88944444
        ]
      },
      "properties": {
        "label": "Panchakki",
        "type": "Industrial building",
        "entity": "http://www.wikidata.org/entity/Q7130250",
        "country_qid": "Q668"
      }
    },
    {
      "type": "Feature",
      "geometry": {
        "type": "Point",
        "coordinates": [
          80.22578611,
          12.703725
        ]
      },
      "properties": {
        "label": "Nemmeli Seawater Desalination Plant",
        "type": "Industrial building",
        "entity": "http://www.wikidata.org/entity/Q15261623",
        "country_qid": "Q668"
      }
    },
    {
      "type": "Feature",
      "geometry": {
        "type": "Point",
        "coordinates": [
          77.32,
          28.57
        ]
      },
      "properties": {
        "label": "Noida Film City",
        "type": "Industrial building",
        "entity": "http://www.wikidata.org/entity/Q7047594",
        "country_qid": "Q668"
      }
    },
    {
      "type": "Feature",
      "geometry": {
        "type": "Point",
        "coordinates": [
          77.533196609,
          13.019796079
        ]
      },
      "properties": {
        "label": "Kanteerava Studios",
        "type": "Industrial building",
        "entity": "http://www.wikidata.org/entity/Q6365386",
        "country_qid": "Q668"
      }
    },
    {
      "type": "Feature",
      "geometry": {
        "type": "Point",
        "coordinates": [
          76.270442,
          10.561773
        ]
      },
      "properties": {
        "label": "Madakkathara substation",
        "type": "Industrial building",
        "entity": "http://www.wikidata.org/entity/Q105728107",
        "country_qid": "Q668"
      }
    },
    {
      "type": "Feature",
      "geometry": {
        "type": "Point",
        "coordinates": [
          70.1922024,
          22.5828826
        ]
      },
      "properties": {
        "label": "Sachana Ship Breaking Yard",
        "type": "Industrial building",
        "entity": "http://www.wikidata.org/entity/Q115596419",
        "country_qid": "Q668"
      }
    },
    {
      "type": "Feature",
      "geometry": {
        "type": "Point",
        "coordinates": [
          80.33808889,
          13.31688056
        ]
      },
      "properties": {
        "label": "Minjur Seawater Desalination Plant",
        "type": "Industrial building",
        "entity": "http://www.wikidata.org/entity/Q6867774",
        "country_qid": "Q668"
      }
    },
    {
      "type": "Feature",
      "geometry": {
        "type": "Point",
        "coordinates": [
          72.1975,
          21.41
        ]
      },
      "properties": {
        "label": "Alang Ship Breaking Yard",
        "type": "Industrial building",
        "entity": "http://www.wikidata.org/entity/Q336318",
        "country_qid": "Q668"
      }
    },
    {
      "type": "Feature",
      "geometry": {
        "type": "Point",
        "coordinates": [
          72.85333333,
          18.97222222
        ]
      },
      "properties": {
        "label": "Mumbai ship-breaking yard",
        "type": "Industrial building",
        "entity": "http://www.wikidata.org/entity/Q336327",
        "country_qid": "Q668"
      }
    }
  ]
}