{
  "type": "FeatureCollection",
  "features": [
    {
      "type": "Feature",
      "geometry": {
        "type": "Point",
        "coordinates": [
          34.989193,
          31.83926
        ]
      },
      "properties": {
        "label": "Nicopolis",
        "type": "Industrial building",
        "entity": "http://www.wikidata.org/entity/Q127430840",
        "country_qid": "Q219060"
      }
    },
    {
      "type": "Feature",
      "geometry": {
        "type": "Point",
        "coordinates": [
          34.458046,
          31.510975
        ]
      },
      "properties": {
        "label": "Gaza",
        "type": "Industrial building",
        "entity": "http://www.wikidata.org/entity/Q127430277",
        "country_qid": "Q219060"
      }
    },
    {
      "type": "Feature",
      "geometry": {
        "type": "Point",
        "coordinates": [
          35.1538485,
          32.269029
        ]
      },
      "properties": {
        "label": "Q129829542",
        "type": "Industrial building",
        "entity": "http://www.wikidata.org/entity/Q129829542",
        "country_qid": "Q219060"
      }
    },
    {
      "type": "Feature",
      "geometry": {
        "type": "Point",
        "coordinates": [
          35.195,
          32.276389
        ]
      },
      "properties": {
        "label": "Samaria",
        "type": "Industrial building",
        "entity": "http://www.wikidata.org/entity/Q127431179",
        "country_qid": "Q219060"
      }
    },
    {
      "type": "Feature",
      "geometry": {
        "type": "Point",
        "coordinates": [
          35.2306917,
          31.8903027
        ]
      },
      "properties": {
        "label": "Q129829559",
        "type": "Industrial building",
        "entity": "http://www.wikidata.org/entity/Q129829559",
        "country_qid": "Q219060"
      }
    },
    {
      "type": "Feature",
      "geometry": {
        "type": "Point",
        "coordinates": [
          35.10669,
          31.52632
        ]
      },
      "properties": {
        "label": "Shajar Al-Durr oil mill",
        "type": "Industrial building",
        "entity": "http://www.wikidata.org/entity/Q56400819",
        "country_qid": "Q219060"
      }
    },
    {
      "type": "Feature",
      "geometry": {
        "type": "Point",
        "coordinates": [
          34.47975,
          31.536326
        ]
      },
      "properties": {
        "label": "Anthedon",
        "type": "Industrial building",
        "entity": "http://www.wikidata.org/entity/Q127429558",
        "country_qid": "Q219060"
      }
    },
    {
      "type": "Feature",
      "geometry": {
        "type": "Point",
        "coordinates": [
          34.46667,
          31.5
        ]
      },
      "properties": {
        "label": "Ghaza",
        "type": "Industrial building",
        "entity": "http://www.wikidata.org/entity/Q127430292",
        "country_qid": "Q219060"
      }
    },
    {
      "type": "Feature",
      "geometry": {
        "type": "Point",
        "coordinates": [
          35.127225,
          32.0784712
        ]
      },
      "properties": {
        "label": "Q129829512",
        "type": "Industrial building",
        "entity": "http://www.wikidata.org/entity/Q129829512",
        "country_qid": "Q219060"
      }
    },
    {
      "type": "Feature",
      "geometry": {
        "type": "Point",
        "coordinates": [
          35.299805555,
          31.952916666
        ]
      },
      "properties": {
        "label": "Taybeh Brewery",
        "type": "Industrial building",
        "entity": "http://www.wikidata.org/entity/Q1575609",
        "country_qid": "Q219060"
      }
    },
    {
      "type": "Feature",
      "geometry": {
        "type": "Point",
        "coordinates": [
          35.1872672,
          31.8867885
        ]
      },
      "properties": {
        "label": "Q129846924",
        "type": "Industrial building",
        "entity": "http://www.wikidata.org/entity/Q129846924",
        "country_qid": "Q219060"
      }
    },
    {
      "type": "Feature",
      "geometry": {
        "type": "Point",
        "coordinates": [
          35.4052748,
          32.3470937
        ]
      },
      "properties": {
        "label": "Q129830041",
        "type": "Industrial building",
        "entity": "http://www.wikidata.org/entity/Q129830041",
        "country_qid": "Q219060"
      }
    },
    {
      "type": "Feature",
      "geometry": {
        "type": "Point",
        "coordinates": [
          35.195158,
          32.276172
        ]
      },
      "properties": {
        "label": "Sebaste",
        "type": "Industrial building",
        "entity": "http://www.wikidata.org/entity/Q127431220",
        "country_qid": "Q219060"
      }
    }
  ]
}