{
  "type": "FeatureCollection",
  "features": [
    {
      "type": "Feature",
      "geometry": {
        "type": "Point",
        "coordinates": [
          35.96786,
          35.21891
        ]
      },
      "properties": {
        "label": "Baniyas Refinery",
        "type": "Industrial building",
        "entity": "http://www.wikidata.org/entity/Q114316894",
        "country_qid": "Q858"
      }
    },
    {
      "type": "Feature",
      "geometry": {
        "type": "Point",
        "coordinates": [
          36.757062,
          35.163546
        ]
      },
      "properties": {
        "label": "Epiphaneia, Syria",
        "type": "Industrial building",
        "entity": "http://www.wikidata.org/entity/Q127430206",
        "country_qid": "Q858"
      }
    },
    {
      "type": "Feature",
      "geometry": {
        "type": "Point",
        "coordinates": [
          36.116233,
          32.625139
        ]
      },
      "properties": {
        "label": "Adraa",
        "type": "Industrial building",
        "entity": "http://www.wikidata.org/entity/Q127429452",
        "country_qid": "Q858"
      }
    },
    {
      "type": "Feature",
      "geometry": {
        "type": "Point",
        "coordinates": [
          38.267222,
          34.56
        ]
      },
      "properties": {
        "label": "Palmyra",
        "type": "Industrial building",
        "entity": "http://www.wikidata.org/entity/Q127430939",
        "country_qid": "Q858"
      }
    },
    {
      "type": "Feature",
      "geometry": {
        "type": "Point",
        "coordinates": [
          40.3166,
          35.23349
        ]
      },
      "properties": {
        "label": "Qarqisiyah",
        "type": "Industrial building",
        "entity": "http://www.wikidata.org/entity/Q127431094",
        "country_qid": "Q858"
      }
    },
    {
      "type": "Feature",
      "geometry": {
        "type": "Point",
        "coordinates": [
          36.54147,
          34.572648
        ]
      },
      "properties": {
        "label": "Laodiceia ad Libanum",
        "type": "Industrial building",
        "entity": "http://www.wikidata.org/entity/Q127430553",
        "country_qid": "Q858"
      }
    },
    {
      "type": "Feature",
      "geometry": {
        "type": "Point",
        "coordinates": [
          35.859448,
          34.858397
        ]
      },
      "properties": {
        "label": "Aradus",
        "type": "Industrial building",
        "entity": "http://www.wikidata.org/entity/Q127429615",
        "country_qid": "Q858"
      }
    },
    {
      "type": "Feature",
      "geometry": {
        "type": "Point",
        "coordinates": [
          36.01,
          33.76
        ]
      },
      "properties": {
        "label": "Eupatris",
        "type": "Industrial building",
        "entity": "http://www.wikidata.org/entity/Q127430227",
        "country_qid": "Q858"
      }
    },
    {
      "type": "Feature",
      "geometry": {
        "type": "Point",
        "coordinates": [
          36.292,
          33.513
        ]
      },
      "properties": {
        "label": "Damascus",
        "type": "Industrial building",
        "entity": "http://www.wikidata.org/entity/Q127430090",
        "country_qid": "Q858"
      }
    },
    {
      "type": "Feature",
      "geometry": {
        "type": "Point",
        "coordinates": [
          35.958453,
          35.195844
        ]
      },
      "properties": {
        "label": "Balanaea",
        "type": "Industrial building",
        "entity": "http://www.wikidata.org/entity/Q127429716",
        "country_qid": "Q858"
      }
    },
    {
      "type": "Feature",
      "geometry": {
        "type": "Point",
        "coordinates": [
          37.149317,
          36.202753
        ]
      },
      "properties": {
        "label": "Beroea",
        "type": "Industrial building",
        "entity": "http://www.wikidata.org/entity/Q127429754",
        "country_qid": "Q858"
      }
    },
    {
      "type": "Feature",
      "geometry": {
        "type": "Point",
        "coordinates": [
          36.63893,
          34.71738
        ]
      },
      "properties": {
        "label": "Homs Petroleum Refinery",
        "type": "Industrial building",
        "entity": "http://www.wikidata.org/entity/Q12243474",
        "country_qid": "Q858"
      }
    },
    {
      "type": "Feature",
      "geometry": {
        "type": "Point",
        "coordinates": [
          36.48369,
          32.517831
        ]
      },
      "properties": {
        "label": "Bostra",
        "type": "Industrial building",
        "entity": "http://www.wikidata.org/entity/Q127429784",
        "country_qid": "Q858"
      }
    },
    {
      "type": "Feature",
      "geometry": {
        "type": "Point",
        "coordinates": [
          36.309102,
          33.511612
        ]
      },
      "properties": {
        "label": "Demetrias",
        "type": "Industrial building",
        "entity": "http://www.wikidata.org/entity/Q127430111",
        "country_qid": "Q858"
      }
    },
    {
      "type": "Feature",
      "geometry": {
        "type": "Point",
        "coordinates": [
          36.724237,
          34.751899
        ]
      },
      "properties": {
        "label": "Emisa",
        "type": "Industrial building",
        "entity": "http://www.wikidata.org/entity/Q127430195",
        "country_qid": "Q858"
      }
    },
    {
      "type": "Feature",
      "geometry": {
        "type": "Point",
        "coordinates": [
          35.959444444,
          35.216944444
        ]
      },
      "properties": {
        "label": "Baniyas Refinery",
        "type": "Industrial building",
        "entity": "http://www.wikidata.org/entity/Q12243472",
        "country_qid": "Q858"
      }
    },
    {
      "type": "Feature",
      "geometry": {
        "type": "Point",
        "coordinates": [
          37.954539,
          36.526118
        ]
      },
      "properties": {
        "label": "Hierapolis Bambyce",
        "type": "Industrial building",
        "entity": "http://www.wikidata.org/entity/Q127430379",
        "country_qid": "Q858"
      }
    },
    {
      "type": "Feature",
      "geometry": {
        "type": "Point",
        "coordinates": [
          35.986111,
          34.708056
        ]
      },
      "properties": {
        "label": "Simyra",
        "type": "Industrial building",
        "entity": "http://www.wikidata.org/entity/Q127431287",
        "country_qid": "Q858"
      }
    },
    {
      "type": "Feature",
      "geometry": {
        "type": "Point",
        "coordinates": [
          36.72339,
          34.72682
        ]
      },
      "properties": {
        "label": "Hims",
        "type": "Industrial building",
        "entity": "http://www.wikidata.org/entity/Q127430388",
        "country_qid": "Q858"
      }
    },
    {
      "type": "Feature",
      "geometry": {
        "type": "Point",
        "coordinates": [
          39.056991,
          35.950018
        ]
      },
      "properties": {
        "label": "Nicephorium",
        "type": "Industrial building",
        "entity": "http://www.wikidata.org/entity/Q127430839",
        "country_qid": "Q858"
      }
    },
    {
      "type": "Feature",
      "geometry": {
        "type": "Point",
        "coordinates": [
          40.73,
          34.747
        ]
      },
      "properties": {
        "label": "Dura-Europus",
        "type": "Industrial building",
        "entity": "http://www.wikidata.org/entity/Q127430150",
        "country_qid": "Q858"
      }
    },
    {
      "type": "Feature",
      "geometry": {
        "type": "Point",
        "coordinates": [
          36.618201,
          32.75421
        ]
      },
      "properties": {
        "label": "Canatha",
        "type": "Industrial building",
        "entity": "http://www.wikidata.org/entity/Q127429849",
        "country_qid": "Q858"
      }
    },
    {
      "type": "Feature",
      "geometry": {
        "type": "Point",
        "coordinates": [
          35.933333,
          34.716667
        ]
      },
      "properties": {
        "label": "Orthosia",
        "type": "Industrial building",
        "entity": "http://www.wikidata.org/entity/Q127430916",
        "country_qid": "Q858"
      }
    },
    {
      "type": "Feature",
      "geometry": {
        "type": "Point",
        "coordinates": [
          37.16117,
          36.20124
        ]
      },
      "properties": {
        "label": "Halab",
        "type": "Industrial building",
        "entity": "http://www.wikidata.org/entity/Q127430335",
        "country_qid": "Q858"
      }
    },
    {
      "type": "Feature",
      "geometry": {
        "type": "Point",
        "coordinates": [
          36.29128,
          33.5102
        ]
      },
      "properties": {
        "label": "Dimashq",
        "type": "Industrial building",
        "entity": "http://www.wikidata.org/entity/Q127430127",
        "country_qid": "Q858"
      }
    },
    {
      "type": "Feature",
      "geometry": {
        "type": "Point",
        "coordinates": [
          35.824785,
          35.847777
        ]
      },
      "properties": {
        "label": "Ras al-Bassit",
        "type": "Industrial building",
        "entity": "http://www.wikidata.org/entity/Q4119291",
        "country_qid": "Q858"
      }
    },
    {
      "type": "Feature",
      "geometry": {
        "type": "Point",
        "coordinates": [
          36.400237,
          35.420741
        ]
      },
      "properties": {
        "label": "Apameia in Syria",
        "type": "Industrial building",
        "entity": "http://www.wikidata.org/entity/Q127429587",
        "country_qid": "Q858"
      }
    },
    {
      "type": "Feature",
      "geometry": {
        "type": "Point",
        "coordinates": [
          39.00788,
          35.95283
        ]
      },
      "properties": {
        "label": "al-Rafiqah",
        "type": "Industrial building",
        "entity": "http://www.wikidata.org/entity/Q127431754",
        "country_qid": "Q858"
      }
    },
    {
      "type": "Feature",
      "geometry": {
        "type": "Point",
        "coordinates": [
          35.884375,
          34.938844
        ]
      },
      "properties": {
        "label": "Carne",
        "type": "Industrial building",
        "entity": "http://www.wikidata.org/entity/Q127429863",
        "country_qid": "Q858"
      }
    },
    {
      "type": "Feature",
      "geometry": {
        "type": "Point",
        "coordinates": [
          36.39298,
          34.966351
        ]
      },
      "properties": {
        "label": "Raphanea",
        "type": "Industrial building",
        "entity": "http://www.wikidata.org/entity/Q127431108",
        "country_qid": "Q858"
      }
    },
    {
      "type": "Feature",
      "geometry": {
        "type": "Point",
        "coordinates": [
          35.927407,
          35.272667
        ]
      },
      "properties": {
        "label": "Paltus",
        "type": "Industrial building",
        "entity": "http://www.wikidata.org/entity/Q127430940",
        "country_qid": "Q858"
      }
    },
    {
      "type": "Feature",
      "geometry": {
        "type": "Point",
        "coordinates": [
          40.14643,
          36.75664
        ]
      },
      "properties": {
        "label": "Ra's al-ayn",
        "type": "Industrial building",
        "entity": "http://www.wikidata.org/entity/Q127431102",
        "country_qid": "Q858"
      }
    },
    {
      "type": "Feature",
      "geometry": {
        "type": "Point",
        "coordinates": [
          36.948956,
          36.734662
        ]
      },
      "properties": {
        "label": "Cyrrhus",
        "type": "Industrial building",
        "entity": "http://www.wikidata.org/entity/Q127430081",
        "country_qid": "Q858"
      }
    },
    {
      "type": "Feature",
      "geometry": {
        "type": "Point",
        "coordinates": [
          35.908186,
          34.8265
        ]
      },
      "properties": {
        "label": "Marathus",
        "type": "Industrial building",
        "entity": "http://www.wikidata.org/entity/Q127430687",
        "country_qid": "Q858"
      }
    },
    {
      "type": "Feature",
      "geometry": {
        "type": "Point",
        "coordinates": [
          37.01667,
          35.98333
        ]
      },
      "properties": {
        "label": "Qinnasrin",
        "type": "Industrial building",
        "entity": "http://www.wikidata.org/entity/Q127431097",
        "country_qid": "Q858"
      }
    },
    {
      "type": "Feature",
      "geometry": {
        "type": "Point",
        "coordinates": [
          36.58391,
          35.27623
        ]
      },
      "properties": {
        "label": "Larissa, Syria",
        "type": "Industrial building",
        "entity": "http://www.wikidata.org/entity/Q127430568",
        "country_qid": "Q858"
      }
    },
    {
      "type": "Feature",
      "geometry": {
        "type": "Point",
        "coordinates": [
          35.783333,
          35.516667
        ]
      },
      "properties": {
        "label": "Laodicea ad Mare",
        "type": "Industrial building",
        "entity": "http://www.wikidata.org/entity/Q127430548",
        "country_qid": "Q858"
      }
    },
    {
      "type": "Feature",
      "geometry": {
        "type": "Point",
        "coordinates": [
          36.75783,
          35.13179
        ]
      },
      "properties": {
        "label": "Hamah",
        "type": "Industrial building",
        "entity": "http://www.wikidata.org/entity/Q127431791",
        "country_qid": "Q858"
      }
    },
    {
      "type": "Feature",
      "geometry": {
        "type": "Point",
        "coordinates": [
          37.009719,
          36.007956
        ]
      },
      "properties": {
        "label": "Chalcis ad Belum",
        "type": "Industrial building",
        "entity": "http://www.wikidata.org/entity/Q127429912",
        "country_qid": "Q858"
      }
    }
  ]
}