{
  "type": "FeatureCollection",
  "features": [
    {
      "type": "Feature",
      "geometry": {
        "type": "Point",
        "coordinates": [
          39.505,
          -4.375833333
        ]
      },
      "properties": {
        "label": "Mtawa Dam",
        "type": "Hydraulic structure",
        "entity": "http://www.wikidata.org/entity/Q27203475",
        "country_qid": "Q114"
      }
    },
    {
      "type": "Feature",
      "geometry": {
        "type": "Point",
        "coordinates": [
          37.336666666,
          -0.5325
        ]
      },
      "properties": {
        "label": "Rukenya Dam",
        "type": "Hydraulic structure",
        "entity": "http://www.wikidata.org/entity/Q17110824",
        "country_qid": "Q114"
      }
    },
    {
      "type": "Feature",
      "geometry": {
        "type": "Point",
        "coordinates": [
          39.4603,
          -4.44266
        ]
      },
      "properties": {
        "label": "Koromojo Dam",
        "type": "Hydraulic structure",
        "entity": "http://www.wikidata.org/entity/Q16893626",
        "country_qid": "Q114"
      }
    },
    {
      "type": "Feature",
      "geometry": {
        "type": "Point",
        "coordinates": [
          40.133333333,
          -3.216666666
        ]
      },
      "properties": {
        "label": "Malindi",
        "type": "Hydraulic structure",
        "entity": "http://www.wikidata.org/entity/Q111386866",
        "country_qid": "Q114"
      }
    },
    {
      "type": "Feature",
      "geometry": {
        "type": "Point",
        "coordinates": [
          39.164166666,
          -4.234722222
        ]
      },
      "properties": {
        "label": "Katundani Dam Number Two",
        "type": "Hydraulic structure",
        "entity": "http://www.wikidata.org/entity/Q27196381",
        "country_qid": "Q114"
      }
    },
    {
      "type": "Feature",
      "geometry": {
        "type": "Point",
        "coordinates": [
          40.9,
          -2.266666666
        ]
      },
      "properties": {
        "label": "Lamu",
        "type": "Hydraulic structure",
        "entity": "http://www.wikidata.org/entity/Q111386722",
        "country_qid": "Q114"
      }
    },
    {
      "type": "Feature",
      "geometry": {
        "type": "Point",
        "coordinates": [
          37.8126883,
          -0.8098714
        ]
      },
      "properties": {
        "label": "Kindaruma Power Station",
        "type": "Hydraulic structure",
        "entity": "http://www.wikidata.org/entity/Q16893451",
        "country_qid": "Q114"
      }
    },
    {
      "type": "Feature",
      "geometry": {
        "type": "Point",
        "coordinates": [
          35.3567398,
          1.9129608
        ]
      },
      "properties": {
        "label": "Turkwel Hydroelectric Power Station",
        "type": "Hydraulic structure",
        "entity": "http://www.wikidata.org/entity/Q2460864",
        "country_qid": "Q114"
      }
    },
    {
      "type": "Feature",
      "geometry": {
        "type": "Point",
        "coordinates": [
          37.7497,
          -0.795169
        ]
      },
      "properties": {
        "label": "Gitaru Hydroelectric Power Station",
        "type": "Hydraulic structure",
        "entity": "http://www.wikidata.org/entity/Q5565067",
        "country_qid": "Q114"
      }
    },
    {
      "type": "Feature",
      "geometry": {
        "type": "Point",
        "coordinates": [
          39.097222222,
          -4.303611111
        ]
      },
      "properties": {
        "label": "Gandini Dam",
        "type": "Hydraulic structure",
        "entity": "http://www.wikidata.org/entity/Q27197460",
        "country_qid": "Q114"
      }
    },
    {
      "type": "Feature",
      "geometry": {
        "type": "Point",
        "coordinates": [
          34.852222222,
          -0.3425
        ]
      },
      "properties": {
        "label": "Sondu Miriu Hydroelectric Power Station",
        "type": "Hydraulic structure",
        "entity": "http://www.wikidata.org/entity/Q24039555",
        "country_qid": "Q114"
      }
    },
    {
      "type": "Feature",
      "geometry": {
        "type": "Point",
        "coordinates": [
          34.346944444,
          -0.903611111
        ]
      },
      "properties": {
        "label": "Gogo Dam",
        "type": "Hydraulic structure",
        "entity": "http://www.wikidata.org/entity/Q27203409",
        "country_qid": "Q114"
      }
    },
    {
      "type": "Feature",
      "geometry": {
        "type": "Point",
        "coordinates": [
          39.45,
          -4.3844
        ]
      },
      "properties": {
        "label": "Mukurumudzi Dam",
        "type": "Hydraulic structure",
        "entity": "http://www.wikidata.org/entity/Q15036524",
        "country_qid": "Q114"
      }
    },
    {
      "type": "Feature",
      "geometry": {
        "type": "Point",
        "coordinates": [
          37.6866,
          -0.808056
        ]
      },
      "properties": {
        "label": "Kamburu Hydroelectric Power Station",
        "type": "Hydraulic structure",
        "entity": "http://www.wikidata.org/entity/Q6356428",
        "country_qid": "Q114"
      }
    },
    {
      "type": "Feature",
      "geometry": {
        "type": "Point",
        "coordinates": [
          39.666667,
          -4.080556
        ]
      },
      "properties": {
        "label": "Kilindini Harbour",
        "type": "Hydraulic structure",
        "entity": "http://www.wikidata.org/entity/Q2270735",
        "country_qid": "Q114"
      }
    },
    {
      "type": "Feature",
      "geometry": {
        "type": "Point",
        "coordinates": [
          39.165833333,
          -4.250833333
        ]
      },
      "properties": {
        "label": "Katundani Dam Number One",
        "type": "Hydraulic structure",
        "entity": "http://www.wikidata.org/entity/Q27196380",
        "country_qid": "Q114"
      }
    },
    {
      "type": "Feature",
      "geometry": {
        "type": "Point",
        "coordinates": [
          34.309722222,
          0.736944444
        ]
      },
      "properties": {
        "label": "Angololo Multipurpose Dam",
        "type": "Hydraulic structure",
        "entity": "http://www.wikidata.org/entity/Q113499585",
        "country_qid": "Q114"
      }
    },
    {
      "type": "Feature",
      "geometry": {
        "type": "Point",
        "coordinates": [
          39.114166666,
          -4.116111111
        ]
      },
      "properties": {
        "label": "Kamuviwa Dam",
        "type": "Hydraulic structure",
        "entity": "http://www.wikidata.org/entity/Q27197929",
        "country_qid": "Q114"
      }
    },
    {
      "type": "Feature",
      "geometry": {
        "type": "Point",
        "coordinates": [
          37.88638889,
          -0.59666667
        ]
      },
      "properties": {
        "label": "Kiambere Hydroelectric Power Station",
        "type": "Hydraulic structure",
        "entity": "http://www.wikidata.org/entity/Q6403729",
        "country_qid": "Q114"
      }
    },
    {
      "type": "Feature",
      "geometry": {
        "type": "Point",
        "coordinates": [
          39.866666666,
          -3.633333333
        ]
      },
      "properties": {
        "label": "Kilifi",
        "type": "Hydraulic structure",
        "entity": "http://www.wikidata.org/entity/Q111386865",
        "country_qid": "Q114"
      }
    },
    {
      "type": "Feature",
      "geometry": {
        "type": "Point",
        "coordinates": [
          39.344444444,
          -4.110555555
        ]
      },
      "properties": {
        "label": "Kinango Dam",
        "type": "Hydraulic structure",
        "entity": "http://www.wikidata.org/entity/Q27203471",
        "country_qid": "Q114"
      }
    },
    {
      "type": "Feature",
      "geometry": {
        "type": "Point",
        "coordinates": [
          39.09095,
          -4.25592
        ]
      },
      "properties": {
        "label": "Kanyumbuni Dam",
        "type": "Hydraulic structure",
        "entity": "http://www.wikidata.org/entity/Q27196246",
        "country_qid": "Q114"
      }
    },
    {
      "type": "Feature",
      "geometry": {
        "type": "Point",
        "coordinates": [
          39.011388888,
          -4.210833333
        ]
      },
      "properties": {
        "label": "Bidimole Dam",
        "type": "Hydraulic structure",
        "entity": "http://www.wikidata.org/entity/Q27198474",
        "country_qid": "Q114"
      }
    },
    {
      "type": "Feature",
      "geometry": {
        "type": "Point",
        "coordinates": [
          36.6965,
          -1.4379
        ]
      },
      "properties": {
        "label": "Kiserian Dam",
        "type": "Hydraulic structure",
        "entity": "http://www.wikidata.org/entity/Q30687879",
        "country_qid": "Q114"
      }
    },
    {
      "type": "Feature",
      "geometry": {
        "type": "Point",
        "coordinates": [
          36.8503,
          -0.820278
        ]
      },
      "properties": {
        "label": "Thika Dam",
        "type": "Hydraulic structure",
        "entity": "http://www.wikidata.org/entity/Q7784141",
        "country_qid": "Q114"
      }
    },
    {
      "type": "Feature",
      "geometry": {
        "type": "Point",
        "coordinates": [
          40.67953,
          -2.17991
        ]
      },
      "properties": {
        "label": "Kitoku Dam",
        "type": "Hydraulic structure",
        "entity": "http://www.wikidata.org/entity/Q27196643",
        "country_qid": "Q114"
      }
    },
    {
      "type": "Feature",
      "geometry": {
        "type": "Point",
        "coordinates": [
          37.5891,
          -0.880556
        ]
      },
      "properties": {
        "label": "Masinga Dam",
        "type": "Hydraulic structure",
        "entity": "http://www.wikidata.org/entity/Q17382021",
        "country_qid": "Q114"
      }
    },
    {
      "type": "Feature",
      "geometry": {
        "type": "Point",
        "coordinates": [
          36.80611111,
          -1.3175
        ]
      },
      "properties": {
        "label": "Nairobi Dam",
        "type": "Hydraulic structure",
        "entity": "http://www.wikidata.org/entity/Q6959783",
        "country_qid": "Q114"
      }
    },
    {
      "type": "Feature",
      "geometry": {
        "type": "Point",
        "coordinates": [
          39.043333333,
          -4.108888888
        ]
      },
      "properties": {
        "label": "Mbilini Dam",
        "type": "Hydraulic structure",
        "entity": "http://www.wikidata.org/entity/Q27194093",
        "country_qid": "Q114"
      }
    }
  ]
}