{
  "type": "FeatureCollection",
  "features": [
    {
      "type": "Feature",
      "geometry": {
        "type": "Point",
        "coordinates": [
          29.045555555,
          47.594166666
        ]
      },
      "properties": {
        "label": "Port Popenki",
        "type": "Hydraulic structure",
        "entity": "http://www.wikidata.org/entity/Q27558070",
        "country_qid": "Q217"
      }
    },
    {
      "type": "Feature",
      "geometry": {
        "type": "Point",
        "coordinates": [
          29.9975,
          46.458611111
        ]
      },
      "properties": {
        "label": "Port Korkmaz",
        "type": "Hydraulic structure",
        "entity": "http://www.wikidata.org/entity/Q27558037",
        "country_qid": "Q217"
      }
    },
    {
      "type": "Feature",
      "geometry": {
        "type": "Point",
        "coordinates": [
          29.758611111,
          46.670833333
        ]
      },
      "properties": {
        "label": "Q27558051",
        "type": "Hydraulic structure",
        "entity": "http://www.wikidata.org/entity/Q27558051",
        "country_qid": "Q217"
      }
    },
    {
      "type": "Feature",
      "geometry": {
        "type": "Point",
        "coordinates": [
          29.07968,
          47.0938
        ]
      },
      "properties": {
        "label": "Port Vadul lui Vodă",
        "type": "Hydraulic structure",
        "entity": "http://www.wikidata.org/entity/Q27558056",
        "country_qid": "Q217"
      }
    },
    {
      "type": "Feature",
      "geometry": {
        "type": "Point",
        "coordinates": [
          29.674444444,
          46.775833333
        ]
      },
      "properties": {
        "label": "Port Karagash",
        "type": "Hydraulic structure",
        "entity": "http://www.wikidata.org/entity/Q27558060",
        "country_qid": "Q217"
      }
    },
    {
      "type": "Feature",
      "geometry": {
        "type": "Point",
        "coordinates": [
          29.099444444,
          47.402777777
        ]
      },
      "properties": {
        "label": "Port Tsybulevka",
        "type": "Hydraulic structure",
        "entity": "http://www.wikidata.org/entity/Q27558067",
        "country_qid": "Q217"
      }
    },
    {
      "type": "Feature",
      "geometry": {
        "type": "Point",
        "coordinates": [
          28.975277777,
          47.878333333
        ]
      },
      "properties": {
        "label": "Port Belochi",
        "type": "Hydraulic structure",
        "entity": "http://www.wikidata.org/entity/Q27558072",
        "country_qid": "Q217"
      }
    },
    {
      "type": "Feature",
      "geometry": {
        "type": "Point",
        "coordinates": [
          29.099722222,
          47.350944444
        ]
      },
      "properties": {
        "label": "Molovata ferry",
        "type": "Hydraulic structure",
        "entity": "http://www.wikidata.org/entity/Q124072547",
        "country_qid": "Q217"
      }
    },
    {
      "type": "Feature",
      "geometry": {
        "type": "Point",
        "coordinates": [
          29.36,
          47.024166666
        ]
      },
      "properties": {
        "label": "Port Sherpeny",
        "type": "Hydraulic structure",
        "entity": "http://www.wikidata.org/entity/Q27558053",
        "country_qid": "Q217"
      }
    },
    {
      "type": "Feature",
      "geometry": {
        "type": "Point",
        "coordinates": [
          29.721666666,
          46.599722222
        ]
      },
      "properties": {
        "label": "Q27558034",
        "type": "Hydraulic structure",
        "entity": "http://www.wikidata.org/entity/Q27558034",
        "country_qid": "Q217"
      }
    },
    {
      "type": "Feature",
      "geometry": {
        "type": "Point",
        "coordinates": [
          29.295555555,
          46.998888888
        ]
      },
      "properties": {
        "label": "Port Speya",
        "type": "Hydraulic structure",
        "entity": "http://www.wikidata.org/entity/Q27558052",
        "country_qid": "Q217"
      }
    },
    {
      "type": "Feature",
      "geometry": {
        "type": "Point",
        "coordinates": [
          29.041111111,
          47.512222222
        ]
      },
      "properties": {
        "label": "Port Zhura",
        "type": "Hydraulic structure",
        "entity": "http://www.wikidata.org/entity/Q27558068",
        "country_qid": "Q217"
      }
    },
    {
      "type": "Feature",
      "geometry": {
        "type": "Point",
        "coordinates": [
          29.009166666,
          47.823888888
        ]
      },
      "properties": {
        "label": "Port Soloncheny",
        "type": "Hydraulic structure",
        "entity": "http://www.wikidata.org/entity/Q27558071",
        "country_qid": "Q217"
      }
    },
    {
      "type": "Feature",
      "geometry": {
        "type": "Point",
        "coordinates": [
          29.163888888,
          47.225
        ]
      },
      "properties": {
        "label": "Port Kriulyani",
        "type": "Hydraulic structure",
        "entity": "http://www.wikidata.org/entity/Q27558057",
        "country_qid": "Q217"
      }
    },
    {
      "type": "Feature",
      "geometry": {
        "type": "Point",
        "coordinates": [
          29.782777777,
          46.579444444
        ]
      },
      "properties": {
        "label": "Port Raskayetsy",
        "type": "Hydraulic structure",
        "entity": "http://www.wikidata.org/entity/Q27558036",
        "country_qid": "Q217"
      }
    },
    {
      "type": "Feature",
      "geometry": {
        "type": "Point",
        "coordinates": [
          29.688888888,
          46.723888888
        ]
      },
      "properties": {
        "label": "Port Slobodzeya",
        "type": "Hydraulic structure",
        "entity": "http://www.wikidata.org/entity/Q27558061",
        "country_qid": "Q217"
      }
    },
    {
      "type": "Feature",
      "geometry": {
        "type": "Point",
        "coordinates": [
          29.468888888,
          46.951388888
        ]
      },
      "properties": {
        "label": "Port Krasnogorka",
        "type": "Hydraulic structure",
        "entity": "http://www.wikidata.org/entity/Q27558058",
        "country_qid": "Q217"
      }
    },
    {
      "type": "Feature",
      "geometry": {
        "type": "Point",
        "coordinates": [
          29.116111111,
          47.472777777
        ]
      },
      "properties": {
        "label": "Port Mikhaylovka",
        "type": "Hydraulic structure",
        "entity": "http://www.wikidata.org/entity/Q27558069",
        "country_qid": "Q217"
      }
    },
    {
      "type": "Feature",
      "geometry": {
        "type": "Point",
        "coordinates": [
          29.928333333,
          46.501388888
        ]
      },
      "properties": {
        "label": "Port Olaneshty",
        "type": "Hydraulic structure",
        "entity": "http://www.wikidata.org/entity/Q27558038",
        "country_qid": "Q217"
      }
    },
    {
      "type": "Feature",
      "geometry": {
        "type": "Point",
        "coordinates": [
          29.105,
          47.353611111
        ]
      },
      "properties": {
        "label": "Port Molovata",
        "type": "Hydraulic structure",
        "entity": "http://www.wikidata.org/entity/Q27558066",
        "country_qid": "Q217"
      }
    },
    {
      "type": "Feature",
      "geometry": {
        "type": "Point",
        "coordinates": [
          29.12361111,
          47.27777778
        ]
      },
      "properties": {
        "label": "Dubăsari Dam",
        "type": "Hydraulic structure",
        "entity": "http://www.wikidata.org/entity/Q1987011",
        "country_qid": "Q217"
      }
    },
    {
      "type": "Feature",
      "geometry": {
        "type": "Point",
        "coordinates": [
          29.354722222,
          47.09
        ]
      },
      "properties": {
        "label": "Port Pugacheny",
        "type": "Hydraulic structure",
        "entity": "http://www.wikidata.org/entity/Q27558054",
        "country_qid": "Q217"
      }
    },
    {
      "type": "Feature",
      "geometry": {
        "type": "Point",
        "coordinates": [
          28.21,
          45.47
        ]
      },
      "properties": {
        "label": "Port of Giurgiulești",
        "type": "Hydraulic structure",
        "entity": "http://www.wikidata.org/entity/Q7231147",
        "country_qid": "Q217"
      }
    },
    {
      "type": "Feature",
      "geometry": {
        "type": "Point",
        "coordinates": [
          29.309444444,
          47.1025
        ]
      },
      "properties": {
        "label": "Q27558055",
        "type": "Hydraulic structure",
        "entity": "http://www.wikidata.org/entity/Q27558055",
        "country_qid": "Q217"
      }
    },
    {
      "type": "Feature",
      "geometry": {
        "type": "Point",
        "coordinates": [
          28.966111111,
          47.713888888
        ]
      },
      "properties": {
        "label": "Port Gidirim",
        "type": "Hydraulic structure",
        "entity": "http://www.wikidata.org/entity/Q27558073",
        "country_qid": "Q217"
      }
    },
    {
      "type": "Feature",
      "geometry": {
        "type": "Point",
        "coordinates": [
          27.2270182,
          47.839837
        ]
      },
      "properties": {
        "label": "Stânca-Costești Dam",
        "type": "Hydraulic structure",
        "entity": "http://www.wikidata.org/entity/Q7629892",
        "country_qid": "Q217"
      }
    }
  ]
}