{
  "type": "FeatureCollection",
  "features": [
    {
      "type": "Feature",
      "geometry": {
        "type": "Point",
        "coordinates": [
          -3.92347,
          35.24564
        ]
      },
      "properties": {
        "label": "Al Hoceima Port",
        "type": "Hydraulic structure",
        "entity": "http://www.wikidata.org/entity/Q27539154",
        "country_qid": "Q1028"
      }
    },
    {
      "type": "Feature",
      "geometry": {
        "type": "Point",
        "coordinates": [
          -4.92497,
          34.07749
        ]
      },
      "properties": {
        "label": "Fez River",
        "type": "Hydraulic structure",
        "entity": "http://www.wikidata.org/entity/Q30082176",
        "country_qid": "Q1028"
      }
    },
    {
      "type": "Feature",
      "geometry": {
        "type": "Point",
        "coordinates": [
          -4.74916667,
          34.16138889
        ]
      },
      "properties": {
        "label": "Idriss I Dam",
        "type": "Hydraulic structure",
        "entity": "http://www.wikidata.org/entity/Q5989737",
        "country_qid": "Q1028"
      }
    },
    {
      "type": "Feature",
      "geometry": {
        "type": "Point",
        "coordinates": [
          -6.82277778,
          31.81388889
        ]
      },
      "properties": {
        "label": "Hassan I Dam",
        "type": "Hydraulic structure",
        "entity": "http://www.wikidata.org/entity/Q64483",
        "country_qid": "Q1028"
      }
    },
    {
      "type": "Feature",
      "geometry": {
        "type": "Point",
        "coordinates": [
          -4.369166666,
          35.15
        ]
      },
      "properties": {
        "label": "Q27522345",
        "type": "Hydraulic structure",
        "entity": "http://www.wikidata.org/entity/Q27522345",
        "country_qid": "Q1028"
      }
    },
    {
      "type": "Feature",
      "geometry": {
        "type": "Point",
        "coordinates": [
          -5.50638889,
          35.70888889
        ]
      },
      "properties": {
        "label": "Erraouz Barrage",
        "type": "Hydraulic structure",
        "entity": "http://www.wikidata.org/entity/Q5395487",
        "country_qid": "Q1028"
      }
    },
    {
      "type": "Feature",
      "geometry": {
        "type": "Point",
        "coordinates": [
          -7.485277777,
          33.004444444
        ]
      },
      "properties": {
        "label": "Barage Tamadroust",
        "type": "Hydraulic structure",
        "entity": "http://www.wikidata.org/entity/Q29083025",
        "country_qid": "Q1028"
      }
    },
    {
      "type": "Feature",
      "geometry": {
        "type": "Point",
        "coordinates": [
          -6.6,
          34.3
        ]
      },
      "properties": {
        "label": "Port of Kenitra",
        "type": "Hydraulic structure",
        "entity": "http://www.wikidata.org/entity/Q27539155",
        "country_qid": "Q1028"
      }
    },
    {
      "type": "Feature",
      "geometry": {
        "type": "Point",
        "coordinates": [
          -5.198035,
          34.5962467
        ]
      },
      "properties": {
        "label": "Al Wahda Dam",
        "type": "Hydraulic structure",
        "entity": "http://www.wikidata.org/entity/Q292131",
        "country_qid": "Q1028"
      }
    },
    {
      "type": "Feature",
      "geometry": {
        "type": "Point",
        "coordinates": [
          -7.144444444,
          33.772777777
        ]
      },
      "properties": {
        "label": "Canal Faouarat",
        "type": "Hydraulic structure",
        "entity": "http://www.wikidata.org/entity/Q29096747",
        "country_qid": "Q1028"
      }
    },
    {
      "type": "Feature",
      "geometry": {
        "type": "Point",
        "coordinates": [
          -8.62028,
          33.1267
        ]
      },
      "properties": {
        "label": "Jorf Lasfar",
        "type": "Hydraulic structure",
        "entity": "http://www.wikidata.org/entity/Q3183776",
        "country_qid": "Q1028"
      }
    },
    {
      "type": "Feature",
      "geometry": {
        "type": "Point",
        "coordinates": [
          -5.502778,
          33.078056
        ]
      },
      "properties": {
        "label": "Q2884993",
        "type": "Hydraulic structure",
        "entity": "http://www.wikidata.org/entity/Q2884993",
        "country_qid": "Q1028"
      }
    },
    {
      "type": "Feature",
      "geometry": {
        "type": "Point",
        "coordinates": [
          -8.499574934,
          33.256658936
        ]
      },
      "properties": {
        "label": "Port of El Jadida",
        "type": "Hydraulic structure",
        "entity": "http://www.wikidata.org/entity/Q111386515",
        "country_qid": "Q1028"
      }
    },
    {
      "type": "Feature",
      "geometry": {
        "type": "Point",
        "coordinates": [
          -6.413055555,
          34.488333333
        ]
      },
      "properties": {
        "label": "Barrage de Garde",
        "type": "Hydraulic structure",
        "entity": "http://www.wikidata.org/entity/Q29100933",
        "country_qid": "Q1028"
      }
    },
    {
      "type": "Feature",
      "geometry": {
        "type": "Point",
        "coordinates": [
          -7.463611111,
          33.106944444
        ]
      },
      "properties": {
        "label": "Barage Mazer",
        "type": "Hydraulic structure",
        "entity": "http://www.wikidata.org/entity/Q29083012",
        "country_qid": "Q1028"
      }
    },
    {
      "type": "Feature",
      "geometry": {
        "type": "Point",
        "coordinates": [
          -6.144233874,
          35.199137094
        ]
      },
      "properties": {
        "label": "Port of Larache",
        "type": "Hydraulic structure",
        "entity": "http://www.wikidata.org/entity/Q133842001",
        "country_qid": "Q1028"
      }
    },
    {
      "type": "Feature",
      "geometry": {
        "type": "Point",
        "coordinates": [
          -4.525650331,
          33.681615029
        ]
      },
      "properties": {
        "label": "Madaz Dam",
        "type": "Hydraulic structure",
        "entity": "http://www.wikidata.org/entity/Q130337597",
        "country_qid": "Q1028"
      }
    },
    {
      "type": "Feature",
      "geometry": {
        "type": "Point",
        "coordinates": [
          -9.63595,
          30.42211
        ]
      },
      "properties": {
        "label": "Port of Agadir",
        "type": "Hydraulic structure",
        "entity": "http://www.wikidata.org/entity/Q20423424",
        "country_qid": "Q1028"
      }
    },
    {
      "type": "Feature",
      "geometry": {
        "type": "Point",
        "coordinates": [
          -8.10639,
          33.1422
        ]
      },
      "properties": {
        "label": "Sidi Saïd Maâchou",
        "type": "Hydraulic structure",
        "entity": "http://www.wikidata.org/entity/Q2884987",
        "country_qid": "Q1028"
      }
    },
    {
      "type": "Feature",
      "geometry": {
        "type": "Point",
        "coordinates": [
          -8.066667,
          32.936944
        ]
      },
      "properties": {
        "label": "Q2884934",
        "type": "Hydraulic structure",
        "entity": "http://www.wikidata.org/entity/Q2884934",
        "country_qid": "Q1028"
      }
    },
    {
      "type": "Feature",
      "geometry": {
        "type": "Point",
        "coordinates": [
          -6.750905,
          33.937811
        ]
      },
      "properties": {
        "label": "Sidi Mohammed Ben Abdellah dam",
        "type": "Hydraulic structure",
        "entity": "http://www.wikidata.org/entity/Q12215598",
        "country_qid": "Q1028"
      }
    },
    {
      "type": "Feature",
      "geometry": {
        "type": "Point",
        "coordinates": [
          -4.953871,
          34.0183
        ]
      },
      "properties": {
        "label": "Elgaada Dam",
        "type": "Hydraulic structure",
        "entity": "http://www.wikidata.org/entity/Q22932976",
        "country_qid": "Q1028"
      }
    },
    {
      "type": "Feature",
      "geometry": {
        "type": "Point",
        "coordinates": [
          -8.11,
          33.16
        ]
      },
      "properties": {
        "label": "Q27511869",
        "type": "Hydraulic structure",
        "entity": "http://www.wikidata.org/entity/Q27511869",
        "country_qid": "Q1028"
      }
    },
    {
      "type": "Feature",
      "geometry": {
        "type": "Point",
        "coordinates": [
          -4.67722222,
          33.93138889
        ]
      },
      "properties": {
        "label": "Allal al Fassi Dam",
        "type": "Hydraulic structure",
        "entity": "http://www.wikidata.org/entity/Q4730393",
        "country_qid": "Q1028"
      }
    },
    {
      "type": "Feature",
      "geometry": {
        "type": "Point",
        "coordinates": [
          -7.942777777,
          32.604166666
        ]
      },
      "properties": {
        "label": "Sidi Saad Dam",
        "type": "Hydraulic structure",
        "entity": "http://www.wikidata.org/entity/Q29095534",
        "country_qid": "Q1028"
      }
    },
    {
      "type": "Feature",
      "geometry": {
        "type": "Point",
        "coordinates": [
          -7.885833333,
          32.426388888
        ]
      },
      "properties": {
        "label": "Barrage Ben Annou",
        "type": "Hydraulic structure",
        "entity": "http://www.wikidata.org/entity/Q29082288",
        "country_qid": "Q1028"
      }
    },
    {
      "type": "Feature",
      "geometry": {
        "type": "Point",
        "coordinates": [
          -2.93833333,
          34.66305556
        ]
      },
      "properties": {
        "label": "Mohamed V Dam",
        "type": "Hydraulic structure",
        "entity": "http://www.wikidata.org/entity/Q2884977",
        "country_qid": "Q1028"
      }
    },
    {
      "type": "Feature",
      "geometry": {
        "type": "Point",
        "coordinates": [
          -6.463889,
          32.106667
        ]
      },
      "properties": {
        "label": "Bin el Ouidane Dam",
        "type": "Hydraulic structure",
        "entity": "http://www.wikidata.org/entity/Q2884936",
        "country_qid": "Q1028"
      }
    },
    {
      "type": "Feature",
      "geometry": {
        "type": "Point",
        "coordinates": [
          -2.421939646,
          35.145927692
        ]
      },
      "properties": {
        "label": "Ras El Ma Port",
        "type": "Hydraulic structure",
        "entity": "http://www.wikidata.org/entity/Q86666856",
        "country_qid": "Q1028"
      }
    },
    {
      "type": "Feature",
      "geometry": {
        "type": "Point",
        "coordinates": [
          -8.135833333,
          31.354722222
        ]
      },
      "properties": {
        "label": "Barrage Cavagnac",
        "type": "Hydraulic structure",
        "entity": "http://www.wikidata.org/entity/Q27520143",
        "country_qid": "Q1028"
      }
    },
    {
      "type": "Feature",
      "geometry": {
        "type": "Point",
        "coordinates": [
          -13.17433,
          27.156429
        ]
      },
      "properties": {
        "label": "Sakia El Hamra Dam",
        "type": "Hydraulic structure",
        "entity": "http://www.wikidata.org/entity/Q106643432",
        "country_qid": "Q1028"
      }
    },
    {
      "type": "Feature",
      "geometry": {
        "type": "Point",
        "coordinates": [
          -9.25,
          32.3
        ]
      },
      "properties": {
        "label": "Port de Safi",
        "type": "Hydraulic structure",
        "entity": "http://www.wikidata.org/entity/Q27539159",
        "country_qid": "Q1028"
      }
    },
    {
      "type": "Feature",
      "geometry": {
        "type": "Point",
        "coordinates": [
          -6.821861111,
          34.02975
        ]
      },
      "properties": {
        "label": "Bouregreg Marina",
        "type": "Hydraulic structure",
        "entity": "http://www.wikidata.org/entity/Q2922296",
        "country_qid": "Q1028"
      }
    },
    {
      "type": "Feature",
      "geometry": {
        "type": "Point",
        "coordinates": [
          -6.94259,
          30.51761
        ]
      },
      "properties": {
        "label": "Tizgui dam",
        "type": "Hydraulic structure",
        "entity": "http://www.wikidata.org/entity/Q31869953",
        "country_qid": "Q1028"
      }
    },
    {
      "type": "Feature",
      "geometry": {
        "type": "Point",
        "coordinates": [
          -5.29093,
          35.24541
        ]
      },
      "properties": {
        "label": "Moulay Bouchta Dam",
        "type": "Hydraulic structure",
        "entity": "http://www.wikidata.org/entity/Q27539177",
        "country_qid": "Q1028"
      }
    },
    {
      "type": "Feature",
      "geometry": {
        "type": "Point",
        "coordinates": [
          -8.438888888,
          31.268333333
        ]
      },
      "properties": {
        "label": "Ibardatene Tatehtalt",
        "type": "Hydraulic structure",
        "entity": "http://www.wikidata.org/entity/Q29101089",
        "country_qid": "Q1028"
      }
    },
    {
      "type": "Feature",
      "geometry": {
        "type": "Point",
        "coordinates": [
          -5.426666666,
          33.619444444
        ]
      },
      "properties": {
        "label": "Barrage Amane Sayrrine",
        "type": "Hydraulic structure",
        "entity": "http://www.wikidata.org/entity/Q29081193",
        "country_qid": "Q1028"
      }
    },
    {
      "type": "Feature",
      "geometry": {
        "type": "Point",
        "coordinates": [
          -7.926571,
          32.725541
        ]
      },
      "properties": {
        "label": "Im Fout",
        "type": "Hydraulic structure",
        "entity": "http://www.wikidata.org/entity/Q2885028",
        "country_qid": "Q1028"
      }
    },
    {
      "type": "Feature",
      "geometry": {
        "type": "Point",
        "coordinates": [
          -6.400833333,
          34.450555555
        ]
      },
      "properties": {
        "label": "Chaabat Laatchane",
        "type": "Hydraulic structure",
        "entity": "http://www.wikidata.org/entity/Q29100930",
        "country_qid": "Q1028"
      }
    },
    {
      "type": "Feature",
      "geometry": {
        "type": "Point",
        "coordinates": [
          -7.98,
          30.7346
        ]
      },
      "properties": {
        "label": "Q2884975",
        "type": "Hydraulic structure",
        "entity": "http://www.wikidata.org/entity/Q2884975",
        "country_qid": "Q1028"
      }
    },
    {
      "type": "Feature",
      "geometry": {
        "type": "Point",
        "coordinates": [
          -2.352222222,
          34.930833333
        ]
      },
      "properties": {
        "label": "Canal Principal Des Triffa",
        "type": "Hydraulic structure",
        "entity": "http://www.wikidata.org/entity/Q29099725",
        "country_qid": "Q1028"
      }
    },
    {
      "type": "Feature",
      "geometry": {
        "type": "Point",
        "coordinates": [
          -5.802784227,
          35.786944114
        ]
      },
      "properties": {
        "label": "Port of Tangier Ville",
        "type": "Hydraulic structure",
        "entity": "http://www.wikidata.org/entity/Q29107045",
        "country_qid": "Q1028"
      }
    },
    {
      "type": "Feature",
      "geometry": {
        "type": "Point",
        "coordinates": [
          -5.41,
          35.48
        ]
      },
      "properties": {
        "label": "Nakhla",
        "type": "Hydraulic structure",
        "entity": "http://www.wikidata.org/entity/Q27515754",
        "country_qid": "Q1028"
      }
    },
    {
      "type": "Feature",
      "geometry": {
        "type": "Point",
        "coordinates": [
          -5.50133056,
          35.88980556
        ]
      },
      "properties": {
        "label": "Tanger-Med",
        "type": "Hydraulic structure",
        "entity": "http://www.wikidata.org/entity/Q518888",
        "country_qid": "Q1028"
      }
    },
    {
      "type": "Feature",
      "geometry": {
        "type": "Point",
        "coordinates": [
          -6.50948,
          32.1089
        ]
      },
      "properties": {
        "label": "Q2884923",
        "type": "Hydraulic structure",
        "entity": "http://www.wikidata.org/entity/Q2884923",
        "country_qid": "Q1028"
      }
    },
    {
      "type": "Feature",
      "geometry": {
        "type": "Point",
        "coordinates": [
          -2.31664,
          34.93341
        ]
      },
      "properties": {
        "label": "Canal Secondaire Jer Elage",
        "type": "Hydraulic structure",
        "entity": "http://www.wikidata.org/entity/Q29099741",
        "country_qid": "Q1028"
      }
    },
    {
      "type": "Feature",
      "geometry": {
        "type": "Point",
        "coordinates": [
          -7.61447,
          33.601395
        ]
      },
      "properties": {
        "label": "Port of Casablanca",
        "type": "Hydraulic structure",
        "entity": "http://www.wikidata.org/entity/Q2020229",
        "country_qid": "Q1028"
      }
    },
    {
      "type": "Feature",
      "geometry": {
        "type": "Point",
        "coordinates": [
          -6.31139,
          34.3092
        ]
      },
      "properties": {
        "label": "United States Naval Communications Station Sidi Yahya El Gharb",
        "type": "Hydraulic structure",
        "entity": "http://www.wikidata.org/entity/Q7890794",
        "country_qid": "Q1028"
      }
    },
    {
      "type": "Feature",
      "geometry": {
        "type": "Point",
        "coordinates": [
          -2.80472,
          34.73639
        ]
      },
      "properties": {
        "label": "Barrage Mishra Hamadi",
        "type": "Hydraulic structure",
        "entity": "http://www.wikidata.org/entity/Q2884969",
        "country_qid": "Q1028"
      }
    },
    {
      "type": "Feature",
      "geometry": {
        "type": "Point",
        "coordinates": [
          -7.339722222,
          33.506944444
        ]
      },
      "properties": {
        "label": "Oued El Maleh Dam",
        "type": "Hydraulic structure",
        "entity": "http://www.wikidata.org/entity/Q27513866",
        "country_qid": "Q1028"
      }
    },
    {
      "type": "Feature",
      "geometry": {
        "type": "Point",
        "coordinates": [
          -2.29,
          34.933333333
        ]
      },
      "properties": {
        "label": "Canal Secondaire Jeme Etage",
        "type": "Hydraulic structure",
        "entity": "http://www.wikidata.org/entity/Q29099737",
        "country_qid": "Q1028"
      }
    },
    {
      "type": "Feature",
      "geometry": {
        "type": "Point",
        "coordinates": [
          -7.875,
          31.506944444
        ]
      },
      "properties": {
        "label": "Canal De Rocade Zazaba",
        "type": "Hydraulic structure",
        "entity": "http://www.wikidata.org/entity/Q29086142",
        "country_qid": "Q1028"
      }
    },
    {
      "type": "Feature",
      "geometry": {
        "type": "Point",
        "coordinates": [
          -2.851111111,
          35.0075
        ]
      },
      "properties": {
        "label": "Canal Bouarg",
        "type": "Hydraulic structure",
        "entity": "http://www.wikidata.org/entity/Q29101005",
        "country_qid": "Q1028"
      }
    },
    {
      "type": "Feature",
      "geometry": {
        "type": "Point",
        "coordinates": [
          -6.4456,
          33.562
        ]
      },
      "properties": {
        "label": "Sidi Mohammed Bin Abdullah Dam",
        "type": "Hydraulic structure",
        "entity": "http://www.wikidata.org/entity/Q27539262",
        "country_qid": "Q1028"
      }
    },
    {
      "type": "Feature",
      "geometry": {
        "type": "Point",
        "coordinates": [
          -7.26124,
          31.64606
        ]
      },
      "properties": {
        "label": "Q27531372",
        "type": "Hydraulic structure",
        "entity": "http://www.wikidata.org/entity/Q27531372",
        "country_qid": "Q1028"
      }
    },
    {
      "type": "Feature",
      "geometry": {
        "type": "Point",
        "coordinates": [
          -4.749444444,
          34.161666666
        ]
      },
      "properties": {
        "label": "Barrage Idriss Premier",
        "type": "Hydraulic structure",
        "entity": "http://www.wikidata.org/entity/Q27521808",
        "country_qid": "Q1028"
      }
    },
    {
      "type": "Feature",
      "geometry": {
        "type": "Point",
        "coordinates": [
          -9.49444,
          29.84556
        ]
      },
      "properties": {
        "label": "Youssef Ibn Tachfin Dam",
        "type": "Hydraulic structure",
        "entity": "http://www.wikidata.org/entity/Q2884999",
        "country_qid": "Q1028"
      }
    },
    {
      "type": "Feature",
      "geometry": {
        "type": "Point",
        "coordinates": [
          -8.116418,
          30.706897
        ]
      },
      "properties": {
        "label": "Aoulouz  dam",
        "type": "Hydraulic structure",
        "entity": "http://www.wikidata.org/entity/Q12215566",
        "country_qid": "Q1028"
      }
    },
    {
      "type": "Feature",
      "geometry": {
        "type": "Point",
        "coordinates": [
          -8.824283,
          30.63643
        ]
      },
      "properties": {
        "label": "Q106644512",
        "type": "Hydraulic structure",
        "entity": "http://www.wikidata.org/entity/Q106644512",
        "country_qid": "Q1028"
      }
    },
    {
      "type": "Feature",
      "geometry": {
        "type": "Point",
        "coordinates": [
          -2.499722222,
          34.881388888
        ]
      },
      "properties": {
        "label": "Canal Principal Triffa",
        "type": "Hydraulic structure",
        "entity": "http://www.wikidata.org/entity/Q29095180",
        "country_qid": "Q1028"
      }
    },
    {
      "type": "Feature",
      "geometry": {
        "type": "Point",
        "coordinates": [
          -5.125277777,
          33.835555555
        ]
      },
      "properties": {
        "label": "Q29083768",
        "type": "Hydraulic structure",
        "entity": "http://www.wikidata.org/entity/Q29083768",
        "country_qid": "Q1028"
      }
    },
    {
      "type": "Feature",
      "geometry": {
        "type": "Point",
        "coordinates": [
          -5.778298,
          35.239034
        ]
      },
      "properties": {
        "label": "Q106646502",
        "type": "Hydraulic structure",
        "entity": "http://www.wikidata.org/entity/Q106646502",
        "country_qid": "Q1028"
      }
    },
    {
      "type": "Feature",
      "geometry": {
        "type": "Point",
        "coordinates": [
          -5.80571,
          35.528168
        ]
      },
      "properties": {
        "label": "9 April 1947 dam",
        "type": "Hydraulic structure",
        "entity": "http://www.wikidata.org/entity/Q12215563",
        "country_qid": "Q1028"
      }
    },
    {
      "type": "Feature",
      "geometry": {
        "type": "Point",
        "coordinates": [
          -10.19129295,
          29.360159181
        ]
      },
      "properties": {
        "label": "Sidi Ifni harbour",
        "type": "Hydraulic structure",
        "entity": "http://www.wikidata.org/entity/Q28716414",
        "country_qid": "Q1028"
      }
    },
    {
      "type": "Feature",
      "geometry": {
        "type": "Point",
        "coordinates": [
          -7.63756,
          32.47546
        ]
      },
      "properties": {
        "label": "Al Massira Dam",
        "type": "Hydraulic structure",
        "entity": "http://www.wikidata.org/entity/Q2884929",
        "country_qid": "Q1028"
      }
    },
    {
      "type": "Feature",
      "geometry": {
        "type": "Point",
        "coordinates": [
          -5.907346,
          34.041583
        ]
      },
      "properties": {
        "label": "El Kansera",
        "type": "Hydraulic structure",
        "entity": "http://www.wikidata.org/entity/Q15216318",
        "country_qid": "Q1028"
      }
    },
    {
      "type": "Feature",
      "geometry": {
        "type": "Point",
        "coordinates": [
          -6.0349,
          35.4704
        ]
      },
      "properties": {
        "label": "Port of Asilah",
        "type": "Hydraulic structure",
        "entity": "http://www.wikidata.org/entity/Q105237886",
        "country_qid": "Q1028"
      }
    },
    {
      "type": "Feature",
      "geometry": {
        "type": "Point",
        "coordinates": [
          -2.923805555,
          35.266861111
        ]
      },
      "properties": {
        "label": "Nador Port",
        "type": "Hydraulic structure",
        "entity": "http://www.wikidata.org/entity/Q6957952",
        "country_qid": "Q1028"
      }
    },
    {
      "type": "Feature",
      "geometry": {
        "type": "Point",
        "coordinates": [
          -3.1699,
          35.2411
        ]
      },
      "properties": {
        "label": "Nador West Med",
        "type": "Hydraulic structure",
        "entity": "http://www.wikidata.org/entity/Q3334990",
        "country_qid": "Q1028"
      }
    },
    {
      "type": "Feature",
      "geometry": {
        "type": "Point",
        "coordinates": [
          -5.39138889,
          35.68638889
        ]
      },
      "properties": {
        "label": "Smir Dam",
        "type": "Hydraulic structure",
        "entity": "http://www.wikidata.org/entity/Q4807436",
        "country_qid": "Q1028"
      }
    },
    {
      "type": "Feature",
      "geometry": {
        "type": "Point",
        "coordinates": [
          -7.39191,
          33.72266
        ]
      },
      "properties": {
        "label": "Port de Mohammedia",
        "type": "Hydraulic structure",
        "entity": "http://www.wikidata.org/entity/Q27539156",
        "country_qid": "Q1028"
      }
    },
    {
      "type": "Feature",
      "geometry": {
        "type": "Point",
        "coordinates": [
          -6.76,
          30.9125
        ]
      },
      "properties": {
        "label": "Barrage el Mansour ed Deher",
        "type": "Hydraulic structure",
        "entity": "http://www.wikidata.org/entity/Q27533560",
        "country_qid": "Q1028"
      }
    },
    {
      "type": "Feature",
      "geometry": {
        "type": "Point",
        "coordinates": [
          -5.177644444,
          33.492763055
        ]
      },
      "properties": {
        "label": "Michlifen Dam",
        "type": "Hydraulic structure",
        "entity": "http://www.wikidata.org/entity/Q120359644",
        "country_qid": "Q1028"
      }
    },
    {
      "type": "Feature",
      "geometry": {
        "type": "Point",
        "coordinates": [
          -9.77427,
          31.509
        ]
      },
      "properties": {
        "label": "Port of Essaouira",
        "type": "Hydraulic structure",
        "entity": "http://www.wikidata.org/entity/Q15921409",
        "country_qid": "Q1028"
      }
    },
    {
      "type": "Feature",
      "geometry": {
        "type": "Point",
        "coordinates": [
          -5.28,
          35.25
        ]
      },
      "properties": {
        "label": "Ali Thelat",
        "type": "Hydraulic structure",
        "entity": "http://www.wikidata.org/entity/Q27529374",
        "country_qid": "Q1028"
      }
    },
    {
      "type": "Feature",
      "geometry": {
        "type": "Point",
        "coordinates": [
          -5.08166667,
          32.91194444
        ]
      },
      "properties": {
        "label": "Q2884962",
        "type": "Hydraulic structure",
        "entity": "http://www.wikidata.org/entity/Q2884962",
        "country_qid": "Q1028"
      }
    },
    {
      "type": "Feature",
      "geometry": {
        "type": "Point",
        "coordinates": [
          -5.291944444,
          35.245277777
        ]
      },
      "properties": {
        "label": "Q27512425",
        "type": "Hydraulic structure",
        "entity": "http://www.wikidata.org/entity/Q27512425",
        "country_qid": "Q1028"
      }
    },
    {
      "type": "Feature",
      "geometry": {
        "type": "Point",
        "coordinates": [
          -6.195277777,
          34.605833333
        ]
      },
      "properties": {
        "label": "Farraga",
        "type": "Hydraulic structure",
        "entity": "http://www.wikidata.org/entity/Q29106464",
        "country_qid": "Q1028"
      }
    },
    {
      "type": "Feature",
      "geometry": {
        "type": "Point",
        "coordinates": [
          -9.26803,
          32.170891666
        ]
      },
      "properties": {
        "label": "Q124656433",
        "type": "Hydraulic structure",
        "entity": "http://www.wikidata.org/entity/Q124656433",
        "country_qid": "Q1028"
      }
    },
    {
      "type": "Feature",
      "geometry": {
        "type": "Point",
        "coordinates": [
          -4.76837,
          32.7916
        ]
      },
      "properties": {
        "label": "Hassan II Dam",
        "type": "Hydraulic structure",
        "entity": "http://www.wikidata.org/entity/Q2884951",
        "country_qid": "Q1028"
      }
    },
    {
      "type": "Feature",
      "geometry": {
        "type": "Point",
        "coordinates": [
          -7.33,
          33.5
        ]
      },
      "properties": {
        "label": "Q27533598",
        "type": "Hydraulic structure",
        "entity": "http://www.wikidata.org/entity/Q27533598",
        "country_qid": "Q1028"
      }
    },
    {
      "type": "Feature",
      "geometry": {
        "type": "Point",
        "coordinates": [
          -8.05,
          32.93
        ]
      },
      "properties": {
        "label": "Daourat",
        "type": "Hydraulic structure",
        "entity": "http://www.wikidata.org/entity/Q27520339",
        "country_qid": "Q1028"
      }
    }
  ]
}