{
  "type": "FeatureCollection",
  "features": [
    {
      "type": "Feature",
      "geometry": {
        "type": "Point",
        "coordinates": [
          127.62167,
          39.82917
        ]
      },
      "properties": {
        "label": "Q27246783",
        "type": "Hydraulic structure",
        "entity": "http://www.wikidata.org/entity/Q27246783",
        "country_qid": "Q423"
      }
    },
    {
      "type": "Feature",
      "geometry": {
        "type": "Point",
        "coordinates": [
          129.816666666,
          41.766666666
        ]
      },
      "properties": {
        "label": "Ch'ongjin",
        "type": "Hydraulic structure",
        "entity": "http://www.wikidata.org/entity/Q111386833",
        "country_qid": "Q423"
      }
    },
    {
      "type": "Feature",
      "geometry": {
        "type": "Point",
        "coordinates": [
          127.48778,
          40.76944
        ]
      },
      "properties": {
        "label": "Q27247484",
        "type": "Hydraulic structure",
        "entity": "http://www.wikidata.org/entity/Q27247484",
        "country_qid": "Q423"
      }
    },
    {
      "type": "Feature",
      "geometry": {
        "type": "Point",
        "coordinates": [
          128.65,
          40.2
        ]
      },
      "properties": {
        "label": "Ch'aho",
        "type": "Hydraulic structure",
        "entity": "http://www.wikidata.org/entity/Q111386832",
        "country_qid": "Q423"
      }
    },
    {
      "type": "Feature",
      "geometry": {
        "type": "Point",
        "coordinates": [
          127.79306,
          38.42417
        ]
      },
      "properties": {
        "label": "Q27255041",
        "type": "Hydraulic structure",
        "entity": "http://www.wikidata.org/entity/Q27255041",
        "country_qid": "Q423"
      }
    },
    {
      "type": "Feature",
      "geometry": {
        "type": "Point",
        "coordinates": [
          130.4,
          42.333333333
        ]
      },
      "properties": {
        "label": "Senbong",
        "type": "Hydraulic structure",
        "entity": "http://www.wikidata.org/entity/Q111386741",
        "country_qid": "Q423"
      }
    },
    {
      "type": "Feature",
      "geometry": {
        "type": "Point",
        "coordinates": [
          130.3,
          42.233333333
        ]
      },
      "properties": {
        "label": "Najin",
        "type": "Hydraulic structure",
        "entity": "http://www.wikidata.org/entity/Q111386740",
        "country_qid": "Q423"
      }
    },
    {
      "type": "Feature",
      "geometry": {
        "type": "Point",
        "coordinates": [
          125.1993,
          38.6935
        ]
      },
      "properties": {
        "label": "Nampo Dam",
        "type": "Hydraulic structure",
        "entity": "http://www.wikidata.org/entity/Q224717",
        "country_qid": "Q423"
      }
    },
    {
      "type": "Feature",
      "geometry": {
        "type": "Point",
        "coordinates": [
          127.521111111,
          40.691944444
        ]
      },
      "properties": {
        "label": "Q27247440",
        "type": "Hydraulic structure",
        "entity": "http://www.wikidata.org/entity/Q27247440",
        "country_qid": "Q423"
      }
    },
    {
      "type": "Feature",
      "geometry": {
        "type": "Point",
        "coordinates": [
          129.831666666,
          41.773888888
        ]
      },
      "properties": {
        "label": "Q27259778",
        "type": "Hydraulic structure",
        "entity": "http://www.wikidata.org/entity/Q27259778",
        "country_qid": "Q423"
      }
    },
    {
      "type": "Feature",
      "geometry": {
        "type": "Point",
        "coordinates": [
          127.183,
          38.395
        ]
      },
      "properties": {
        "label": "Hwanggang Dam",
        "type": "Hydraulic structure",
        "entity": "http://www.wikidata.org/entity/Q15227259",
        "country_qid": "Q423"
      }
    },
    {
      "type": "Feature",
      "geometry": {
        "type": "Point",
        "coordinates": [
          127.79222222,
          38.4225
        ]
      },
      "properties": {
        "label": "Imnam Dam",
        "type": "Hydraulic structure",
        "entity": "http://www.wikidata.org/entity/Q6005626",
        "country_qid": "Q423"
      }
    },
    {
      "type": "Feature",
      "geometry": {
        "type": "Point",
        "coordinates": [
          127.45,
          39.166666666
        ]
      },
      "properties": {
        "label": "Wonsan",
        "type": "Hydraulic structure",
        "entity": "http://www.wikidata.org/entity/Q111386831",
        "country_qid": "Q423"
      }
    },
    {
      "type": "Feature",
      "geometry": {
        "type": "Point",
        "coordinates": [
          125.825,
          40.48111
        ]
      },
      "properties": {
        "label": "Q27257304",
        "type": "Hydraulic structure",
        "entity": "http://www.wikidata.org/entity/Q27257304",
        "country_qid": "Q423"
      }
    },
    {
      "type": "Feature",
      "geometry": {
        "type": "Point",
        "coordinates": [
          125.973,
          40.9016
        ]
      },
      "properties": {
        "label": "Wiwon Dam",
        "type": "Hydraulic structure",
        "entity": "http://www.wikidata.org/entity/Q16903060",
        "country_qid": "Q423"
      }
    },
    {
      "type": "Feature",
      "geometry": {
        "type": "Point",
        "coordinates": [
          125.56639,
          39.73917
        ]
      },
      "properties": {
        "label": "Q27255100",
        "type": "Hydraulic structure",
        "entity": "http://www.wikidata.org/entity/Q27255100",
        "country_qid": "Q423"
      }
    },
    {
      "type": "Feature",
      "geometry": {
        "type": "Point",
        "coordinates": [
          129.2,
          40.666666666
        ]
      },
      "properties": {
        "label": "Kimch'aek",
        "type": "Hydraulic structure",
        "entity": "http://www.wikidata.org/entity/Q111386739",
        "country_qid": "Q423"
      }
    },
    {
      "type": "Feature",
      "geometry": {
        "type": "Point",
        "coordinates": [
          126.514444,
          41.380833
        ]
      },
      "properties": {
        "label": "Unbong Dam",
        "type": "Hydraulic structure",
        "entity": "http://www.wikidata.org/entity/Q8061247",
        "country_qid": "Q423"
      }
    },
    {
      "type": "Feature",
      "geometry": {
        "type": "Point",
        "coordinates": [
          125.616666666,
          38.733333333
        ]
      },
      "properties": {
        "label": "Kyomip'o",
        "type": "Hydraulic structure",
        "entity": "http://www.wikidata.org/entity/Q111387522",
        "country_qid": "Q423"
      }
    },
    {
      "type": "Feature",
      "geometry": {
        "type": "Point",
        "coordinates": [
          124.735,
          40.3525
        ]
      },
      "properties": {
        "label": "Taipingwan Dam",
        "type": "Hydraulic structure",
        "entity": "http://www.wikidata.org/entity/Q13511810",
        "country_qid": "Q423"
      }
    }
  ]
}