{
  "type": "FeatureCollection",
  "features": [
    {
      "type": "Feature",
      "geometry": {
        "type": "Point",
        "coordinates": [
          56.230277777,
          23.416111111
        ]
      },
      "properties": {
        "label": "Q48978107",
        "type": "Hydraulic structure",
        "entity": "http://www.wikidata.org/entity/Q48978107",
        "country_qid": "Q842"
      }
    },
    {
      "type": "Feature",
      "geometry": {
        "type": "Point",
        "coordinates": [
          56.24944444,
          26.20333333
        ]
      },
      "properties": {
        "label": "Port of Khasab",
        "type": "Hydraulic structure",
        "entity": "http://www.wikidata.org/entity/Q7231170",
        "country_qid": "Q842"
      }
    },
    {
      "type": "Feature",
      "geometry": {
        "type": "Point",
        "coordinates": [
          57.7,
          19.66861111
        ]
      },
      "properties": {
        "label": "Port of Duqm",
        "type": "Hydraulic structure",
        "entity": "http://www.wikidata.org/entity/Q4703759",
        "country_qid": "Q842"
      }
    },
    {
      "type": "Feature",
      "geometry": {
        "type": "Point",
        "coordinates": [
          58.50888889,
          23.63638889
        ]
      },
      "properties": {
        "label": "Port of Mina Al Fahal",
        "type": "Hydraulic structure",
        "entity": "http://www.wikidata.org/entity/Q7231198",
        "country_qid": "Q842"
      }
    },
    {
      "type": "Feature",
      "geometry": {
        "type": "Point",
        "coordinates": [
          59.40527778,
          22.66111111
        ]
      },
      "properties": {
        "label": "Qalhat LNG Terminal",
        "type": "Hydraulic structure",
        "entity": "http://www.wikidata.org/entity/Q15269784",
        "country_qid": "Q842"
      }
    },
    {
      "type": "Feature",
      "geometry": {
        "type": "Point",
        "coordinates": [
          58.001479,
          23.605065
        ]
      },
      "properties": {
        "label": "Al Jifnain Dam",
        "type": "Hydraulic structure",
        "entity": "http://www.wikidata.org/entity/Q130641669",
        "country_qid": "Q842"
      }
    },
    {
      "type": "Feature",
      "geometry": {
        "type": "Point",
        "coordinates": [
          56.099166666,
          23.549444444
        ]
      },
      "properties": {
        "label": "Q48978140",
        "type": "Hydraulic structure",
        "entity": "http://www.wikidata.org/entity/Q48978140",
        "country_qid": "Q842"
      }
    },
    {
      "type": "Feature",
      "geometry": {
        "type": "Point",
        "coordinates": [
          57.25,
          22.75
        ]
      },
      "properties": {
        "label": "Q48978141",
        "type": "Hydraulic structure",
        "entity": "http://www.wikidata.org/entity/Q48978141",
        "country_qid": "Q842"
      }
    },
    {
      "type": "Feature",
      "geometry": {
        "type": "Point",
        "coordinates": [
          58.566111111,
          23.63
        ]
      },
      "properties": {
        "label": "Port Sultan Qaboos",
        "type": "Hydraulic structure",
        "entity": "http://www.wikidata.org/entity/Q2327342",
        "country_qid": "Q842"
      }
    },
    {
      "type": "Feature",
      "geometry": {
        "type": "Point",
        "coordinates": [
          57.21667,
          22.75
        ]
      },
      "properties": {
        "label": "Q48978139",
        "type": "Hydraulic structure",
        "entity": "http://www.wikidata.org/entity/Q48978139",
        "country_qid": "Q842"
      }
    },
    {
      "type": "Feature",
      "geometry": {
        "type": "Point",
        "coordinates": [
          58.166111111,
          23.635833333
        ]
      },
      "properties": {
        "label": "Sadd al Khawá¸‘",
        "type": "Hydraulic structure",
        "entity": "http://www.wikidata.org/entity/Q34925859",
        "country_qid": "Q842"
      }
    },
    {
      "type": "Feature",
      "geometry": {
        "type": "Point",
        "coordinates": [
          56.061388888,
          23.581111111
        ]
      },
      "properties": {
        "label": "Q48978275",
        "type": "Hydraulic structure",
        "entity": "http://www.wikidata.org/entity/Q48978275",
        "country_qid": "Q842"
      }
    },
    {
      "type": "Feature",
      "geometry": {
        "type": "Point",
        "coordinates": [
          56.6103,
          24.5042
        ]
      },
      "properties": {
        "label": "SOHAR Port and Freezone",
        "type": "Hydraulic structure",
        "entity": "http://www.wikidata.org/entity/Q15379049",
        "country_qid": "Q842"
      }
    },
    {
      "type": "Feature",
      "geometry": {
        "type": "Point",
        "coordinates": [
          54.01162,
          16.94355
        ]
      },
      "properties": {
        "label": "Port of Salalah",
        "type": "Hydraulic structure",
        "entity": "http://www.wikidata.org/entity/Q2190920",
        "country_qid": "Q842"
      }
    },
    {
      "type": "Feature",
      "geometry": {
        "type": "Point",
        "coordinates": [
          56.61027778,
          24.50416667
        ]
      },
      "properties": {
        "label": "Port of Sohar",
        "type": "Hydraulic structure",
        "entity": "http://www.wikidata.org/entity/Q4808608",
        "country_qid": "Q842"
      }
    }
  ]
}