{
  "type": "FeatureCollection",
  "features": [
    {
      "type": "Feature",
      "geometry": {
        "type": "Point",
        "coordinates": [
          -82.116666666,
          8.95
        ]
      },
      "properties": {
        "label": "Chiriqui Grande",
        "type": "Hydraulic structure",
        "entity": "http://www.wikidata.org/entity/Q111386659",
        "country_qid": "Q804"
      }
    },
    {
      "type": "Feature",
      "geometry": {
        "type": "Point",
        "coordinates": [
          -82.85,
          8.416666666
        ]
      },
      "properties": {
        "label": "Canal de Colorado",
        "type": "Hydraulic structure",
        "entity": "http://www.wikidata.org/entity/Q49243857",
        "country_qid": "Q804"
      }
    },
    {
      "type": "Feature",
      "geometry": {
        "type": "Point",
        "coordinates": [
          -81.59421667,
          8.21435
        ]
      },
      "properties": {
        "label": "Barro Blanco Dam",
        "type": "Hydraulic structure",
        "entity": "http://www.wikidata.org/entity/Q2885685",
        "country_qid": "Q804"
      }
    },
    {
      "type": "Feature",
      "geometry": {
        "type": "Point",
        "coordinates": [
          -79.9078205,
          9.3395511
        ]
      },
      "properties": {
        "label": "Colón LNG Terminal",
        "type": "Hydraulic structure",
        "entity": "http://www.wikidata.org/entity/Q110814801",
        "country_qid": "Q804"
      }
    },
    {
      "type": "Feature",
      "geometry": {
        "type": "Point",
        "coordinates": [
          -82.40154,
          9.29189
        ]
      },
      "properties": {
        "label": "Puerto Almirante",
        "type": "Hydraulic structure",
        "entity": "http://www.wikidata.org/entity/Q34966045",
        "country_qid": "Q804"
      }
    },
    {
      "type": "Feature",
      "geometry": {
        "type": "Point",
        "coordinates": [
          -82.49475833,
          9.23656389
        ]
      },
      "properties": {
        "label": "Changuinola Dam",
        "type": "Hydraulic structure",
        "entity": "http://www.wikidata.org/entity/Q15209056",
        "country_qid": "Q804"
      }
    },
    {
      "type": "Feature",
      "geometry": {
        "type": "Point",
        "coordinates": [
          -79.922710131,
          9.275092495
        ]
      },
      "properties": {
        "label": "Gatun Locks",
        "type": "Hydraulic structure",
        "entity": "http://www.wikidata.org/entity/Q42884122",
        "country_qid": "Q804"
      }
    },
    {
      "type": "Feature",
      "geometry": {
        "type": "Point",
        "coordinates": [
          -79.5611441,
          8.9573911
        ]
      },
      "properties": {
        "label": "Puerto de Balboa",
        "type": "Hydraulic structure",
        "entity": "http://www.wikidata.org/entity/Q6092230",
        "country_qid": "Q804"
      }
    },
    {
      "type": "Feature",
      "geometry": {
        "type": "Point",
        "coordinates": [
          -82.42,
          8.56
        ]
      },
      "properties": {
        "label": "Q121321542",
        "type": "Hydraulic structure",
        "entity": "http://www.wikidata.org/entity/Q121321542",
        "country_qid": "Q804"
      }
    },
    {
      "type": "Feature",
      "geometry": {
        "type": "Point",
        "coordinates": [
          -79.57306,
          8.95222
        ]
      },
      "properties": {
        "label": "Rodman United States Naval Reservation",
        "type": "Hydraulic structure",
        "entity": "http://www.wikidata.org/entity/Q42406224",
        "country_qid": "Q804"
      }
    },
    {
      "type": "Feature",
      "geometry": {
        "type": "Point",
        "coordinates": [
          -79.882089,
          9.361958
        ]
      },
      "properties": {
        "label": "Manzanillo International Terminal",
        "type": "Hydraulic structure",
        "entity": "http://www.wikidata.org/entity/Q6753432",
        "country_qid": "Q804"
      }
    },
    {
      "type": "Feature",
      "geometry": {
        "type": "Point",
        "coordinates": [
          -78.8845182,
          9.1771561
        ]
      },
      "properties": {
        "label": "Bayano Dam",
        "type": "Hydraulic structure",
        "entity": "http://www.wikidata.org/entity/Q4874313",
        "country_qid": "Q804"
      }
    },
    {
      "type": "Feature",
      "geometry": {
        "type": "Point",
        "coordinates": [
          -79.75,
          9.12
        ]
      },
      "properties": {
        "label": "Panama Canal",
        "type": "Hydraulic structure",
        "entity": "http://www.wikidata.org/entity/Q7350",
        "country_qid": "Q804"
      }
    },
    {
      "type": "Feature",
      "geometry": {
        "type": "Point",
        "coordinates": [
          -82.249,
          8.7443
        ]
      },
      "properties": {
        "label": "Fortuna Dam",
        "type": "Hydraulic structure",
        "entity": "http://www.wikidata.org/entity/Q5472786",
        "country_qid": "Q804"
      }
    },
    {
      "type": "Feature",
      "geometry": {
        "type": "Point",
        "coordinates": [
          -79.93333333,
          9.26666667
        ]
      },
      "properties": {
        "label": "Gatun Dam",
        "type": "Hydraulic structure",
        "entity": "http://www.wikidata.org/entity/Q11702782",
        "country_qid": "Q804"
      }
    },
    {
      "type": "Feature",
      "geometry": {
        "type": "Point",
        "coordinates": [
          -79.61638889,
          9.21111111
        ]
      },
      "properties": {
        "label": "Madden Dam",
        "type": "Hydraulic structure",
        "entity": "http://www.wikidata.org/entity/Q6726599",
        "country_qid": "Q804"
      }
    },
    {
      "type": "Feature",
      "geometry": {
        "type": "Point",
        "coordinates": [
          -79.59186944,
          8.99707611
        ]
      },
      "properties": {
        "label": "Miraflores",
        "type": "Hydraulic structure",
        "entity": "http://www.wikidata.org/entity/Q6872559",
        "country_qid": "Q804"
      }
    },
    {
      "type": "Feature",
      "geometry": {
        "type": "Point",
        "coordinates": [
          -79.666666666,
          8.866666666
        ]
      },
      "properties": {
        "label": "Vacamonte",
        "type": "Hydraulic structure",
        "entity": "http://www.wikidata.org/entity/Q111386523",
        "country_qid": "Q804"
      }
    },
    {
      "type": "Feature",
      "geometry": {
        "type": "Point",
        "coordinates": [
          -79.93,
          9.262777777
        ]
      },
      "properties": {
        "label": "Represa Gatún",
        "type": "Hydraulic structure",
        "entity": "http://www.wikidata.org/entity/Q34920818",
        "country_qid": "Q804"
      }
    },
    {
      "type": "Feature",
      "geometry": {
        "type": "Point",
        "coordinates": [
          -79.8812,
          9.372619444
        ]
      },
      "properties": {
        "label": "Coco Solo",
        "type": "Hydraulic structure",
        "entity": "http://www.wikidata.org/entity/Q1105400",
        "country_qid": "Q804"
      }
    },
    {
      "type": "Feature",
      "geometry": {
        "type": "Point",
        "coordinates": [
          -82.6413,
          9.32465
        ]
      },
      "properties": {
        "label": "Bonyic Dam",
        "type": "Hydraulic structure",
        "entity": "http://www.wikidata.org/entity/Q16844431",
        "country_qid": "Q804"
      }
    }
  ]
}