{
  "type": "FeatureCollection",
  "features": [
    {
      "type": "Feature",
      "geometry": {
        "type": "Point",
        "coordinates": [
          30.7290373,
          46.4719016
        ]
      },
      "properties": {
        "label": "Tram transformer station, Mala Arnautska - Litvaka, Odesa",
        "type": "Electrical substation",
        "entity": "http://www.wikidata.org/entity/Q122295922",
        "country_qid": "Q212"
      }
    },
    {
      "type": "Feature",
      "geometry": {
        "type": "Point",
        "coordinates": [
          22.308490276,
          48.5932856
        ]
      },
      "properties": {
        "label": "Uzhhorod-1 electrical substation",
        "type": "Electrical substation",
        "entity": "http://www.wikidata.org/entity/Q113322346",
        "country_qid": "Q212"
      }
    },
    {
      "type": "Feature",
      "geometry": {
        "type": "Point",
        "coordinates": [
          23.018288612,
          48.135348991
        ]
      },
      "properties": {
        "label": "Vynohradiv electrical substation",
        "type": "Electrical substation",
        "entity": "http://www.wikidata.org/entity/Q113322225",
        "country_qid": "Q212"
      }
    },
    {
      "type": "Feature",
      "geometry": {
        "type": "Point",
        "coordinates": [
          23.281702995,
          48.173555582
        ]
      },
      "properties": {
        "label": "Khust electric substation",
        "type": "Electrical substation",
        "entity": "http://www.wikidata.org/entity/Q113322253",
        "country_qid": "Q212"
      }
    },
    {
      "type": "Feature",
      "geometry": {
        "type": "Point",
        "coordinates": [
          34.095722222,
          44.948611111
        ]
      },
      "properties": {
        "label": "Transformer substation and electricity pylons",
        "type": "Electrical substation",
        "entity": "http://www.wikidata.org/entity/Q25443355",
        "country_qid": "Q212"
      }
    },
    {
      "type": "Feature",
      "geometry": {
        "type": "Point",
        "coordinates": [
          30.7367513,
          46.4714804
        ]
      },
      "properties": {
        "label": "Tram transformer station, Mala Arnautska - Yevropeiska, Odesa",
        "type": "Electrical substation",
        "entity": "http://www.wikidata.org/entity/Q122295752",
        "country_qid": "Q212"
      }
    },
    {
      "type": "Feature",
      "geometry": {
        "type": "Point",
        "coordinates": [
          30.7225638,
          46.4931742
        ]
      },
      "properties": {
        "label": "Tram transformer station, Pastera - Sechenova, Odesa",
        "type": "Electrical substation",
        "entity": "http://www.wikidata.org/entity/Q122295798",
        "country_qid": "Q212"
      }
    },
    {
      "type": "Feature",
      "geometry": {
        "type": "Point",
        "coordinates": [
          31.0702,
          46.9155
        ]
      },
      "properties": {
        "label": "Prohresivka substation",
        "type": "Electrical substation",
        "entity": "http://www.wikidata.org/entity/Q111132463",
        "country_qid": "Q212"
      }
    },
    {
      "type": "Feature",
      "geometry": {
        "type": "Point",
        "coordinates": [
          22.657719254,
          48.212187716
        ]
      },
      "properties": {
        "label": "Berehove electrical substation",
        "type": "Electrical substation",
        "entity": "http://www.wikidata.org/entity/Q113322396",
        "country_qid": "Q212"
      }
    },
    {
      "type": "Feature",
      "geometry": {
        "type": "Point",
        "coordinates": [
          30.7425262,
          46.4824752
        ]
      },
      "properties": {
        "label": "Tram transformer station, Italiiska - Hretska, Odesa",
        "type": "Electrical substation",
        "entity": "http://www.wikidata.org/entity/Q122298747",
        "country_qid": "Q212"
      }
    },
    {
      "type": "Feature",
      "geometry": {
        "type": "Point",
        "coordinates": [
          22.705435752,
          48.424715346
        ]
      },
      "properties": {
        "label": "Mukachevo-1 electric substation",
        "type": "Electrical substation",
        "entity": "http://www.wikidata.org/entity/Q113322288",
        "country_qid": "Q212"
      }
    },
    {
      "type": "Feature",
      "geometry": {
        "type": "Point",
        "coordinates": [
          30.386961111,
          46.4538
        ]
      },
      "properties": {
        "label": "Novoodeska 330 kV substation",
        "type": "Electrical substation",
        "entity": "http://www.wikidata.org/entity/Q109920282",
        "country_qid": "Q212"
      }
    },
    {
      "type": "Feature",
      "geometry": {
        "type": "Point",
        "coordinates": [
          29.44692,
          45.9925
        ]
      },
      "properties": {
        "label": "Artsyz 330 kV substation",
        "type": "Electrical substation",
        "entity": "http://www.wikidata.org/entity/Q109923302",
        "country_qid": "Q212"
      }
    }
  ]
}