{
  "type": "FeatureCollection",
  "features": [
    {
      "type": "Feature",
      "geometry": {
        "type": "Point",
        "coordinates": [
          48.861111111,
          32.051944444
        ]
      },
      "properties": {
        "label": "Mizan Dam",
        "type": "Weir",
        "entity": "http://www.wikidata.org/entity/Q5937956",
        "country_qid": "Q794"
      }
    },
    {
      "type": "Feature",
      "geometry": {
        "type": "Point",
        "coordinates": [
          48.856111111,
          32.000833333
        ]
      },
      "properties": {
        "label": "Khoda Afarin Dam (Shushtar)",
        "type": "Weir",
        "entity": "http://www.wikidata.org/entity/Q5709212",
        "country_qid": "Q794"
      }
    },
    {
      "type": "Feature",
      "geometry": {
        "type": "Point",
        "coordinates": [
          49.229638888,
          34.349305555
        ]
      },
      "properties": {
        "label": "Khondab Weir",
        "type": "Weir",
        "entity": "http://www.wikidata.org/entity/Q95919801",
        "country_qid": "Q794"
      }
    },
    {
      "type": "Feature",
      "geometry": {
        "type": "Point",
        "coordinates": [
          51.111388888,
          29.383277777
        ]
      },
      "properties": {
        "label": "Shabankareh Weir",
        "type": "Weir",
        "entity": "http://www.wikidata.org/entity/Q5948305",
        "country_qid": "Q794"
      }
    },
    {
      "type": "Feature",
      "geometry": {
        "type": "Point",
        "coordinates": [
          48.848687,
          32.053723
        ]
      },
      "properties": {
        "label": "Band-e Kaisar",
        "type": "Weir",
        "entity": "http://www.wikidata.org/entity/Q806225",
        "country_qid": "Q794"
      }
    },
    {
      "type": "Feature",
      "geometry": {
        "type": "Point",
        "coordinates": [
          47.659916666,
          34.449833333
        ]
      },
      "properties": {
        "label": "Derkeh Weir",
        "type": "Weir",
        "entity": "http://www.wikidata.org/entity/Q110883240",
        "country_qid": "Q794"
      }
    },
    {
      "type": "Feature",
      "geometry": {
        "type": "Point",
        "coordinates": [
          51.301944444,
          28.879444444
        ]
      },
      "properties": {
        "label": "Ahram Weir",
        "type": "Weir",
        "entity": "http://www.wikidata.org/entity/Q96761827",
        "country_qid": "Q794"
      }
    },
    {
      "type": "Feature",
      "geometry": {
        "type": "Point",
        "coordinates": [
          48.839861111,
          32.036388888
        ]
      },
      "properties": {
        "label": "Khak Dam",
        "type": "Weir",
        "entity": "http://www.wikidata.org/entity/Q5707186",
        "country_qid": "Q794"
      }
    },
    {
      "type": "Feature",
      "geometry": {
        "type": "Point",
        "coordinates": [
          54.499444444,
          27.074972222
        ]
      },
      "properties": {
        "label": "Terenah",
        "type": "Weir",
        "entity": "http://www.wikidata.org/entity/Q4165166",
        "country_qid": "Q794"
      }
    },
    {
      "type": "Feature",
      "geometry": {
        "type": "Point",
        "coordinates": [
          48.390583333,
          32.381805555
        ]
      },
      "properties": {
        "label": "Dezful Old Bridge",
        "type": "Weir",
        "entity": "http://www.wikidata.org/entity/Q5955627",
        "country_qid": "Q794"
      }
    },
    {
      "type": "Feature",
      "geometry": {
        "type": "Point",
        "coordinates": [
          60.175472222,
          26.622555555
        ]
      },
      "properties": {
        "label": "Keshigan Weir",
        "type": "Weir",
        "entity": "http://www.wikidata.org/entity/Q96747573",
        "country_qid": "Q794"
      }
    },
    {
      "type": "Feature",
      "geometry": {
        "type": "Point",
        "coordinates": [
          52.351666666,
          36.409888888
        ]
      },
      "properties": {
        "label": "Hezar Sangar Dam",
        "type": "Weir",
        "entity": "http://www.wikidata.org/entity/Q95984359",
        "country_qid": "Q794"
      }
    },
    {
      "type": "Feature",
      "geometry": {
        "type": "Point",
        "coordinates": [
          48.841388888,
          32.0325
        ]
      },
      "properties": {
        "label": "Lashkar Bridge",
        "type": "Weir",
        "entity": "http://www.wikidata.org/entity/Q5703382",
        "country_qid": "Q794"
      }
    }
  ]
}