{
  "type": "FeatureCollection",
  "features": [
    {
      "type": "Feature",
      "geometry": {
        "type": "Point",
        "coordinates": [
          11.023611111,
          4.170972222
        ]
      },
      "properties": {
        "label": "Kikot Hydroelectric Power Station",
        "type": "power plant",
        "entity": "http://www.wikidata.org/entity/Q123058670",
        "country_qid": "Q1009",
        "Wikidata Qid": "Q123058670"
      }
    },
    {
      "type": "Feature",
      "geometry": {
        "type": "Point",
        "coordinates": [
          10.63,
          4.072777777
        ]
      },
      "properties": {
        "label": "Grand Eweng Hydroelectric Power Station",
        "type": "power plant",
        "entity": "http://www.wikidata.org/entity/Q96379842",
        "country_qid": "Q1009",
        "Wikidata Qid": "Q96379842"
      }
    },
    {
      "type": "Feature",
      "geometry": {
        "type": "Point",
        "coordinates": [
          9.97675001,
          3.025460557
        ]
      },
      "properties": {
        "label": "Kribi Power Station",
        "type": "power plant",
        "entity": "http://www.wikidata.org/entity/Q6436963",
        "country_qid": "Q1009",
        "Wikidata Qid": "Q6436963"
      }
    },
    {
      "type": "Feature",
      "geometry": {
        "type": "Point",
        "coordinates": [
          11.7161,
          4.38013
        ]
      },
      "properties": {
        "label": "Nachtigal Hydroelectric Power Station",
        "type": "power plant",
        "entity": "http://www.wikidata.org/entity/Q100344657",
        "country_qid": "Q1009",
        "Wikidata Qid": "Q100344657"
      }
    },
    {
      "type": "Feature",
      "geometry": {
        "type": "Point",
        "coordinates": [
          10.3786513,
          2.3971705
        ]
      },
      "properties": {
        "label": "Memve'ele hydroelectric dam",
        "type": "power plant",
        "entity": "http://www.wikidata.org/entity/Q28041340",
        "country_qid": "Q1009",
        "Wikidata Qid": "Q28041340"
      }
    },
    {
      "type": "Feature",
      "geometry": {
        "type": "Point",
        "coordinates": [
          10.1280135,
          3.812917
        ]
      },
      "properties": {
        "label": "Edea Hydroelectric Power Station",
        "type": "power plant",
        "entity": "http://www.wikidata.org/entity/Q5336726",
        "country_qid": "Q1009",
        "Wikidata Qid": "Q5336726"
      }
    },
    {
      "type": "Feature",
      "geometry": {
        "type": "Point",
        "coordinates": [
          12.421959037,
          3.259029513
        ]
      },
      "properties": {
        "label": "Q60846071",
        "type": "power plant",
        "entity": "http://www.wikidata.org/entity/Q60846071",
        "country_qid": "Q1009",
        "Wikidata Qid": "Q60846071"
      }
    },
    {
      "type": "Feature",
      "geometry": {
        "type": "Point",
        "coordinates": [
          13.5124,
          5.37135
        ]
      },
      "properties": {
        "label": "Lom Pangar Dam",
        "type": "power plant",
        "entity": "http://www.wikidata.org/entity/Q16894277",
        "country_qid": "Q1009",
        "Wikidata Qid": "Q16894277"
      }
    },
    {
      "type": "Feature",
      "geometry": {
        "type": "Point",
        "coordinates": [
          15.001944444,
          2.013333333
        ]
      },
      "properties": {
        "label": "Chollet Hydroelectric Power Station",
        "type": "power plant",
        "entity": "http://www.wikidata.org/entity/Q106982507",
        "country_qid": "Q1009",
        "Wikidata Qid": "Q106982507"
      }
    },
    {
      "type": "Feature",
      "geometry": {
        "type": "Point",
        "coordinates": [
          12.42069,
          3.27125
        ]
      },
      "properties": {
        "label": "Mekin Hydropower Station",
        "type": "power plant",
        "entity": "http://www.wikidata.org/entity/Q23681056",
        "country_qid": "Q1009",
        "Wikidata Qid": "Q23681056"
      }
    },
    {
      "type": "Feature",
      "geometry": {
        "type": "Point",
        "coordinates": [
          13.6894039,
          9.0604553
        ]
      },
      "properties": {
        "label": "Q11982932",
        "type": "power plant",
        "entity": "http://www.wikidata.org/entity/Q11982932",
        "country_qid": "Q1009",
        "Wikidata Qid": "Q11982932"
      }
    },
    {
      "type": "Feature",
      "geometry": {
        "type": "Point",
        "coordinates": [
          10.465083333,
          4.078111111
        ]
      },
      "properties": {
        "label": "Song Loulou Hydroelectric Power Station",
        "type": "power plant",
        "entity": "http://www.wikidata.org/entity/Q7561017",
        "country_qid": "Q1009",
        "Wikidata Qid": "Q7561017"
      }
    },
    {
      "type": "Feature",
      "geometry": {
        "type": "Point",
        "coordinates": [
          10.398888888,
          2.396388888
        ]
      },
      "properties": {
        "label": "Memve'ele Hydroelectric Power Station",
        "type": "power plant",
        "entity": "http://www.wikidata.org/entity/Q111165550",
        "country_qid": "Q1009",
        "Wikidata Qid": "Q111165550"
      }
    },
    {
      "type": "Feature",
      "geometry": {
        "type": "Point",
        "coordinates": [
          12.421388888,
          3.259444444
        ]
      },
      "properties": {
        "label": "Mekin Hydroelectric Power Station",
        "type": "power plant",
        "entity": "http://www.wikidata.org/entity/Q113127607",
        "country_qid": "Q1009",
        "Wikidata Qid": "Q113127607"
      }
    },
    {
      "type": "Feature",
      "geometry": {
        "type": "Point",
        "coordinates": [
          9.819722222,
          3.996111111
        ]
      },
      "properties": {
        "label": "Q28040005",
        "type": "power plant",
        "entity": "http://www.wikidata.org/entity/Q28040005",
        "country_qid": "Q1009",
        "Wikidata Qid": "Q28040005"
      }
    },
    {
      "type": "Feature",
      "geometry": {
        "type": "Point",
        "coordinates": [
          13.833333333,
          8.883333333
        ]
      },
      "properties": {
        "label": "Lagdo Reservoir",
        "type": "Reservoir",
        "entity": "http://www.wikidata.org/entity/Q1375368",
        "country_qid": "Q1009",
        "Wikidata Qid": "Q1375368"
      }
    },
    {
      "type": "Feature",
      "geometry": {
        "type": "Point",
        "coordinates": [
          12.8117,
          6.3722
        ]
      },
      "properties": {
        "label": "Mbakaou Reservoir",
        "type": "Reservoir",
        "entity": "http://www.wikidata.org/entity/Q19972176",
        "country_qid": "Q1009",
        "Wikidata Qid": "Q19972176"
      }
    },
    {
      "type": "Feature",
      "geometry": {
        "type": "Point",
        "coordinates": [
          13.792386,
          10.78549
        ]
      },
      "properties": {
        "label": "Douvar Reservoir",
        "type": "Reservoir",
        "entity": "http://www.wikidata.org/entity/Q118383470",
        "country_qid": "Q1009",
        "Wikidata Qid": "Q118383470"
      }
    },
    {
      "type": "Feature",
      "geometry": {
        "type": "Point",
        "coordinates": [
          10.5,
          5.833333333
        ]
      },
      "properties": {
        "label": "Lac de Bamendjing",
        "type": "Reservoir",
        "entity": "http://www.wikidata.org/entity/Q23677421",
        "country_qid": "Q1009",
        "Wikidata Qid": "Q23677421"
      }
    },
    {
      "type": "Feature",
      "geometry": {
        "type": "Point",
        "coordinates": [
          10.500833,
          5.698611
        ]
      },
      "properties": {
        "label": "Bamendjing Reservoir",
        "type": "Reservoir",
        "entity": "http://www.wikidata.org/entity/Q27349576",
        "country_qid": "Q1009",
        "Wikidata Qid": "Q27349576"
      }
    }
  ]
}