{
  "type": "FeatureCollection",
  "features": [
    {
      "type": "Feature",
      "geometry": {
        "type": "Point",
        "coordinates": [
          34.788056,
          31.134444
        ]
      },
      "properties": {
        "label": "Q97179477",
        "type": "power plant",
        "entity": "http://www.wikidata.org/entity/Q97179477",
        "country_qid": "Q801",
        "Wikidata Qid": "Q97179477"
      }
    },
    {
      "type": "Feature",
      "geometry": {
        "type": "Point",
        "coordinates": [
          34.66994,
          30.95972
        ]
      },
      "properties": {
        "label": "Q122828859",
        "type": "power plant",
        "entity": "http://www.wikidata.org/entity/Q122828859",
        "country_qid": "Q801",
        "Wikidata Qid": "Q122828859"
      }
    },
    {
      "type": "Feature",
      "geometry": {
        "type": "Point",
        "coordinates": [
          34.731111,
          31.9425
        ]
      },
      "properties": {
        "label": "Q97179562",
        "type": "power plant",
        "entity": "http://www.wikidata.org/entity/Q97179562",
        "country_qid": "Q801",
        "Wikidata Qid": "Q97179562"
      }
    },
    {
      "type": "Feature",
      "geometry": {
        "type": "Point",
        "coordinates": [
          35.22423,
          31.76465
        ]
      },
      "properties": {
        "label": "Q16131100",
        "type": "power plant",
        "entity": "http://www.wikidata.org/entity/Q16131100",
        "country_qid": "Q801",
        "Wikidata Qid": "Q16131100"
      }
    },
    {
      "type": "Feature",
      "geometry": {
        "type": "Point",
        "coordinates": [
          35.366389,
          31.033056
        ]
      },
      "properties": {
        "label": "Q97179534",
        "type": "power plant",
        "entity": "http://www.wikidata.org/entity/Q97179534",
        "country_qid": "Q801",
        "Wikidata Qid": "Q97179534"
      }
    },
    {
      "type": "Feature",
      "geometry": {
        "type": "Point",
        "coordinates": [
          34.53,
          31.635
        ]
      },
      "properties": {
        "label": "Dorad power station",
        "type": "power plant",
        "entity": "http://www.wikidata.org/entity/Q5297464",
        "country_qid": "Q801",
        "Wikidata Qid": "Q5297464"
      }
    },
    {
      "type": "Feature",
      "geometry": {
        "type": "Point",
        "coordinates": [
          35.83333333,
          33.08333333
        ]
      },
      "properties": {
        "label": "Golan Heights Wind Farm",
        "type": "power plant",
        "entity": "http://www.wikidata.org/entity/Q1145092",
        "country_qid": "Q801",
        "Wikidata Qid": "Q1145092"
      }
    },
    {
      "type": "Feature",
      "geometry": {
        "type": "Point",
        "coordinates": [
          34.891667,
          31.914444
        ]
      },
      "properties": {
        "label": "Q97179437",
        "type": "power plant",
        "entity": "http://www.wikidata.org/entity/Q97179437",
        "country_qid": "Q801",
        "Wikidata Qid": "Q97179437"
      }
    },
    {
      "type": "Feature",
      "geometry": {
        "type": "Point",
        "coordinates": [
          35.56855556,
          32.63336111
        ]
      },
      "properties": {
        "label": "Q97178216",
        "type": "power plant",
        "entity": "http://www.wikidata.org/entity/Q97178216",
        "country_qid": "Q801",
        "Wikidata Qid": "Q97178216"
      }
    },
    {
      "type": "Feature",
      "geometry": {
        "type": "Point",
        "coordinates": [
          34.66195,
          31.84748611
        ]
      },
      "properties": {
        "label": "Eshkol",
        "type": "power plant",
        "entity": "http://www.wikidata.org/entity/Q12057270",
        "country_qid": "Q801",
        "Wikidata Qid": "Q12057270"
      }
    },
    {
      "type": "Feature",
      "geometry": {
        "type": "Point",
        "coordinates": [
          35.846944444,
          32.953888888
        ]
      },
      "properties": {
        "label": "Q118342723",
        "type": "power plant",
        "entity": "http://www.wikidata.org/entity/Q118342723",
        "country_qid": "Q801",
        "Wikidata Qid": "Q118342723"
      }
    },
    {
      "type": "Feature",
      "geometry": {
        "type": "Point",
        "coordinates": [
          34.73004,
          30.96269
        ]
      },
      "properties": {
        "label": "Ashalim power station",
        "type": "power plant",
        "entity": "http://www.wikidata.org/entity/Q2897210",
        "country_qid": "Q801",
        "Wikidata Qid": "Q2897210"
      }
    },
    {
      "type": "Feature",
      "geometry": {
        "type": "Point",
        "coordinates": [
          35.537222222,
          32.791944444
        ]
      },
      "properties": {
        "label": "Q97212951",
        "type": "power plant",
        "entity": "http://www.wikidata.org/entity/Q97212951",
        "country_qid": "Q801",
        "Wikidata Qid": "Q97212951"
      }
    },
    {
      "type": "Feature",
      "geometry": {
        "type": "Point",
        "coordinates": [
          35.450762471,
          32.46998976
        ]
      },
      "properties": {
        "label": "Q20502942",
        "type": "power plant",
        "entity": "http://www.wikidata.org/entity/Q20502942",
        "country_qid": "Q801",
        "Wikidata Qid": "Q20502942"
      }
    },
    {
      "type": "Feature",
      "geometry": {
        "type": "Point",
        "coordinates": [
          34.84142335,
          31.712932703
        ]
      },
      "properties": {
        "label": "Q131470066",
        "type": "power plant",
        "entity": "http://www.wikidata.org/entity/Q131470066",
        "country_qid": "Q801",
        "Wikidata Qid": "Q131470066"
      }
    },
    {
      "type": "Feature",
      "geometry": {
        "type": "Point",
        "coordinates": [
          34.77725,
          32.061555555
        ]
      },
      "properties": {
        "label": "Tel Aviv first power station",
        "type": "power plant",
        "entity": "http://www.wikidata.org/entity/Q55650091",
        "country_qid": "Q801",
        "Wikidata Qid": "Q55650091"
      }
    },
    {
      "type": "Feature",
      "geometry": {
        "type": "Point",
        "coordinates": [
          35.796944444,
          33.163333333
        ]
      },
      "properties": {
        "label": "Vale of tears wind farm",
        "type": "power plant",
        "entity": "http://www.wikidata.org/entity/Q97204759",
        "country_qid": "Q801",
        "Wikidata Qid": "Q97204759"
      }
    },
    {
      "type": "Feature",
      "geometry": {
        "type": "Point",
        "coordinates": [
          34.886111,
          32.466667
        ]
      },
      "properties": {
        "label": "Orot Rabin",
        "type": "power plant",
        "entity": "http://www.wikidata.org/entity/Q1931760",
        "country_qid": "Q801",
        "Wikidata Qid": "Q1931760"
      }
    },
    {
      "type": "Feature",
      "geometry": {
        "type": "Point",
        "coordinates": [
          34.683611,
          31.847222
        ]
      },
      "properties": {
        "label": "Q97179332",
        "type": "power plant",
        "entity": "http://www.wikidata.org/entity/Q97179332",
        "country_qid": "Q801",
        "Wikidata Qid": "Q97179332"
      }
    },
    {
      "type": "Feature",
      "geometry": {
        "type": "Point",
        "coordinates": [
          35.367543686,
          32.633511261
        ]
      },
      "properties": {
        "label": "Alon Tavor power plant",
        "type": "power plant",
        "entity": "http://www.wikidata.org/entity/Q61127044",
        "country_qid": "Q801",
        "Wikidata Qid": "Q61127044"
      }
    },
    {
      "type": "Feature",
      "geometry": {
        "type": "Point",
        "coordinates": [
          35.040419444,
          32.617338888
        ]
      },
      "properties": {
        "label": "David Levi Power Plant",
        "type": "power plant",
        "entity": "http://www.wikidata.org/entity/Q51765875",
        "country_qid": "Q801",
        "Wikidata Qid": "Q51765875"
      }
    },
    {
      "type": "Feature",
      "geometry": {
        "type": "Point",
        "coordinates": [
          34.915833,
          31.914167
        ]
      },
      "properties": {
        "label": "Gezer Power Station",
        "type": "power plant",
        "entity": "http://www.wikidata.org/entity/Q11971930",
        "country_qid": "Q801",
        "Wikidata Qid": "Q11971930"
      }
    },
    {
      "type": "Feature",
      "geometry": {
        "type": "Point",
        "coordinates": [
          34.814188888,
          31.154397222
        ]
      },
      "properties": {
        "label": "Ramat Hohav Power Plant",
        "type": "power plant",
        "entity": "http://www.wikidata.org/entity/Q19386164",
        "country_qid": "Q801",
        "Wikidata Qid": "Q19386164"
      }
    },
    {
      "type": "Feature",
      "geometry": {
        "type": "Point",
        "coordinates": [
          34.51611111,
          31.6275
        ]
      },
      "properties": {
        "label": "Rutenberg",
        "type": "power plant",
        "entity": "http://www.wikidata.org/entity/Q2904076",
        "country_qid": "Q801",
        "Wikidata Qid": "Q2904076"
      }
    },
    {
      "type": "Feature",
      "geometry": {
        "type": "Point",
        "coordinates": [
          34.84277778,
          31.71416667
        ]
      },
      "properties": {
        "label": "Dalia power station",
        "type": "power plant",
        "entity": "http://www.wikidata.org/entity/Q17008433",
        "country_qid": "Q801",
        "Wikidata Qid": "Q17008433"
      }
    },
    {
      "type": "Feature",
      "geometry": {
        "type": "Point",
        "coordinates": [
          35.021777777,
          32.81175
        ]
      },
      "properties": {
        "label": "Haifa Power Plant",
        "type": "power plant",
        "entity": "http://www.wikidata.org/entity/Q16131092",
        "country_qid": "Q801",
        "Wikidata Qid": "Q16131092"
      }
    },
    {
      "type": "Feature",
      "geometry": {
        "type": "Point",
        "coordinates": [
          34.840833,
          31.711111
        ]
      },
      "properties": {
        "label": "Q97179640",
        "type": "power plant",
        "entity": "http://www.wikidata.org/entity/Q97179640",
        "country_qid": "Q801",
        "Wikidata Qid": "Q97179640"
      }
    },
    {
      "type": "Feature",
      "geometry": {
        "type": "Point",
        "coordinates": [
          35.059385,
          29.964685
        ]
      },
      "properties": {
        "label": "Ketura Sun",
        "type": "power plant",
        "entity": "http://www.wikidata.org/entity/Q6395591",
        "country_qid": "Q801",
        "Wikidata Qid": "Q6395591"
      }
    },
    {
      "type": "Feature",
      "geometry": {
        "type": "Point",
        "coordinates": [
          34.74692,
          30.97807
        ]
      },
      "properties": {
        "label": "Q122828862",
        "type": "power plant",
        "entity": "http://www.wikidata.org/entity/Q122828862",
        "country_qid": "Q801",
        "Wikidata Qid": "Q122828862"
      }
    },
    {
      "type": "Feature",
      "geometry": {
        "type": "Point",
        "coordinates": [
          35.18444444,
          31.05527778
        ]
      },
      "properties": {
        "label": "Mishor Rotem Power Station",
        "type": "power plant",
        "entity": "http://www.wikidata.org/entity/Q6875619",
        "country_qid": "Q801",
        "Wikidata Qid": "Q6875619"
      }
    },
    {
      "type": "Feature",
      "geometry": {
        "type": "Point",
        "coordinates": [
          34.77888889,
          32.10277778
        ]
      },
      "properties": {
        "label": "Reading Power Station",
        "type": "power plant",
        "entity": "http://www.wikidata.org/entity/Q2904388",
        "country_qid": "Q801",
        "Wikidata Qid": "Q2904388"
      }
    },
    {
      "type": "Feature",
      "geometry": {
        "type": "Point",
        "coordinates": [
          35.517283,
          32.601733
        ]
      },
      "properties": {
        "label": "Kokhav Hayarden Pumped Storage Power Station",
        "type": "power plant",
        "entity": "http://www.wikidata.org/entity/Q116980507",
        "country_qid": "Q801",
        "Wikidata Qid": "Q116980507"
      }
    },
    {
      "type": "Feature",
      "geometry": {
        "type": "Point",
        "coordinates": [
          34.78,
          32.077761
        ]
      },
      "properties": {
        "label": "Historical Electric Transformers",
        "type": "Electrical substation",
        "entity": "http://www.wikidata.org/entity/Q30526895",
        "country_qid": "Q801",
        "Wikidata Qid": "Q30526895"
      }
    },
    {
      "type": "Feature",
      "geometry": {
        "type": "Point",
        "coordinates": [
          35.1375,
          31.194444444
        ]
      },
      "properties": {
        "label": "Ma'agurat Rova‘",
        "type": "Reservoir",
        "entity": "http://www.wikidata.org/entity/Q34904721",
        "country_qid": "Q801",
        "Wikidata Qid": "Q34904721"
      }
    },
    {
      "type": "Feature",
      "geometry": {
        "type": "Point",
        "coordinates": [
          34.56667,
          31.43333
        ]
      },
      "properties": {
        "label": "Berekhat Tequma",
        "type": "Reservoir",
        "entity": "http://www.wikidata.org/entity/Q34877581",
        "country_qid": "Q801",
        "Wikidata Qid": "Q34877581"
      }
    },
    {
      "type": "Feature",
      "geometry": {
        "type": "Point",
        "coordinates": [
          35.58333,
          32.63333
        ]
      },
      "properties": {
        "label": "Agan Naharayim",
        "type": "Reservoir",
        "entity": "http://www.wikidata.org/entity/Q34868546",
        "country_qid": "Q801",
        "Wikidata Qid": "Q34868546"
      }
    },
    {
      "type": "Feature",
      "geometry": {
        "type": "Point",
        "coordinates": [
          35.412222222,
          32.851111111
        ]
      },
      "properties": {
        "label": "Ma'agar Ẕalmon",
        "type": "Reservoir",
        "entity": "http://www.wikidata.org/entity/Q34904698",
        "country_qid": "Q801",
        "Wikidata Qid": "Q34904698"
      }
    },
    {
      "type": "Feature",
      "geometry": {
        "type": "Point",
        "coordinates": [
          35.1541067,
          31.7830686
        ]
      },
      "properties": {
        "label": "Ma'agar Bet Zayit",
        "type": "Reservoir",
        "entity": "http://www.wikidata.org/entity/Q12034819",
        "country_qid": "Q801",
        "Wikidata Qid": "Q12034819"
      }
    },
    {
      "type": "Feature",
      "geometry": {
        "type": "Point",
        "coordinates": [
          35.056388888,
          32.443611111
        ]
      },
      "properties": {
        "label": "Ma'agar Meẕer",
        "type": "Reservoir",
        "entity": "http://www.wikidata.org/entity/Q34904665",
        "country_qid": "Q801",
        "Wikidata Qid": "Q34904665"
      }
    },
    {
      "type": "Feature",
      "geometry": {
        "type": "Point",
        "coordinates": [
          35.30156111,
          32.70671111
        ]
      },
      "properties": {
        "label": "Mary's Well",
        "type": "Reservoir",
        "entity": "http://www.wikidata.org/entity/Q1606462",
        "country_qid": "Q801",
        "Wikidata Qid": "Q1606462"
      }
    },
    {
      "type": "Feature",
      "geometry": {
        "type": "Point",
        "coordinates": [
          35.235833333,
          31.781388888
        ]
      },
      "properties": {
        "label": "Pool of Bethesda",
        "type": "Reservoir",
        "entity": "http://www.wikidata.org/entity/Q831297",
        "country_qid": "Q801",
        "Wikidata Qid": "Q831297"
      }
    },
    {
      "type": "Feature",
      "geometry": {
        "type": "Point",
        "coordinates": [
          35.3,
          33.0
        ]
      },
      "properties": {
        "label": "Berekhat Suḥmātā",
        "type": "Reservoir",
        "entity": "http://www.wikidata.org/entity/Q34877568",
        "country_qid": "Q801",
        "Wikidata Qid": "Q34877568"
      }
    },
    {
      "type": "Feature",
      "geometry": {
        "type": "Point",
        "coordinates": [
          34.76644444,
          32.04722222
        ]
      },
      "properties": {
        "label": "Sabil Abu Nabbut",
        "type": "Reservoir",
        "entity": "http://www.wikidata.org/entity/Q7396095",
        "country_qid": "Q801",
        "Wikidata Qid": "Q7396095"
      }
    },
    {
      "type": "Feature",
      "geometry": {
        "type": "Point",
        "coordinates": [
          34.69523,
          31.60613
        ]
      },
      "properties": {
        "label": "Ma'agar Zohar",
        "type": "Reservoir",
        "entity": "http://www.wikidata.org/entity/Q34904688",
        "country_qid": "Q801",
        "Wikidata Qid": "Q34904688"
      }
    },
    {
      "type": "Feature",
      "geometry": {
        "type": "Point",
        "coordinates": [
          34.870954,
          31.931692
        ]
      },
      "properties": {
        "label": "Pool of the Arches",
        "type": "Reservoir",
        "entity": "http://www.wikidata.org/entity/Q6898636",
        "country_qid": "Q801",
        "Wikidata Qid": "Q6898636"
      }
    },
    {
      "type": "Feature",
      "geometry": {
        "type": "Point",
        "coordinates": [
          35.16981944,
          31.68899167
        ]
      },
      "properties": {
        "label": "Solomon's Pools",
        "type": "Reservoir",
        "entity": "http://www.wikidata.org/entity/Q2916617",
        "country_qid": "Q801",
        "Wikidata Qid": "Q2916617"
      }
    },
    {
      "type": "Feature",
      "geometry": {
        "type": "Point",
        "coordinates": [
          35.224648266,
          31.767570355
        ]
      },
      "properties": {
        "label": "Wauchope Water trough",
        "type": "Reservoir",
        "entity": "http://www.wikidata.org/entity/Q111315915",
        "country_qid": "Q801",
        "Wikidata Qid": "Q111315915"
      }
    },
    {
      "type": "Feature",
      "geometry": {
        "type": "Point",
        "coordinates": [
          35.4119444,
          32.8511111
        ]
      },
      "properties": {
        "label": "Q12034820",
        "type": "Reservoir",
        "entity": "http://www.wikidata.org/entity/Q12034820",
        "country_qid": "Q801",
        "Wikidata Qid": "Q12034820"
      }
    },
    {
      "type": "Feature",
      "geometry": {
        "type": "Point",
        "coordinates": [
          34.4758853,
          30.738403
        ]
      },
      "properties": {
        "label": "Sabha Cistern",
        "type": "Reservoir",
        "entity": "http://www.wikidata.org/entity/Q29510927",
        "country_qid": "Q801",
        "Wikidata Qid": "Q29510927"
      }
    },
    {
      "type": "Feature",
      "geometry": {
        "type": "Point",
        "coordinates": [
          35.24749,
          31.76007
        ]
      },
      "properties": {
        "label": "Pool of Siloam",
        "type": "Reservoir",
        "entity": "http://www.wikidata.org/entity/Q1483483",
        "country_qid": "Q801",
        "Wikidata Qid": "Q1483483"
      }
    },
    {
      "type": "Feature",
      "geometry": {
        "type": "Point",
        "coordinates": [
          35.49145,
          32.92081
        ]
      },
      "properties": {
        "label": "Ein Kachal",
        "type": "Reservoir",
        "entity": "http://www.wikidata.org/entity/Q97214208",
        "country_qid": "Q801",
        "Wikidata Qid": "Q97214208"
      }
    },
    {
      "type": "Feature",
      "geometry": {
        "type": "Point",
        "coordinates": [
          35.22910833,
          31.777175
        ]
      },
      "properties": {
        "label": "Hezekiah's Pool",
        "type": "Reservoir",
        "entity": "http://www.wikidata.org/entity/Q5749987",
        "country_qid": "Q801",
        "Wikidata Qid": "Q5749987"
      }
    },
    {
      "type": "Feature",
      "geometry": {
        "type": "Point",
        "coordinates": [
          34.5159856,
          31.6005132
        ]
      },
      "properties": {
        "label": "Q127701414",
        "type": "Reservoir",
        "entity": "http://www.wikidata.org/entity/Q127701414",
        "country_qid": "Q801",
        "Wikidata Qid": "Q127701414"
      }
    },
    {
      "type": "Feature",
      "geometry": {
        "type": "Point",
        "coordinates": [
          35.01734,
          31.2565
        ]
      },
      "properties": {
        "label": "Ma'agurat Mar‘it",
        "type": "Reservoir",
        "entity": "http://www.wikidata.org/entity/Q34904709",
        "country_qid": "Q801",
        "Wikidata Qid": "Q34904709"
      }
    },
    {
      "type": "Feature",
      "geometry": {
        "type": "Point",
        "coordinates": [
          34.954193222,
          32.572743251
        ]
      },
      "properties": {
        "label": "Binyamin's Pool",
        "type": "Reservoir",
        "entity": "http://www.wikidata.org/entity/Q6629060",
        "country_qid": "Q801",
        "Wikidata Qid": "Q6629060"
      }
    },
    {
      "type": "Feature",
      "geometry": {
        "type": "Point",
        "coordinates": [
          34.565036,
          31.518798
        ]
      },
      "properties": {
        "label": "Nir Am Reservoir",
        "type": "Reservoir",
        "entity": "http://www.wikidata.org/entity/Q63247910",
        "country_qid": "Q801",
        "Wikidata Qid": "Q63247910"
      }
    },
    {
      "type": "Feature",
      "geometry": {
        "type": "Point",
        "coordinates": [
          34.8975,
          30.988472222
        ]
      },
      "properties": {
        "label": "Yeruham lake",
        "type": "Reservoir",
        "entity": "http://www.wikidata.org/entity/Q31197449",
        "country_qid": "Q801",
        "Wikidata Qid": "Q31197449"
      }
    },
    {
      "type": "Feature",
      "geometry": {
        "type": "Point",
        "coordinates": [
          34.99526381,
          32.82296691
        ]
      },
      "properties": {
        "label": "Dagon House, Haifa",
        "type": "Reservoir",
        "entity": "http://www.wikidata.org/entity/Q12409236",
        "country_qid": "Q801",
        "Wikidata Qid": "Q12409236"
      }
    },
    {
      "type": "Feature",
      "geometry": {
        "type": "Point",
        "coordinates": [
          35.2058333,
          32.6388889
        ]
      },
      "properties": {
        "label": "Q12034823",
        "type": "Reservoir",
        "entity": "http://www.wikidata.org/entity/Q12034823",
        "country_qid": "Q801",
        "Wikidata Qid": "Q12034823"
      }
    },
    {
      "type": "Feature",
      "geometry": {
        "type": "Point",
        "coordinates": [
          34.5138889,
          31.6
        ]
      },
      "properties": {
        "label": "Shikma Reservoir",
        "type": "Reservoir",
        "entity": "http://www.wikidata.org/entity/Q34904677",
        "country_qid": "Q801",
        "Wikidata Qid": "Q34904677"
      }
    },
    {
      "type": "Feature",
      "geometry": {
        "type": "Point",
        "coordinates": [
          35.4586111,
          33.0172222
        ]
      },
      "properties": {
        "label": "Ma'agar Dalton",
        "type": "Reservoir",
        "entity": "http://www.wikidata.org/entity/Q12034821",
        "country_qid": "Q801",
        "Wikidata Qid": "Q12034821"
      }
    },
    {
      "type": "Feature",
      "geometry": {
        "type": "Point",
        "coordinates": [
          35.490833333,
          33.030555555
        ]
      },
      "properties": {
        "label": "Brekhat Qash",
        "type": "Reservoir",
        "entity": "http://www.wikidata.org/entity/Q34878696",
        "country_qid": "Q801",
        "Wikidata Qid": "Q34878696"
      }
    },
    {
      "type": "Feature",
      "geometry": {
        "type": "Point",
        "coordinates": [
          35.070677777,
          32.922186111
        ]
      },
      "properties": {
        "label": "Building 18013-30",
        "type": "Reservoir",
        "entity": "http://www.wikidata.org/entity/Q105925037",
        "country_qid": "Q801",
        "Wikidata Qid": "Q105925037"
      }
    },
    {
      "type": "Feature",
      "geometry": {
        "type": "Point",
        "coordinates": [
          35.22626,
          31.77214
        ]
      },
      "properties": {
        "label": "Sultan's Pool",
        "type": "Reservoir",
        "entity": "http://www.wikidata.org/entity/Q7636576",
        "country_qid": "Q801",
        "Wikidata Qid": "Q7636576"
      }
    },
    {
      "type": "Feature",
      "geometry": {
        "type": "Point",
        "coordinates": [
          35.01,
          32.3619444
        ]
      },
      "properties": {
        "label": "Q12034822",
        "type": "Reservoir",
        "entity": "http://www.wikidata.org/entity/Q12034822",
        "country_qid": "Q801",
        "Wikidata Qid": "Q12034822"
      }
    },
    {
      "type": "Feature",
      "geometry": {
        "type": "Point",
        "coordinates": [
          35.254166666,
          32.774444444
        ]
      },
      "properties": {
        "label": "Ma'agar Bet Netofa",
        "type": "Reservoir",
        "entity": "http://www.wikidata.org/entity/Q12034818",
        "country_qid": "Q801",
        "Wikidata Qid": "Q12034818"
      }
    },
    {
      "type": "Feature",
      "geometry": {
        "type": "Point",
        "coordinates": [
          34.755,
          32.05501111
        ]
      },
      "properties": {
        "label": "Sebil Abu Nabut B",
        "type": "Reservoir",
        "entity": "http://www.wikidata.org/entity/Q6732607",
        "country_qid": "Q801",
        "Wikidata Qid": "Q6732607"
      }
    },
    {
      "type": "Feature",
      "geometry": {
        "type": "Point",
        "coordinates": [
          35.466666666,
          33.033333333
        ]
      },
      "properties": {
        "label": "Berekhat Joiag",
        "type": "Reservoir",
        "entity": "http://www.wikidata.org/entity/Q34877544",
        "country_qid": "Q801",
        "Wikidata Qid": "Q34877544"
      }
    },
    {
      "type": "Feature",
      "geometry": {
        "type": "Point",
        "coordinates": [
          35.466666666,
          33.033333333
        ]
      },
      "properties": {
        "label": "Berekhat Shaẖar",
        "type": "Reservoir",
        "entity": "http://www.wikidata.org/entity/Q34877556",
        "country_qid": "Q801",
        "Wikidata Qid": "Q34877556"
      }
    },
    {
      "type": "Feature",
      "geometry": {
        "type": "Point",
        "coordinates": [
          34.60888889,
          30.51333333
        ]
      },
      "properties": {
        "label": "Lotz Cisterns",
        "type": "Reservoir",
        "entity": "http://www.wikidata.org/entity/Q12404416",
        "country_qid": "Q801",
        "Wikidata Qid": "Q12404416"
      }
    },
    {
      "type": "Feature",
      "geometry": {
        "type": "Point",
        "coordinates": [
          34.86563,
          31.92923
        ]
      },
      "properties": {
        "label": "Filastin",
        "type": "Industrial building",
        "entity": "http://www.wikidata.org/entity/Q127430242",
        "country_qid": "Q801",
        "Wikidata Qid": "Q127430242"
      }
    },
    {
      "type": "Feature",
      "geometry": {
        "type": "Point",
        "coordinates": [
          34.86563,
          31.92923
        ]
      },
      "properties": {
        "label": "al-Ramlah",
        "type": "Industrial building",
        "entity": "http://www.wikidata.org/entity/Q127431755",
        "country_qid": "Q801",
        "Wikidata Qid": "Q127431755"
      }
    },
    {
      "type": "Feature",
      "geometry": {
        "type": "Point",
        "coordinates": [
          35.05492598,
          32.806280886
        ]
      },
      "properties": {
        "label": "Vulcan Foundries Haifa",
        "type": "Industrial building",
        "entity": "http://www.wikidata.org/entity/Q12407105",
        "country_qid": "Q801",
        "Wikidata Qid": "Q12407105"
      }
    },
    {
      "type": "Feature",
      "geometry": {
        "type": "Point",
        "coordinates": [
          34.788034368,
          31.594666355
        ]
      },
      "properties": {
        "label": "Intel Wafer-Fab Israel",
        "type": "Industrial building",
        "entity": "http://www.wikidata.org/entity/Q113325038",
        "country_qid": "Q801",
        "Wikidata Qid": "Q113325038"
      }
    },
    {
      "type": "Feature",
      "geometry": {
        "type": "Point",
        "coordinates": [
          34.491666666,
          31.426638888
        ]
      },
      "properties": {
        "label": "Be'eri print",
        "type": "Industrial building",
        "entity": "http://www.wikidata.org/entity/Q12405875",
        "country_qid": "Q801",
        "Wikidata Qid": "Q12405875"
      }
    },
    {
      "type": "Feature",
      "geometry": {
        "type": "Point",
        "coordinates": [
          34.773664,
          30.794209
        ]
      },
      "properties": {
        "label": "Eboda",
        "type": "Industrial building",
        "entity": "http://www.wikidata.org/entity/Q127430159",
        "country_qid": "Q801",
        "Wikidata Qid": "Q127430159"
      }
    },
    {
      "type": "Feature",
      "geometry": {
        "type": "Point",
        "coordinates": [
          34.768288575,
          32.060455437
        ]
      },
      "properties": {
        "label": "Liber factory",
        "type": "Industrial building",
        "entity": "http://www.wikidata.org/entity/Q6638583",
        "country_qid": "Q801",
        "Wikidata Qid": "Q6638583"
      }
    },
    {
      "type": "Feature",
      "geometry": {
        "type": "Point",
        "coordinates": [
          35.067884,
          32.921646
        ]
      },
      "properties": {
        "label": "Building 18010-141",
        "type": "Industrial building",
        "entity": "http://www.wikidata.org/entity/Q86210506",
        "country_qid": "Q801",
        "Wikidata Qid": "Q86210506"
      }
    },
    {
      "type": "Feature",
      "geometry": {
        "type": "Point",
        "coordinates": [
          35.144592,
          32.61367
        ]
      },
      "properties": {
        "label": "Gaba",
        "type": "Industrial building",
        "entity": "http://www.wikidata.org/entity/Q127430261",
        "country_qid": "Q801",
        "Wikidata Qid": "Q127430261"
      }
    },
    {
      "type": "Feature",
      "geometry": {
        "type": "Point",
        "coordinates": [
          34.652079,
          31.765635
        ]
      },
      "properties": {
        "label": "Ashdod",
        "type": "Industrial building",
        "entity": "http://www.wikidata.org/entity/Q127429657",
        "country_qid": "Q801",
        "Wikidata Qid": "Q127429657"
      }
    },
    {
      "type": "Feature",
      "geometry": {
        "type": "Point",
        "coordinates": [
          34.9382,
          31.982569
        ]
      },
      "properties": {
        "label": "Beit Naballa Train Station",
        "type": "Industrial building",
        "entity": "http://www.wikidata.org/entity/Q25489702",
        "country_qid": "Q801",
        "Wikidata Qid": "Q25489702"
      }
    },
    {
      "type": "Feature",
      "geometry": {
        "type": "Point",
        "coordinates": [
          34.823697999,
          32.093137737
        ]
      },
      "properties": {
        "label": "Q97220595",
        "type": "Industrial building",
        "entity": "http://www.wikidata.org/entity/Q97220595",
        "country_qid": "Q801",
        "Wikidata Qid": "Q97220595"
      }
    },
    {
      "type": "Feature",
      "geometry": {
        "type": "Point",
        "coordinates": [
          35.21633,
          31.76904
        ]
      },
      "properties": {
        "label": "Iliya_Palestine",
        "type": "Industrial building",
        "entity": "http://www.wikidata.org/entity/Q127430441",
        "country_qid": "Q801",
        "Wikidata Qid": "Q127430441"
      }
    },
    {
      "type": "Feature",
      "geometry": {
        "type": "Point",
        "coordinates": [
          35.224888888,
          31.7845
        ]
      },
      "properties": {
        "label": "Jerusalem Primt Workshop",
        "type": "Industrial building",
        "entity": "http://www.wikidata.org/entity/Q20502367",
        "country_qid": "Q801",
        "Wikidata Qid": "Q20502367"
      }
    },
    {
      "type": "Feature",
      "geometry": {
        "type": "Point",
        "coordinates": [
          34.8944431,
          31.9161368
        ]
      },
      "properties": {
        "label": "Nesher factory, Ramla",
        "type": "Industrial building",
        "entity": "http://www.wikidata.org/entity/Q6683033",
        "country_qid": "Q801",
        "Wikidata Qid": "Q6683033"
      }
    },
    {
      "type": "Feature",
      "geometry": {
        "type": "Point",
        "coordinates": [
          35.07647,
          32.92814
        ]
      },
      "properties": {
        "label": "Acre",
        "type": "Industrial building",
        "entity": "http://www.wikidata.org/entity/Q127429446",
        "country_qid": "Q801",
        "Wikidata Qid": "Q127429446"
      }
    },
    {
      "type": "Feature",
      "geometry": {
        "type": "Point",
        "coordinates": [
          34.90027778,
          31.95444444
        ]
      },
      "properties": {
        "label": "Q25493298",
        "type": "Industrial building",
        "entity": "http://www.wikidata.org/entity/Q25493298",
        "country_qid": "Q801",
        "Wikidata Qid": "Q25493298"
      }
    },
    {
      "type": "Feature",
      "geometry": {
        "type": "Point",
        "coordinates": [
          35.53124,
          32.79221
        ]
      },
      "properties": {
        "label": "Tabariyah",
        "type": "Industrial building",
        "entity": "http://www.wikidata.org/entity/Q127431349",
        "country_qid": "Q801",
        "Wikidata Qid": "Q127431349"
      }
    },
    {
      "type": "Feature",
      "geometry": {
        "type": "Point",
        "coordinates": [
          35.659411,
          32.778841
        ]
      },
      "properties": {
        "label": "Antiocheia ad Hippum",
        "type": "Industrial building",
        "entity": "http://www.wikidata.org/entity/Q127429574",
        "country_qid": "Q801",
        "Wikidata Qid": "Q127429574"
      }
    },
    {
      "type": "Feature",
      "geometry": {
        "type": "Point",
        "coordinates": [
          35.659411,
          32.778841
        ]
      },
      "properties": {
        "label": "Hippos (Sussita)",
        "type": "Industrial building",
        "entity": "http://www.wikidata.org/entity/Q127430393",
        "country_qid": "Q801",
        "Wikidata Qid": "Q127430393"
      }
    },
    {
      "type": "Feature",
      "geometry": {
        "type": "Point",
        "coordinates": [
          35.169687,
          31.794573
        ]
      },
      "properties": {
        "label": "The Red House in Motza",
        "type": "Industrial building",
        "entity": "http://www.wikidata.org/entity/Q64442397",
        "country_qid": "Q801",
        "Wikidata Qid": "Q64442397"
      }
    },
    {
      "type": "Feature",
      "geometry": {
        "type": "Point",
        "coordinates": [
          34.927477,
          32.615982
        ]
      },
      "properties": {
        "label": "Dora",
        "type": "Industrial building",
        "entity": "http://www.wikidata.org/entity/Q127430144",
        "country_qid": "Q801",
        "Wikidata Qid": "Q127430144"
      }
    },
    {
      "type": "Feature",
      "geometry": {
        "type": "Point",
        "coordinates": [
          35.281457,
          32.753595
        ]
      },
      "properties": {
        "label": "Diocaesareia",
        "type": "Industrial building",
        "entity": "http://www.wikidata.org/entity/Q127430128",
        "country_qid": "Q801",
        "Wikidata Qid": "Q127430128"
      }
    },
    {
      "type": "Feature",
      "geometry": {
        "type": "Point",
        "coordinates": [
          34.887973,
          31.62077
        ]
      },
      "properties": {
        "label": "Eleutheropolis",
        "type": "Industrial building",
        "entity": "http://www.wikidata.org/entity/Q127430186",
        "country_qid": "Q801",
        "Wikidata Qid": "Q127430186"
      }
    },
    {
      "type": "Feature",
      "geometry": {
        "type": "Point",
        "coordinates": [
          35.441127777,
          31.171108333
        ]
      },
      "properties": {
        "label": "Dead Sea Works",
        "type": "Industrial building",
        "entity": "http://www.wikidata.org/entity/Q2904092",
        "country_qid": "Q801",
        "Wikidata Qid": "Q2904092"
      }
    },
    {
      "type": "Feature",
      "geometry": {
        "type": "Point",
        "coordinates": [
          34.9972755,
          31.7335442
        ]
      },
      "properties": {
        "label": "Q99524961",
        "type": "Industrial building",
        "entity": "http://www.wikidata.org/entity/Q99524961",
        "country_qid": "Q801",
        "Wikidata Qid": "Q99524961"
      }
    },
    {
      "type": "Feature",
      "geometry": {
        "type": "Point",
        "coordinates": [
          35.188737,
          31.748191
        ]
      },
      "properties": {
        "label": "Malha light rail depot",
        "type": "Industrial building",
        "entity": "http://www.wikidata.org/entity/Q131416169",
        "country_qid": "Q801",
        "Wikidata Qid": "Q131416169"
      }
    },
    {
      "type": "Feature",
      "geometry": {
        "type": "Point",
        "coordinates": [
          35.067861111,
          32.921194444
        ]
      },
      "properties": {
        "label": "Building 18011-11",
        "type": "Industrial building",
        "entity": "http://www.wikidata.org/entity/Q96755291",
        "country_qid": "Q801",
        "Wikidata Qid": "Q96755291"
      }
    },
    {
      "type": "Feature",
      "geometry": {
        "type": "Point",
        "coordinates": [
          34.763275,
          32.050014
        ]
      },
      "properties": {
        "label": "The Milk & Honey Distillery",
        "type": "Industrial building",
        "entity": "http://www.wikidata.org/entity/Q31197614",
        "country_qid": "Q801",
        "Wikidata Qid": "Q31197614"
      }
    },
    {
      "type": "Feature",
      "geometry": {
        "type": "Point",
        "coordinates": [
          34.891688,
          31.965599
        ]
      },
      "properties": {
        "label": "Diospolis-Lydda",
        "type": "Industrial building",
        "entity": "http://www.wikidata.org/entity/Q127430136",
        "country_qid": "Q801",
        "Wikidata Qid": "Q127430136"
      }
    },
    {
      "type": "Feature",
      "geometry": {
        "type": "Point",
        "coordinates": [
          34.96375,
          31.918833333
        ]
      },
      "properties": {
        "label": "Q124806915",
        "type": "Industrial building",
        "entity": "http://www.wikidata.org/entity/Q124806915",
        "country_qid": "Q801",
        "Wikidata Qid": "Q124806915"
      }
    },
    {
      "type": "Feature",
      "geometry": {
        "type": "Point",
        "coordinates": [
          34.900416,
          32.501833
        ]
      },
      "properties": {
        "label": "Caesareia Maritima",
        "type": "Industrial building",
        "entity": "http://www.wikidata.org/entity/Q127429825",
        "country_qid": "Q801",
        "Wikidata Qid": "Q127429825"
      }
    },
    {
      "type": "Feature",
      "geometry": {
        "type": "Point",
        "coordinates": [
          34.393622222,
          31.333913888
        ]
      },
      "properties": {
        "label": "Wolfgang Meyer Etching Workshop",
        "type": "Industrial building",
        "entity": "http://www.wikidata.org/entity/Q55649582",
        "country_qid": "Q801",
        "Wikidata Qid": "Q55649582"
      }
    },
    {
      "type": "Feature",
      "geometry": {
        "type": "Point",
        "coordinates": [
          34.804888888,
          32.080666666
        ]
      },
      "properties": {
        "label": "Palalum factory",
        "type": "Industrial building",
        "entity": "http://www.wikidata.org/entity/Q60447981",
        "country_qid": "Q801",
        "Wikidata Qid": "Q60447981"
      }
    },
    {
      "type": "Feature",
      "geometry": {
        "type": "Point",
        "coordinates": [
          34.54556,
          31.669994
        ]
      },
      "properties": {
        "label": "Ascalon",
        "type": "Industrial building",
        "entity": "http://www.wikidata.org/entity/Q127429653",
        "country_qid": "Q801",
        "Wikidata Qid": "Q127429653"
      }
    },
    {
      "type": "Feature",
      "geometry": {
        "type": "Point",
        "coordinates": [
          35.693736,
          33.247099
        ]
      },
      "properties": {
        "label": "Caesareia Panias",
        "type": "Industrial building",
        "entity": "http://www.wikidata.org/entity/Q127429826",
        "country_qid": "Q801",
        "Wikidata Qid": "Q127429826"
      }
    },
    {
      "type": "Feature",
      "geometry": {
        "type": "Point",
        "coordinates": [
          34.8625,
          32.106944444
        ]
      },
      "properties": {
        "label": "Kiriyat Arieh Depot",
        "type": "Industrial building",
        "entity": "http://www.wikidata.org/entity/Q97207638",
        "country_qid": "Q801",
        "Wikidata Qid": "Q97207638"
      }
    },
    {
      "type": "Feature",
      "geometry": {
        "type": "Point",
        "coordinates": [
          34.771916666,
          32.076916666
        ]
      },
      "properties": {
        "label": "Q25493034",
        "type": "Industrial building",
        "entity": "http://www.wikidata.org/entity/Q25493034",
        "country_qid": "Q801",
        "Wikidata Qid": "Q25493034"
      }
    },
    {
      "type": "Feature",
      "geometry": {
        "type": "Point",
        "coordinates": [
          34.996922,
          31.733462
        ]
      },
      "properties": {
        "label": "Q98124750",
        "type": "Industrial building",
        "entity": "http://www.wikidata.org/entity/Q98124750",
        "country_qid": "Q801",
        "Wikidata Qid": "Q98124750"
      }
    },
    {
      "type": "Feature",
      "geometry": {
        "type": "Point",
        "coordinates": [
          35.157390746,
          32.764996487
        ]
      },
      "properties": {
        "label": "Q117294007",
        "type": "Industrial building",
        "entity": "http://www.wikidata.org/entity/Q117294007",
        "country_qid": "Q801",
        "Wikidata Qid": "Q117294007"
      }
    },
    {
      "type": "Feature",
      "geometry": {
        "type": "Point",
        "coordinates": [
          35.0518585,
          32.8093465
        ]
      },
      "properties": {
        "label": "Efraim workshops",
        "type": "Industrial building",
        "entity": "http://www.wikidata.org/entity/Q93113576",
        "country_qid": "Q801",
        "Wikidata Qid": "Q93113576"
      }
    },
    {
      "type": "Feature",
      "geometry": {
        "type": "Point",
        "coordinates": [
          34.79452778,
          32.07513889
        ]
      },
      "properties": {
        "label": "Hostel Ayalon",
        "type": "Industrial building",
        "entity": "http://www.wikidata.org/entity/Q6739379",
        "country_qid": "Q801",
        "Wikidata Qid": "Q6739379"
      }
    },
    {
      "type": "Feature",
      "geometry": {
        "type": "Point",
        "coordinates": [
          34.780166666,
          32.085083333
        ]
      },
      "properties": {
        "label": "Tel Aviv Artists' Association Print Workshop, Tel Aviv-Yafo",
        "type": "Industrial building",
        "entity": "http://www.wikidata.org/entity/Q30116952",
        "country_qid": "Q801",
        "Wikidata Qid": "Q30116952"
      }
    },
    {
      "type": "Feature",
      "geometry": {
        "type": "Point",
        "coordinates": [
          35.05815,
          32.76386944
        ]
      },
      "properties": {
        "label": "Nesher Israel Cement Enterprises",
        "type": "Industrial building",
        "entity": "http://www.wikidata.org/entity/Q18191988",
        "country_qid": "Q801",
        "Wikidata Qid": "Q18191988"
      }
    },
    {
      "type": "Feature",
      "geometry": {
        "type": "Point",
        "coordinates": [
          35.226,
          31.7689
        ]
      },
      "properties": {
        "label": "Bet ot ha-motsar ha-Yerushalmi",
        "type": "Industrial building",
        "entity": "http://www.wikidata.org/entity/Q16129555",
        "country_qid": "Q801",
        "Wikidata Qid": "Q16129555"
      }
    },
    {
      "type": "Feature",
      "geometry": {
        "type": "Point",
        "coordinates": [
          35.007111111,
          32.808916666
        ]
      },
      "properties": {
        "label": "The Grand Mills of Israel",
        "type": "Industrial building",
        "entity": "http://www.wikidata.org/entity/Q31198025",
        "country_qid": "Q801",
        "Wikidata Qid": "Q31198025"
      }
    },
    {
      "type": "Feature",
      "geometry": {
        "type": "Point",
        "coordinates": [
          35.504002,
          32.504649
        ]
      },
      "properties": {
        "label": "Nysa-Scythopolis",
        "type": "Industrial building",
        "entity": "http://www.wikidata.org/entity/Q127430866",
        "country_qid": "Q801",
        "Wikidata Qid": "Q127430866"
      }
    },
    {
      "type": "Feature",
      "geometry": {
        "type": "Point",
        "coordinates": [
          35.504002,
          32.504649
        ]
      },
      "properties": {
        "label": "Scythopolis",
        "type": "Industrial building",
        "entity": "http://www.wikidata.org/entity/Q127431217",
        "country_qid": "Q801",
        "Wikidata Qid": "Q127431217"
      }
    },
    {
      "type": "Feature",
      "geometry": {
        "type": "Point",
        "coordinates": [
          35.077005,
          32.921776
        ]
      },
      "properties": {
        "label": "Ptolemais-Ake",
        "type": "Industrial building",
        "entity": "http://www.wikidata.org/entity/Q127431086",
        "country_qid": "Q801",
        "Wikidata Qid": "Q127431086"
      }
    },
    {
      "type": "Feature",
      "geometry": {
        "type": "Point",
        "coordinates": [
          35.283791,
          32.75411
        ]
      },
      "properties": {
        "label": "Sepphoris",
        "type": "Industrial building",
        "entity": "http://www.wikidata.org/entity/Q127431246",
        "country_qid": "Q801",
        "Wikidata Qid": "Q127431246"
      }
    },
    {
      "type": "Feature",
      "geometry": {
        "type": "Point",
        "coordinates": [
          34.768458164,
          32.066742278
        ]
      },
      "properties": {
        "label": "Tel Aviv Artists’ Studios",
        "type": "Industrial building",
        "entity": "http://www.wikidata.org/entity/Q86001880",
        "country_qid": "Q801",
        "Wikidata Qid": "Q86001880"
      }
    },
    {
      "type": "Feature",
      "geometry": {
        "type": "Point",
        "coordinates": [
          34.98124,
          32.83225
        ]
      },
      "properties": {
        "label": "Bat Galim Windmill",
        "type": "Industrial building",
        "entity": "http://www.wikidata.org/entity/Q16339874",
        "country_qid": "Q801",
        "Wikidata Qid": "Q16339874"
      }
    },
    {
      "type": "Feature",
      "geometry": {
        "type": "Point",
        "coordinates": [
          35.199936564,
          31.783221727
        ]
      },
      "properties": {
        "label": "Q131160535",
        "type": "Industrial building",
        "entity": "http://www.wikidata.org/entity/Q131160535",
        "country_qid": "Q801",
        "Wikidata Qid": "Q131160535"
      }
    },
    {
      "type": "Feature",
      "geometry": {
        "type": "Point",
        "coordinates": [
          34.711871,
          31.936748
        ]
      },
      "properties": {
        "label": "Q97205265",
        "type": "Industrial building",
        "entity": "http://www.wikidata.org/entity/Q97205265",
        "country_qid": "Q801",
        "Wikidata Qid": "Q97205265"
      }
    },
    {
      "type": "Feature",
      "geometry": {
        "type": "Point",
        "coordinates": [
          34.782903454,
          32.062472319
        ]
      },
      "properties": {
        "label": "Eshel Studios",
        "type": "Industrial building",
        "entity": "http://www.wikidata.org/entity/Q120765045",
        "country_qid": "Q801",
        "Wikidata Qid": "Q120765045"
      }
    },
    {
      "type": "Feature",
      "geometry": {
        "type": "Point",
        "coordinates": [
          35.067702,
          32.921406
        ]
      },
      "properties": {
        "label": "Building 18011-3",
        "type": "Industrial building",
        "entity": "http://www.wikidata.org/entity/Q86213799",
        "country_qid": "Q801",
        "Wikidata Qid": "Q86213799"
      }
    },
    {
      "type": "Feature",
      "geometry": {
        "type": "Point",
        "coordinates": [
          34.898333,
          31.593056
        ]
      },
      "properties": {
        "label": "Marisa",
        "type": "Industrial building",
        "entity": "http://www.wikidata.org/entity/Q127430691",
        "country_qid": "Q801",
        "Wikidata Qid": "Q127430691"
      }
    },
    {
      "type": "Feature",
      "geometry": {
        "type": "Point",
        "coordinates": [
          35.092166666,
          31.805888888
        ]
      },
      "properties": {
        "label": "Neve Ilan Media Park",
        "type": "Industrial building",
        "entity": "http://www.wikidata.org/entity/Q65249878",
        "country_qid": "Q801",
        "Wikidata Qid": "Q65249878"
      }
    },
    {
      "type": "Feature",
      "geometry": {
        "type": "Point",
        "coordinates": [
          34.8181517,
          31.2582095
        ]
      },
      "properties": {
        "label": "Israel Railways' workshops in Be'er Sheva",
        "type": "Industrial building",
        "entity": "http://www.wikidata.org/entity/Q112316149",
        "country_qid": "Q801",
        "Wikidata Qid": "Q112316149"
      }
    },
    {
      "type": "Feature",
      "geometry": {
        "type": "Point",
        "coordinates": [
          35.226596562,
          31.774592773
        ]
      },
      "properties": {
        "label": "The Burston Graphic Centre",
        "type": "Industrial building",
        "entity": "http://www.wikidata.org/entity/Q30527241",
        "country_qid": "Q801",
        "Wikidata Qid": "Q30527241"
      }
    },
    {
      "type": "Feature",
      "geometry": {
        "type": "Point",
        "coordinates": [
          34.74774,
          32.052436
        ]
      },
      "properties": {
        "label": "Joppa",
        "type": "Industrial building",
        "entity": "http://www.wikidata.org/entity/Q127430488",
        "country_qid": "Q801",
        "Wikidata Qid": "Q127430488"
      }
    },
    {
      "type": "Feature",
      "geometry": {
        "type": "Point",
        "coordinates": [
          35.234156,
          31.776679
        ]
      },
      "properties": {
        "label": "Jerusalem",
        "type": "Industrial building",
        "entity": "http://www.wikidata.org/entity/Q127430486",
        "country_qid": "Q801",
        "Wikidata Qid": "Q127430486"
      }
    },
    {
      "type": "Feature",
      "geometry": {
        "type": "Point",
        "coordinates": [
          34.805388888,
          32.086916666
        ]
      },
      "properties": {
        "label": "Q6586616",
        "type": "Industrial building",
        "entity": "http://www.wikidata.org/entity/Q6586616",
        "country_qid": "Q801",
        "Wikidata Qid": "Q6586616"
      }
    },
    {
      "type": "Feature",
      "geometry": {
        "type": "Point",
        "coordinates": [
          34.52673611,
          31.63695
        ]
      },
      "properties": {
        "label": "Q6973244",
        "type": "Industrial building",
        "entity": "http://www.wikidata.org/entity/Q6973244",
        "country_qid": "Q801",
        "Wikidata Qid": "Q6973244"
      }
    },
    {
      "type": "Feature",
      "geometry": {
        "type": "Point",
        "coordinates": [
          35.234156,
          31.776679
        ]
      },
      "properties": {
        "label": "Aelia Capitolina",
        "type": "Industrial building",
        "entity": "http://www.wikidata.org/entity/Q127429467",
        "country_qid": "Q801",
        "Wikidata Qid": "Q127429467"
      }
    },
    {
      "type": "Feature",
      "geometry": {
        "type": "Point",
        "coordinates": [
          35.224175,
          31.771475
        ]
      },
      "properties": {
        "label": "Montefiore Windmill",
        "type": "Industrial building",
        "entity": "http://www.wikidata.org/entity/Q2676363",
        "country_qid": "Q801",
        "Wikidata Qid": "Q2676363"
      }
    },
    {
      "type": "Feature",
      "geometry": {
        "type": "Point",
        "coordinates": [
          35.737351,
          32.901268
        ]
      },
      "properties": {
        "label": "Gamla",
        "type": "Industrial building",
        "entity": "http://www.wikidata.org/entity/Q127430271",
        "country_qid": "Q801",
        "Wikidata Qid": "Q127430271"
      }
    },
    {
      "type": "Feature",
      "geometry": {
        "type": "Point",
        "coordinates": [
          35.542011,
          32.775458
        ]
      },
      "properties": {
        "label": "Tiberias",
        "type": "Industrial building",
        "entity": "http://www.wikidata.org/entity/Q127431424",
        "country_qid": "Q801",
        "Wikidata Qid": "Q127431424"
      }
    },
    {
      "type": "Feature",
      "geometry": {
        "type": "Point",
        "coordinates": [
          34.646934,
          31.813901435
        ]
      },
      "properties": {
        "label": "Jonah Beer",
        "type": "Industrial building",
        "entity": "http://www.wikidata.org/entity/Q125506784",
        "country_qid": "Q801",
        "Wikidata Qid": "Q125506784"
      }
    },
    {
      "type": "Feature",
      "geometry": {
        "type": "Point",
        "coordinates": [
          34.770083333,
          32.067388888
        ]
      },
      "properties": {
        "label": "Q12409213",
        "type": "Industrial building",
        "entity": "http://www.wikidata.org/entity/Q12409213",
        "country_qid": "Q801",
        "Wikidata Qid": "Q12409213"
      }
    },
    {
      "type": "Feature",
      "geometry": {
        "type": "Point",
        "coordinates": [
          34.900416,
          32.501832
        ]
      },
      "properties": {
        "label": "Caesareia Samariae",
        "type": "Industrial building",
        "entity": "http://www.wikidata.org/entity/Q127429827",
        "country_qid": "Q801",
        "Wikidata Qid": "Q127429827"
      }
    },
    {
      "type": "Feature",
      "geometry": {
        "type": "Point",
        "coordinates": [
          34.994916666,
          32.818861111
        ]
      },
      "properties": {
        "label": "Q61125007",
        "type": "Industrial building",
        "entity": "http://www.wikidata.org/entity/Q61125007",
        "country_qid": "Q801",
        "Wikidata Qid": "Q61125007"
      }
    },
    {
      "type": "Feature",
      "geometry": {
        "type": "Point",
        "coordinates": [
          34.88833333,
          32.46666667
        ]
      },
      "properties": {
        "label": "Hadera Desalination Plant",
        "type": "Industrial building",
        "entity": "http://www.wikidata.org/entity/Q16341018",
        "country_qid": "Q801",
        "Wikidata Qid": "Q16341018"
      }
    },
    {
      "type": "Feature",
      "geometry": {
        "type": "Point",
        "coordinates": [
          34.898624,
          32.123897
        ]
      },
      "properties": {
        "label": "Abu-Rabakh Watermill",
        "type": "Industrial building",
        "entity": "http://www.wikidata.org/entity/Q6601921",
        "country_qid": "Q801",
        "Wikidata Qid": "Q6601921"
      }
    },
    {
      "type": "Feature",
      "geometry": {
        "type": "Point",
        "coordinates": [
          34.934048,
          32.116466
        ]
      },
      "properties": {
        "label": "Antipatris",
        "type": "Industrial building",
        "entity": "http://www.wikidata.org/entity/Q127429581",
        "country_qid": "Q801",
        "Wikidata Qid": "Q127429581"
      }
    },
    {
      "type": "Feature",
      "geometry": {
        "type": "Point",
        "coordinates": [
          35.71,
          32.991666666
        ]
      },
      "properties": {
        "label": "The Golan Heights Distillery",
        "type": "Industrial building",
        "entity": "http://www.wikidata.org/entity/Q47352397",
        "country_qid": "Q801",
        "Wikidata Qid": "Q47352397"
      }
    },
    {
      "type": "Feature",
      "geometry": {
        "type": "Point",
        "coordinates": [
          34.624786,
          31.583215
        ]
      },
      "properties": {
        "label": "Philisto-Arabian issues",
        "type": "Industrial building",
        "entity": "http://www.wikidata.org/entity/Q127431023",
        "country_qid": "Q801",
        "Wikidata Qid": "Q127431023"
      }
    },
    {
      "type": "Feature",
      "geometry": {
        "type": "Point",
        "coordinates": [
          34.99536,
          31.760282
        ]
      },
      "properties": {
        "label": "Shapiro beer",
        "type": "Industrial building",
        "entity": "http://www.wikidata.org/entity/Q16129494",
        "country_qid": "Q801",
        "Wikidata Qid": "Q16129494"
      }
    },
    {
      "type": "Feature",
      "geometry": {
        "type": "Point",
        "coordinates": [
          34.6862472,
          31.8502787
        ]
      },
      "properties": {
        "label": "Q55649239",
        "type": "Industrial building",
        "entity": "http://www.wikidata.org/entity/Q55649239",
        "country_qid": "Q801",
        "Wikidata Qid": "Q55649239"
      }
    },
    {
      "type": "Feature",
      "geometry": {
        "type": "Point",
        "coordinates": [
          34.971722222,
          29.578777777
        ]
      },
      "properties": {
        "label": "Eilat Desalination Plant",
        "type": "Industrial building",
        "entity": "http://www.wikidata.org/entity/Q55650773",
        "country_qid": "Q801",
        "Wikidata Qid": "Q55650773"
      }
    },
    {
      "type": "Feature",
      "geometry": {
        "type": "Point",
        "coordinates": [
          35.067937,
          32.921723
        ]
      },
      "properties": {
        "label": "Building 18010-139-140",
        "type": "Industrial building",
        "entity": "http://www.wikidata.org/entity/Q86209370",
        "country_qid": "Q801",
        "Wikidata Qid": "Q86209370"
      }
    },
    {
      "type": "Feature",
      "geometry": {
        "type": "Point",
        "coordinates": [
          35.21633,
          31.76904
        ]
      },
      "properties": {
        "label": "al-Quds",
        "type": "Industrial building",
        "entity": "http://www.wikidata.org/entity/Q127431753",
        "country_qid": "Q801",
        "Wikidata Qid": "Q127431753"
      }
    },
    {
      "type": "Feature",
      "geometry": {
        "type": "Point",
        "coordinates": [
          34.73295,
          31.943519
        ]
      },
      "properties": {
        "label": "IDE - Sorek Desalination Plant",
        "type": "Industrial building",
        "entity": "http://www.wikidata.org/entity/Q30527275",
        "country_qid": "Q801",
        "Wikidata Qid": "Q30527275"
      }
    },
    {
      "type": "Feature",
      "geometry": {
        "type": "Point",
        "coordinates": [
          35.0025,
          32.807222222
        ]
      },
      "properties": {
        "label": "Giza",
        "type": "Industrial building",
        "entity": "http://www.wikidata.org/entity/Q125970754",
        "country_qid": "Q801",
        "Wikidata Qid": "Q125970754"
      }
    },
    {
      "type": "Feature",
      "geometry": {
        "type": "Point",
        "coordinates": [
          35.175179,
          31.201956
        ]
      },
      "properties": {
        "label": "Barir Field Phosphate Mine",
        "type": "Mine",
        "entity": "http://www.wikidata.org/entity/Q97205572",
        "country_qid": "Q801",
        "Wikidata Qid": "Q97205572"
      }
    },
    {
      "type": "Feature",
      "geometry": {
        "type": "Point",
        "coordinates": [
          34.949722222,
          29.590833333
        ]
      },
      "properties": {
        "label": "Q26769273",
        "type": "Mine",
        "entity": "http://www.wikidata.org/entity/Q26769273",
        "country_qid": "Q801",
        "Wikidata Qid": "Q26769273"
      }
    },
    {
      "type": "Feature",
      "geometry": {
        "type": "Point",
        "coordinates": [
          35.418444444,
          32.518805555
        ]
      },
      "properties": {
        "label": "Q6957497",
        "type": "Mine",
        "entity": "http://www.wikidata.org/entity/Q6957497",
        "country_qid": "Q801",
        "Wikidata Qid": "Q6957497"
      }
    },
    {
      "type": "Feature",
      "geometry": {
        "type": "Point",
        "coordinates": [
          35.511097,
          33.098197
        ]
      },
      "properties": {
        "label": "Malkia Quarry",
        "type": "Mine",
        "entity": "http://www.wikidata.org/entity/Q92149947",
        "country_qid": "Q801",
        "Wikidata Qid": "Q92149947"
      }
    },
    {
      "type": "Feature",
      "geometry": {
        "type": "Point",
        "coordinates": [
          35.0541,
          32.7601
        ]
      },
      "properties": {
        "label": "Nesher Old Quarry",
        "type": "Mine",
        "entity": "http://www.wikidata.org/entity/Q125145334",
        "country_qid": "Q801",
        "Wikidata Qid": "Q125145334"
      }
    },
    {
      "type": "Feature",
      "geometry": {
        "type": "Point",
        "coordinates": [
          34.458499,
          31.421679
        ]
      },
      "properties": {
        "label": "Sulfur Quarry of Be'eri",
        "type": "Mine",
        "entity": "http://www.wikidata.org/entity/Q12409040",
        "country_qid": "Q801",
        "Wikidata Qid": "Q12409040"
      }
    },
    {
      "type": "Feature",
      "geometry": {
        "type": "Point",
        "coordinates": [
          35.283333333,
          31.15
        ]
      },
      "properties": {
        "label": "Gurim anticline",
        "type": "Mine",
        "entity": "http://www.wikidata.org/entity/Q24500126",
        "country_qid": "Q801",
        "Wikidata Qid": "Q24500126"
      }
    },
    {
      "type": "Feature",
      "geometry": {
        "type": "Point",
        "coordinates": [
          35.033503,
          32.779756
        ]
      },
      "properties": {
        "label": "Q127247821",
        "type": "Mine",
        "entity": "http://www.wikidata.org/entity/Q127247821",
        "country_qid": "Q801",
        "Wikidata Qid": "Q127247821"
      }
    }
  ]
}