{
  "type": "FeatureCollection",
  "features": [
    {
      "type": "Feature",
      "geometry": {
        "type": "Point",
        "coordinates": [
          -11.996416666,
          27.952555555
        ]
      },
      "properties": {
        "label": "Tarfaya Wind Farm",
        "type": "power plant",
        "entity": "http://www.wikidata.org/entity/Q18642054",
        "country_qid": "Q1028",
        "Wikidata Qid": "Q18642054"
      }
    },
    {
      "type": "Feature",
      "geometry": {
        "type": "Point",
        "coordinates": [
          -6.869444444,
          31.049166666
        ]
      },
      "properties": {
        "label": "Ouarzazate solar power station",
        "type": "power plant",
        "entity": "http://www.wikidata.org/entity/Q15264697",
        "country_qid": "Q1028",
        "Wikidata Qid": "Q15264697"
      }
    },
    {
      "type": "Feature",
      "geometry": {
        "type": "Point",
        "coordinates": [
          -7.570805555,
          33.606694444
        ]
      },
      "properties": {
        "label": "Q56373145",
        "type": "power plant",
        "entity": "http://www.wikidata.org/entity/Q56373145",
        "country_qid": "Q1028",
        "Wikidata Qid": "Q56373145"
      }
    },
    {
      "type": "Feature",
      "geometry": {
        "type": "Point",
        "coordinates": [
          -13.4208891,
          27.0699014
        ]
      },
      "properties": {
        "label": "Q56373053",
        "type": "power plant",
        "entity": "http://www.wikidata.org/entity/Q56373053",
        "country_qid": "Q1028",
        "Wikidata Qid": "Q56373053"
      }
    },
    {
      "type": "Feature",
      "geometry": {
        "type": "Point",
        "coordinates": [
          -4.525650331,
          33.681615029
        ]
      },
      "properties": {
        "label": "Madaz Dam",
        "type": "power plant",
        "entity": "http://www.wikidata.org/entity/Q130337597",
        "country_qid": "Q1028",
        "Wikidata Qid": "Q130337597"
      }
    },
    {
      "type": "Feature",
      "geometry": {
        "type": "Point",
        "coordinates": [
          -13.2329838,
          27.1551092
        ]
      },
      "properties": {
        "label": "Q56373054",
        "type": "power plant",
        "entity": "http://www.wikidata.org/entity/Q56373054",
        "country_qid": "Q1028",
        "Wikidata Qid": "Q56373054"
      }
    },
    {
      "type": "Feature",
      "geometry": {
        "type": "Point",
        "coordinates": [
          -9.250100277,
          32.224304166
        ]
      },
      "properties": {
        "label": "Q124654345",
        "type": "power plant",
        "entity": "http://www.wikidata.org/entity/Q124654345",
        "country_qid": "Q1028",
        "Wikidata Qid": "Q124654345"
      }
    },
    {
      "type": "Feature",
      "geometry": {
        "type": "Point",
        "coordinates": [
          -8.10639,
          33.1422
        ]
      },
      "properties": {
        "label": "Sidi Saïd Maâchou",
        "type": "power plant",
        "entity": "http://www.wikidata.org/entity/Q2884987",
        "country_qid": "Q1028",
        "Wikidata Qid": "Q2884987"
      }
    },
    {
      "type": "Feature",
      "geometry": {
        "type": "Point",
        "coordinates": [
          -8.066667,
          32.936944
        ]
      },
      "properties": {
        "label": "Q2884934",
        "type": "power plant",
        "entity": "http://www.wikidata.org/entity/Q2884934",
        "country_qid": "Q1028",
        "Wikidata Qid": "Q2884934"
      }
    },
    {
      "type": "Feature",
      "geometry": {
        "type": "Point",
        "coordinates": [
          -7.5022955,
          33.541526
        ]
      },
      "properties": {
        "label": "Q56372994",
        "type": "power plant",
        "entity": "http://www.wikidata.org/entity/Q56372994",
        "country_qid": "Q1028",
        "Wikidata Qid": "Q56372994"
      }
    },
    {
      "type": "Feature",
      "geometry": {
        "type": "Point",
        "coordinates": [
          -5.986805555,
          35.589
        ]
      },
      "properties": {
        "label": "Tahaddart Thermal Power Station",
        "type": "power plant",
        "entity": "http://www.wikidata.org/entity/Q8343554",
        "country_qid": "Q1028",
        "Wikidata Qid": "Q8343554"
      }
    },
    {
      "type": "Feature",
      "geometry": {
        "type": "Point",
        "coordinates": [
          -6.531333333,
          32.206972222
        ]
      },
      "properties": {
        "label": "Q56373050",
        "type": "power plant",
        "entity": "http://www.wikidata.org/entity/Q56373050",
        "country_qid": "Q1028",
        "Wikidata Qid": "Q56373050"
      }
    },
    {
      "type": "Feature",
      "geometry": {
        "type": "Point",
        "coordinates": [
          -6.463889,
          32.106667
        ]
      },
      "properties": {
        "label": "Bin el Ouidane Dam",
        "type": "power plant",
        "entity": "http://www.wikidata.org/entity/Q2884936",
        "country_qid": "Q1028",
        "Wikidata Qid": "Q2884936"
      }
    },
    {
      "type": "Feature",
      "geometry": {
        "type": "Point",
        "coordinates": [
          -2.10472222,
          34.06833333
        ]
      },
      "properties": {
        "label": "Ain Beni Mathar Integrated Thermo Solar Combined Cycle Power Plant",
        "type": "power plant",
        "entity": "http://www.wikidata.org/entity/Q15178583",
        "country_qid": "Q1028",
        "Wikidata Qid": "Q15178583"
      }
    },
    {
      "type": "Feature",
      "geometry": {
        "type": "Point",
        "coordinates": [
          -9.184583333,
          30.698444444
        ]
      },
      "properties": {
        "label": "Q56372923",
        "type": "power plant",
        "entity": "http://www.wikidata.org/entity/Q56372923",
        "country_qid": "Q1028",
        "Wikidata Qid": "Q56372923"
      }
    },
    {
      "type": "Feature",
      "geometry": {
        "type": "Point",
        "coordinates": [
          -5.463305555,
          35.569888888
        ]
      },
      "properties": {
        "label": "Q56372961",
        "type": "power plant",
        "entity": "http://www.wikidata.org/entity/Q56372961",
        "country_qid": "Q1028",
        "Wikidata Qid": "Q56372961"
      }
    },
    {
      "type": "Feature",
      "geometry": {
        "type": "Point",
        "coordinates": [
          -9.2805,
          32.148138888
        ]
      },
      "properties": {
        "label": "Safi Power Plant",
        "type": "power plant",
        "entity": "http://www.wikidata.org/entity/Q18214312",
        "country_qid": "Q1028",
        "Wikidata Qid": "Q18214312"
      }
    },
    {
      "type": "Feature",
      "geometry": {
        "type": "Point",
        "coordinates": [
          -6.818333333,
          33.930833333
        ]
      },
      "properties": {
        "label": "Complexe Hydrique Abdelhamid Berrada",
        "type": "power plant",
        "entity": "http://www.wikidata.org/entity/Q29090517",
        "country_qid": "Q1028",
        "Wikidata Qid": "Q29090517"
      }
    },
    {
      "type": "Feature",
      "geometry": {
        "type": "Point",
        "coordinates": [
          -12.0,
          27.9567
        ]
      },
      "properties": {
        "label": "Akhfenir Wind Farm",
        "type": "power plant",
        "entity": "http://www.wikidata.org/entity/Q18729667",
        "country_qid": "Q1028",
        "Wikidata Qid": "Q18729667"
      }
    },
    {
      "type": "Feature",
      "geometry": {
        "type": "Point",
        "coordinates": [
          -8.636694444,
          33.104805555
        ]
      },
      "properties": {
        "label": "Jorf Lasfar Power Plant",
        "type": "power plant",
        "entity": "http://www.wikidata.org/entity/Q20828761",
        "country_qid": "Q1028",
        "Wikidata Qid": "Q20828761"
      }
    },
    {
      "type": "Feature",
      "geometry": {
        "type": "Point",
        "coordinates": [
          -7.433805555,
          33.682
        ]
      },
      "properties": {
        "label": "Mohammedia Power Plant",
        "type": "power plant",
        "entity": "http://www.wikidata.org/entity/Q11989768",
        "country_qid": "Q1028",
        "Wikidata Qid": "Q11989768"
      }
    },
    {
      "type": "Feature",
      "geometry": {
        "type": "Point",
        "coordinates": [
          -4.978333333,
          34.054444444
        ]
      },
      "properties": {
        "label": "Lisine Hydro Electrique",
        "type": "power plant",
        "entity": "http://www.wikidata.org/entity/Q29105861",
        "country_qid": "Q1028",
        "Wikidata Qid": "Q29105861"
      }
    },
    {
      "type": "Feature",
      "geometry": {
        "type": "Point",
        "coordinates": [
          -6.561805555,
          34.286
        ]
      },
      "properties": {
        "label": "Kenitra power plant",
        "type": "power plant",
        "entity": "http://www.wikidata.org/entity/Q56372929",
        "country_qid": "Q1028",
        "Wikidata Qid": "Q56372929"
      }
    },
    {
      "type": "Feature",
      "geometry": {
        "type": "Point",
        "coordinates": [
          -7.63756,
          32.47546
        ]
      },
      "properties": {
        "label": "Al Massira Dam",
        "type": "power plant",
        "entity": "http://www.wikidata.org/entity/Q2884929",
        "country_qid": "Q1028",
        "Wikidata Qid": "Q2884929"
      }
    },
    {
      "type": "Feature",
      "geometry": {
        "type": "Point",
        "coordinates": [
          -5.887972222,
          32.692666666
        ]
      },
      "properties": {
        "label": "Ahmed El Hansali hydro station",
        "type": "power plant",
        "entity": "http://www.wikidata.org/entity/Q56372922",
        "country_qid": "Q1028",
        "Wikidata Qid": "Q56372922"
      }
    },
    {
      "type": "Feature",
      "geometry": {
        "type": "Point",
        "coordinates": [
          -9.464205,
          31.908466
        ]
      },
      "properties": {
        "label": "Sidi Boulbra",
        "type": "power plant",
        "entity": "http://www.wikidata.org/entity/Q25384399",
        "country_qid": "Q1028",
        "Wikidata Qid": "Q25384399"
      }
    },
    {
      "type": "Feature",
      "geometry": {
        "type": "Point",
        "coordinates": [
          -6.53083333,
          32.20666667
        ]
      },
      "properties": {
        "label": "Afourer Pumped Storage Station",
        "type": "power plant",
        "entity": "http://www.wikidata.org/entity/Q3460110",
        "country_qid": "Q1028",
        "Wikidata Qid": "Q3460110"
      }
    },
    {
      "type": "Feature",
      "geometry": {
        "type": "Point",
        "coordinates": [
          -11.339,
          28.469
        ]
      },
      "properties": {
        "label": "Q56372977",
        "type": "power plant",
        "entity": "http://www.wikidata.org/entity/Q56372977",
        "country_qid": "Q1028",
        "Wikidata Qid": "Q56372977"
      }
    },
    {
      "type": "Feature",
      "geometry": {
        "type": "Point",
        "coordinates": [
          -2.190805555,
          34.309611111
        ]
      },
      "properties": {
        "label": "Jerada Thermal Power Station",
        "type": "power plant",
        "entity": "http://www.wikidata.org/entity/Q11978473",
        "country_qid": "Q1028",
        "Wikidata Qid": "Q11978473"
      }
    },
    {
      "type": "Feature",
      "geometry": {
        "type": "Point",
        "coordinates": [
          -5.200969444,
          34.595691666
        ]
      },
      "properties": {
        "label": "Al Wahda Hydroelectric Power Plant",
        "type": "power plant",
        "entity": "http://www.wikidata.org/entity/Q106510665",
        "country_qid": "Q1028",
        "Wikidata Qid": "Q106510665"
      }
    },
    {
      "type": "Feature",
      "geometry": {
        "type": "Point",
        "coordinates": [
          -6.82277778,
          31.81388889
        ]
      },
      "properties": {
        "label": "Hassan I Dam",
        "type": "power plant",
        "entity": "http://www.wikidata.org/entity/Q64483",
        "country_qid": "Q1028",
        "Wikidata Qid": "Q64483"
      }
    },
    {
      "type": "Feature",
      "geometry": {
        "type": "Point",
        "coordinates": [
          -6.8011,
          31.8159
        ]
      },
      "properties": {
        "label": "Moulay Hassan I",
        "type": "Reservoir",
        "entity": "http://www.wikidata.org/entity/Q86512543",
        "country_qid": "Q1028",
        "Wikidata Qid": "Q86512543"
      }
    },
    {
      "type": "Feature",
      "geometry": {
        "type": "Point",
        "coordinates": [
          -8.0879,
          31.1777
        ]
      },
      "properties": {
        "label": "Lake Yacoub el Mansour",
        "type": "Reservoir",
        "entity": "http://www.wikidata.org/entity/Q86587448",
        "country_qid": "Q1028",
        "Wikidata Qid": "Q86587448"
      }
    },
    {
      "type": "Feature",
      "geometry": {
        "type": "Point",
        "coordinates": [
          -5.8609,
          32.7132
        ]
      },
      "properties": {
        "label": "Ahmed El Hansali dam",
        "type": "Reservoir",
        "entity": "http://www.wikidata.org/entity/Q86989046",
        "country_qid": "Q1028",
        "Wikidata Qid": "Q86989046"
      }
    },
    {
      "type": "Feature",
      "geometry": {
        "type": "Point",
        "coordinates": [
          -6.244166666,
          34.962777777
        ]
      },
      "properties": {
        "label": "Lmarja Nachfa",
        "type": "Reservoir",
        "entity": "http://www.wikidata.org/entity/Q34903691",
        "country_qid": "Q1028",
        "Wikidata Qid": "Q34903691"
      }
    },
    {
      "type": "Feature",
      "geometry": {
        "type": "Point",
        "coordinates": [
          -9.481666666,
          29.818055555
        ]
      },
      "properties": {
        "label": "Youssef Ben Tachfine reservoir",
        "type": "Reservoir",
        "entity": "http://www.wikidata.org/entity/Q106157280",
        "country_qid": "Q1028",
        "Wikidata Qid": "Q106157280"
      }
    },
    {
      "type": "Feature",
      "geometry": {
        "type": "Point",
        "coordinates": [
          -9.2104,
          30.6866
        ]
      },
      "properties": {
        "label": "Q86837325",
        "type": "Reservoir",
        "entity": "http://www.wikidata.org/entity/Q86837325",
        "country_qid": "Q1028",
        "Wikidata Qid": "Q86837325"
      }
    },
    {
      "type": "Feature",
      "geometry": {
        "type": "Point",
        "coordinates": [
          -6.770038888,
          30.939944444
        ]
      },
      "properties": {
        "label": "El Mansour Ad Dahbi Reservoir",
        "type": "Reservoir",
        "entity": "http://www.wikidata.org/entity/Q19309492",
        "country_qid": "Q1028",
        "Wikidata Qid": "Q19309492"
      }
    },
    {
      "type": "Feature",
      "geometry": {
        "type": "Point",
        "coordinates": [
          -8.1411,
          31.3387
        ]
      },
      "properties": {
        "label": "Lalla Takerkoust",
        "type": "Reservoir",
        "entity": "http://www.wikidata.org/entity/Q86596400",
        "country_qid": "Q1028",
        "Wikidata Qid": "Q86596400"
      }
    },
    {
      "type": "Feature",
      "geometry": {
        "type": "Point",
        "coordinates": [
          -5.400555555,
          35.445833333
        ]
      },
      "properties": {
        "label": "Sedd en Nakhla",
        "type": "Reservoir",
        "entity": "http://www.wikidata.org/entity/Q34922552",
        "country_qid": "Q1028",
        "Wikidata Qid": "Q34922552"
      }
    },
    {
      "type": "Feature",
      "geometry": {
        "type": "Point",
        "coordinates": [
          -8.502738,
          33.256733
        ]
      },
      "properties": {
        "label": "Portuguese cistern",
        "type": "Reservoir",
        "entity": "http://www.wikidata.org/entity/Q57451444",
        "country_qid": "Q1028",
        "Wikidata Qid": "Q57451444"
      }
    },
    {
      "type": "Feature",
      "geometry": {
        "type": "Point",
        "coordinates": [
          -6.428055555,
          32.096472222
        ]
      },
      "properties": {
        "label": "Bin El Ouidane",
        "type": "Reservoir",
        "entity": "http://www.wikidata.org/entity/Q60421719",
        "country_qid": "Q1028",
        "Wikidata Qid": "Q60421719"
      }
    },
    {
      "type": "Feature",
      "geometry": {
        "type": "Point",
        "coordinates": [
          -4.643055555,
          34.127222222
        ]
      },
      "properties": {
        "label": "Idriss I Reservoir",
        "type": "Reservoir",
        "entity": "http://www.wikidata.org/entity/Q22932975",
        "country_qid": "Q1028",
        "Wikidata Qid": "Q22932975"
      }
    },
    {
      "type": "Feature",
      "geometry": {
        "type": "Point",
        "coordinates": [
          -5.129166666,
          34.582222222
        ]
      },
      "properties": {
        "label": "Al Wahda Reservoir",
        "type": "Reservoir",
        "entity": "http://www.wikidata.org/entity/Q86689585",
        "country_qid": "Q1028",
        "Wikidata Qid": "Q86689585"
      }
    },
    {
      "type": "Feature",
      "geometry": {
        "type": "Point",
        "coordinates": [
          -8.1048,
          33.1379
        ]
      },
      "properties": {
        "label": "Sidi Saïd Maâchou",
        "type": "Reservoir",
        "entity": "http://www.wikidata.org/entity/Q86510031",
        "country_qid": "Q1028",
        "Wikidata Qid": "Q86510031"
      }
    },
    {
      "type": "Feature",
      "geometry": {
        "type": "Point",
        "coordinates": [
          -7.5698,
          32.4547
        ]
      },
      "properties": {
        "label": "Q86508430",
        "type": "Reservoir",
        "entity": "http://www.wikidata.org/entity/Q86508430",
        "country_qid": "Q1028",
        "Wikidata Qid": "Q86508430"
      }
    },
    {
      "type": "Feature",
      "geometry": {
        "type": "Point",
        "coordinates": [
          -6.80934,
          34.0551
        ]
      },
      "properties": {
        "label": "Centrale Laitière factory",
        "type": "Industrial building",
        "entity": "http://www.wikidata.org/entity/Q3552576",
        "country_qid": "Q1028",
        "Wikidata Qid": "Q3552576"
      }
    },
    {
      "type": "Feature",
      "geometry": {
        "type": "Point",
        "coordinates": [
          -6.83255,
          34.01325
        ]
      },
      "properties": {
        "label": "Rabat",
        "type": "Industrial building",
        "entity": "http://www.wikidata.org/entity/Q127431104",
        "country_qid": "Q1028",
        "Wikidata Qid": "Q127431104"
      }
    },
    {
      "type": "Feature",
      "geometry": {
        "type": "Point",
        "coordinates": [
          -5.367848584,
          35.572952118
        ]
      },
      "properties": {
        "label": "Tannery of Tetouan",
        "type": "Industrial building",
        "entity": "http://www.wikidata.org/entity/Q131154870",
        "country_qid": "Q1028",
        "Wikidata Qid": "Q131154870"
      }
    },
    {
      "type": "Feature",
      "geometry": {
        "type": "Point",
        "coordinates": [
          -6.11037,
          35.198727
        ]
      },
      "properties": {
        "label": "Mint of Lixus",
        "type": "Industrial building",
        "entity": "http://www.wikidata.org/entity/Q127430612",
        "country_qid": "Q1028",
        "Wikidata Qid": "Q127430612"
      }
    },
    {
      "type": "Feature",
      "geometry": {
        "type": "Point",
        "coordinates": [
          -8.626700555,
          33.118216666
        ]
      },
      "properties": {
        "label": "Q124034608",
        "type": "Industrial building",
        "entity": "http://www.wikidata.org/entity/Q124034608",
        "country_qid": "Q1028",
        "Wikidata Qid": "Q124034608"
      }
    },
    {
      "type": "Feature",
      "geometry": {
        "type": "Point",
        "coordinates": [
          -5.810048,
          35.787924
        ]
      },
      "properties": {
        "label": "Tingis",
        "type": "Industrial building",
        "entity": "http://www.wikidata.org/entity/Q127431435",
        "country_qid": "Q1028",
        "Wikidata Qid": "Q127431435"
      }
    },
    {
      "type": "Feature",
      "geometry": {
        "type": "Point",
        "coordinates": [
          -5.912359,
          35.51418
        ]
      },
      "properties": {
        "label": "Zilis",
        "type": "Industrial building",
        "entity": "http://www.wikidata.org/entity/Q127431723",
        "country_qid": "Q1028",
        "Wikidata Qid": "Q127431723"
      }
    },
    {
      "type": "Feature",
      "geometry": {
        "type": "Point",
        "coordinates": [
          -6.832732,
          34.015037
        ]
      },
      "properties": {
        "label": "Sala",
        "type": "Industrial building",
        "entity": "http://www.wikidata.org/entity/Q127431163",
        "country_qid": "Q1028",
        "Wikidata Qid": "Q127431163"
      }
    },
    {
      "type": "Feature",
      "geometry": {
        "type": "Point",
        "coordinates": [
          -5.222677222,
          33.434295833
        ]
      },
      "properties": {
        "label": "Q121504949",
        "type": "Industrial building",
        "entity": "http://www.wikidata.org/entity/Q121504949",
        "country_qid": "Q1028",
        "Wikidata Qid": "Q121504949"
      }
    },
    {
      "type": "Feature",
      "geometry": {
        "type": "Point",
        "coordinates": [
          -5.5548,
          34.0725
        ]
      },
      "properties": {
        "label": "Volubilis",
        "type": "Industrial building",
        "entity": "http://www.wikidata.org/entity/Q127431689",
        "country_qid": "Q1028",
        "Wikidata Qid": "Q127431689"
      }
    },
    {
      "type": "Feature",
      "geometry": {
        "type": "Point",
        "coordinates": [
          -6.490176,
          34.335111
        ]
      },
      "properties": {
        "label": "Babba",
        "type": "Industrial building",
        "entity": "http://www.wikidata.org/entity/Q127429702",
        "country_qid": "Q1028",
        "Wikidata Qid": "Q127429702"
      }
    },
    {
      "type": "Feature",
      "geometry": {
        "type": "Point",
        "coordinates": [
          -9.614388888,
          31.443277777
        ]
      },
      "properties": {
        "label": "Q48756618",
        "type": "Industrial building",
        "entity": "http://www.wikidata.org/entity/Q48756618",
        "country_qid": "Q1028",
        "Wikidata Qid": "Q48756618"
      }
    },
    {
      "type": "Feature",
      "geometry": {
        "type": "Point",
        "coordinates": [
          -9.582569,
          30.416915
        ]
      },
      "properties": {
        "label": "Q107250327",
        "type": "Industrial building",
        "entity": "http://www.wikidata.org/entity/Q107250327",
        "country_qid": "Q1028",
        "Wikidata Qid": "Q107250327"
      }
    },
    {
      "type": "Feature",
      "geometry": {
        "type": "Point",
        "coordinates": [
          -4.28,
          31.28
        ]
      },
      "properties": {
        "label": "Madinat Sijilmasah",
        "type": "Industrial building",
        "entity": "http://www.wikidata.org/entity/Q127430660",
        "country_qid": "Q1028",
        "Wikidata Qid": "Q127430660"
      }
    },
    {
      "type": "Feature",
      "geometry": {
        "type": "Point",
        "coordinates": [
          -4.28,
          31.28
        ]
      },
      "properties": {
        "label": "Sijilmasah",
        "type": "Industrial building",
        "entity": "http://www.wikidata.org/entity/Q127431280",
        "country_qid": "Q1028",
        "Wikidata Qid": "Q127431280"
      }
    },
    {
      "type": "Feature",
      "geometry": {
        "type": "Point",
        "coordinates": [
          -7.99994,
          31.63416
        ]
      },
      "properties": {
        "label": "Marrakush",
        "type": "Industrial building",
        "entity": "http://www.wikidata.org/entity/Q127430694",
        "country_qid": "Q1028",
        "Wikidata Qid": "Q127430694"
      }
    },
    {
      "type": "Feature",
      "geometry": {
        "type": "Point",
        "coordinates": [
          -4.9998,
          34.03715
        ]
      },
      "properties": {
        "label": "Fas",
        "type": "Industrial building",
        "entity": "http://www.wikidata.org/entity/Q127430238",
        "country_qid": "Q1028",
        "Wikidata Qid": "Q127430238"
      }
    },
    {
      "type": "Feature",
      "geometry": {
        "type": "Point",
        "coordinates": [
          -4.970977777,
          34.066088888
        ]
      },
      "properties": {
        "label": "Chouara Tannery",
        "type": "Industrial building",
        "entity": "http://www.wikidata.org/entity/Q48815525",
        "country_qid": "Q1028",
        "Wikidata Qid": "Q48815525"
      }
    },
    {
      "type": "Feature",
      "geometry": {
        "type": "Point",
        "coordinates": [
          -5.55703,
          34.0737
        ]
      },
      "properties": {
        "label": "Walilah",
        "type": "Industrial building",
        "entity": "http://www.wikidata.org/entity/Q127431691",
        "country_qid": "Q1028",
        "Wikidata Qid": "Q127431691"
      }
    },
    {
      "type": "Feature",
      "geometry": {
        "type": "Point",
        "coordinates": [
          -4.976027777,
          34.06425
        ]
      },
      "properties": {
        "label": "Sidi Moussa Tannery",
        "type": "Industrial building",
        "entity": "http://www.wikidata.org/entity/Q105356583",
        "country_qid": "Q1028",
        "Wikidata Qid": "Q105356583"
      }
    },
    {
      "type": "Feature",
      "geometry": {
        "type": "Point",
        "coordinates": [
          -6.3690257,
          34.3116871
        ]
      },
      "properties": {
        "label": "PSA Kenitra plant",
        "type": "Industrial building",
        "entity": "http://www.wikidata.org/entity/Q22949275",
        "country_qid": "Q1028",
        "Wikidata Qid": "Q22949275"
      }
    },
    {
      "type": "Feature",
      "geometry": {
        "type": "Point",
        "coordinates": [
          -5.63,
          33.16
        ]
      },
      "properties": {
        "label": "Q27522526",
        "type": "Mine",
        "entity": "http://www.wikidata.org/entity/Q27522526",
        "country_qid": "Q1028",
        "Wikidata Qid": "Q27522526"
      }
    },
    {
      "type": "Feature",
      "geometry": {
        "type": "Point",
        "coordinates": [
          -6.786666666,
          33.936111111
        ]
      },
      "properties": {
        "label": "Q29090526",
        "type": "Mine",
        "entity": "http://www.wikidata.org/entity/Q29090526",
        "country_qid": "Q1028",
        "Wikidata Qid": "Q29090526"
      }
    },
    {
      "type": "Feature",
      "geometry": {
        "type": "Point",
        "coordinates": [
          -5.387777777,
          35.873611111
        ]
      },
      "properties": {
        "label": "Q29107153",
        "type": "Mine",
        "entity": "http://www.wikidata.org/entity/Q29107153",
        "country_qid": "Q1028",
        "Wikidata Qid": "Q29107153"
      }
    },
    {
      "type": "Feature",
      "geometry": {
        "type": "Point",
        "coordinates": [
          -8.385833333,
          31.087777777
        ]
      },
      "properties": {
        "label": "Q27521017",
        "type": "Mine",
        "entity": "http://www.wikidata.org/entity/Q27521017",
        "country_qid": "Q1028",
        "Wikidata Qid": "Q27521017"
      }
    },
    {
      "type": "Feature",
      "geometry": {
        "type": "Point",
        "coordinates": [
          -7.071666666,
          33.8225
        ]
      },
      "properties": {
        "label": "Q29096795",
        "type": "Mine",
        "entity": "http://www.wikidata.org/entity/Q29096795",
        "country_qid": "Q1028",
        "Wikidata Qid": "Q29096795"
      }
    },
    {
      "type": "Feature",
      "geometry": {
        "type": "Point",
        "coordinates": [
          -7.022777777,
          33.089444444
        ]
      },
      "properties": {
        "label": "Dhar Jnanet",
        "type": "Mine",
        "entity": "http://www.wikidata.org/entity/Q29082966",
        "country_qid": "Q1028",
        "Wikidata Qid": "Q29082966"
      }
    },
    {
      "type": "Feature",
      "geometry": {
        "type": "Point",
        "coordinates": [
          -7.16,
          30.81
        ]
      },
      "properties": {
        "label": "Q27522288",
        "type": "Mine",
        "entity": "http://www.wikidata.org/entity/Q27522288",
        "country_qid": "Q1028",
        "Wikidata Qid": "Q27522288"
      }
    },
    {
      "type": "Feature",
      "geometry": {
        "type": "Point",
        "coordinates": [
          -8.978611111,
          32.445
        ]
      },
      "properties": {
        "label": "Q29081992",
        "type": "Mine",
        "entity": "http://www.wikidata.org/entity/Q29081992",
        "country_qid": "Q1028",
        "Wikidata Qid": "Q29081992"
      }
    },
    {
      "type": "Feature",
      "geometry": {
        "type": "Point",
        "coordinates": [
          -7.033333333,
          33.723333333
        ]
      },
      "properties": {
        "label": "Q29096149",
        "type": "Mine",
        "entity": "http://www.wikidata.org/entity/Q29096149",
        "country_qid": "Q1028",
        "Wikidata Qid": "Q29096149"
      }
    },
    {
      "type": "Feature",
      "geometry": {
        "type": "Point",
        "coordinates": [
          -5.731944444,
          31.345555555
        ]
      },
      "properties": {
        "label": "Imiter mine",
        "type": "Mine",
        "entity": "http://www.wikidata.org/entity/Q28950940",
        "country_qid": "Q1028",
        "Wikidata Qid": "Q28950940"
      }
    },
    {
      "type": "Feature",
      "geometry": {
        "type": "Point",
        "coordinates": [
          -6.65,
          33.06
        ]
      },
      "properties": {
        "label": "Q27531410",
        "type": "Mine",
        "entity": "http://www.wikidata.org/entity/Q27531410",
        "country_qid": "Q1028",
        "Wikidata Qid": "Q27531410"
      }
    },
    {
      "type": "Feature",
      "geometry": {
        "type": "Point",
        "coordinates": [
          -7.24965,
          31.09416
        ]
      },
      "properties": {
        "label": "Q49398020",
        "type": "Mine",
        "entity": "http://www.wikidata.org/entity/Q49398020",
        "country_qid": "Q1028",
        "Wikidata Qid": "Q49398020"
      }
    },
    {
      "type": "Feature",
      "geometry": {
        "type": "Point",
        "coordinates": [
          -7.035277777,
          33.730555555
        ]
      },
      "properties": {
        "label": "Q29096113",
        "type": "Mine",
        "entity": "http://www.wikidata.org/entity/Q29096113",
        "country_qid": "Q1028",
        "Wikidata Qid": "Q29096113"
      }
    },
    {
      "type": "Feature",
      "geometry": {
        "type": "Point",
        "coordinates": [
          -6.638333333,
          34.307777777
        ]
      },
      "properties": {
        "label": "Douim Lkihel",
        "type": "Mine",
        "entity": "http://www.wikidata.org/entity/Q29095875",
        "country_qid": "Q1028",
        "Wikidata Qid": "Q29095875"
      }
    },
    {
      "type": "Feature",
      "geometry": {
        "type": "Point",
        "coordinates": [
          -8.176111111,
          31.867777777
        ]
      },
      "properties": {
        "label": "Mine de Kettara",
        "type": "Mine",
        "entity": "http://www.wikidata.org/entity/Q27522744",
        "country_qid": "Q1028",
        "Wikidata Qid": "Q27522744"
      }
    },
    {
      "type": "Feature",
      "geometry": {
        "type": "Point",
        "coordinates": [
          -7.026388888,
          33.775555555
        ]
      },
      "properties": {
        "label": "Q29096843",
        "type": "Mine",
        "entity": "http://www.wikidata.org/entity/Q29096843",
        "country_qid": "Q1028",
        "Wikidata Qid": "Q29096843"
      }
    },
    {
      "type": "Feature",
      "geometry": {
        "type": "Point",
        "coordinates": [
          -6.411666666,
          34.645
        ]
      },
      "properties": {
        "label": "Q29102880",
        "type": "Mine",
        "entity": "http://www.wikidata.org/entity/Q29102880",
        "country_qid": "Q1028",
        "Wikidata Qid": "Q29102880"
      }
    },
    {
      "type": "Feature",
      "geometry": {
        "type": "Point",
        "coordinates": [
          -7.024722222,
          33.741388888
        ]
      },
      "properties": {
        "label": "Q29096107",
        "type": "Mine",
        "entity": "http://www.wikidata.org/entity/Q29096107",
        "country_qid": "Q1028",
        "Wikidata Qid": "Q29096107"
      }
    },
    {
      "type": "Feature",
      "geometry": {
        "type": "Point",
        "coordinates": [
          -7.02,
          33.635277777
        ]
      },
      "properties": {
        "label": "Q29096157",
        "type": "Mine",
        "entity": "http://www.wikidata.org/entity/Q29096157",
        "country_qid": "Q1028",
        "Wikidata Qid": "Q29096157"
      }
    },
    {
      "type": "Feature",
      "geometry": {
        "type": "Point",
        "coordinates": [
          -5.590277777,
          33.616388888
        ]
      },
      "properties": {
        "label": "Q29103517",
        "type": "Mine",
        "entity": "http://www.wikidata.org/entity/Q29103517",
        "country_qid": "Q1028",
        "Wikidata Qid": "Q29103517"
      }
    },
    {
      "type": "Feature",
      "geometry": {
        "type": "Point",
        "coordinates": [
          -6.416388888,
          34.641111111
        ]
      },
      "properties": {
        "label": "Q29102887",
        "type": "Mine",
        "entity": "http://www.wikidata.org/entity/Q29102887",
        "country_qid": "Q1028",
        "Wikidata Qid": "Q29102887"
      }
    },
    {
      "type": "Feature",
      "geometry": {
        "type": "Point",
        "coordinates": [
          -6.85,
          30.783333333
        ]
      },
      "properties": {
        "label": "Tachgagalt mine",
        "type": "Mine",
        "entity": "http://www.wikidata.org/entity/Q26701432",
        "country_qid": "Q1028",
        "Wikidata Qid": "Q26701432"
      }
    },
    {
      "type": "Feature",
      "geometry": {
        "type": "Point",
        "coordinates": [
          -8.302222222,
          31.148888888
        ]
      },
      "properties": {
        "label": "Q27528093",
        "type": "Mine",
        "entity": "http://www.wikidata.org/entity/Q27528093",
        "country_qid": "Q1028",
        "Wikidata Qid": "Q27528093"
      }
    },
    {
      "type": "Feature",
      "geometry": {
        "type": "Point",
        "coordinates": [
          -6.782222222,
          33.932777777
        ]
      },
      "properties": {
        "label": "Q29090534",
        "type": "Mine",
        "entity": "http://www.wikidata.org/entity/Q29090534",
        "country_qid": "Q1028",
        "Wikidata Qid": "Q29090534"
      }
    },
    {
      "type": "Feature",
      "geometry": {
        "type": "Point",
        "coordinates": [
          -8.355555555,
          32.367222222
        ]
      },
      "properties": {
        "label": "Q29083812",
        "type": "Mine",
        "entity": "http://www.wikidata.org/entity/Q29083812",
        "country_qid": "Q1028",
        "Wikidata Qid": "Q29083812"
      }
    },
    {
      "type": "Feature",
      "geometry": {
        "type": "Point",
        "coordinates": [
          -6.654722222,
          30.845555555
        ]
      },
      "properties": {
        "label": "Iminder",
        "type": "Mine",
        "entity": "http://www.wikidata.org/entity/Q27522174",
        "country_qid": "Q1028",
        "Wikidata Qid": "Q27522174"
      }
    },
    {
      "type": "Feature",
      "geometry": {
        "type": "Point",
        "coordinates": [
          -8.813888888,
          32.353055555
        ]
      },
      "properties": {
        "label": "Q29081987",
        "type": "Mine",
        "entity": "http://www.wikidata.org/entity/Q29081987",
        "country_qid": "Q1028",
        "Wikidata Qid": "Q29081987"
      }
    },
    {
      "type": "Feature",
      "geometry": {
        "type": "Point",
        "coordinates": [
          -5.372777777,
          33.981388888
        ]
      },
      "properties": {
        "label": "Q29106549",
        "type": "Mine",
        "entity": "http://www.wikidata.org/entity/Q29106549",
        "country_qid": "Q1028",
        "Wikidata Qid": "Q29106549"
      }
    },
    {
      "type": "Feature",
      "geometry": {
        "type": "Point",
        "coordinates": [
          -2.443333333,
          35.118333333
        ]
      },
      "properties": {
        "label": "Maqlaa Ben Hammou",
        "type": "Mine",
        "entity": "http://www.wikidata.org/entity/Q29101051",
        "country_qid": "Q1028",
        "Wikidata Qid": "Q29101051"
      }
    },
    {
      "type": "Feature",
      "geometry": {
        "type": "Point",
        "coordinates": [
          -7.23,
          30.7
        ]
      },
      "properties": {
        "label": "Aguerzoula",
        "type": "Mine",
        "entity": "http://www.wikidata.org/entity/Q27532647",
        "country_qid": "Q1028",
        "Wikidata Qid": "Q27532647"
      }
    },
    {
      "type": "Feature",
      "geometry": {
        "type": "Point",
        "coordinates": [
          -6.663333333,
          30.489166666
        ]
      },
      "properties": {
        "label": "Irhtem mine",
        "type": "Mine",
        "entity": "http://www.wikidata.org/entity/Q24273546",
        "country_qid": "Q1028",
        "Wikidata Qid": "Q24273546"
      }
    },
    {
      "type": "Feature",
      "geometry": {
        "type": "Point",
        "coordinates": [
          -8.503333333,
          32.208333333
        ]
      },
      "properties": {
        "label": "Douar Oulad Hida",
        "type": "Mine",
        "entity": "http://www.wikidata.org/entity/Q29081977",
        "country_qid": "Q1028",
        "Wikidata Qid": "Q29081977"
      }
    },
    {
      "type": "Feature",
      "geometry": {
        "type": "Point",
        "coordinates": [
          -7.28,
          30.83
        ]
      },
      "properties": {
        "label": "Indiout",
        "type": "Mine",
        "entity": "http://www.wikidata.org/entity/Q27522220",
        "country_qid": "Q1028",
        "Wikidata Qid": "Q27522220"
      }
    },
    {
      "type": "Feature",
      "geometry": {
        "type": "Point",
        "coordinates": [
          -5.420833333,
          35.519166666
        ]
      },
      "properties": {
        "label": "Carriere Massaoud",
        "type": "Mine",
        "entity": "http://www.wikidata.org/entity/Q29107075",
        "country_qid": "Q1028",
        "Wikidata Qid": "Q29107075"
      }
    },
    {
      "type": "Feature",
      "geometry": {
        "type": "Point",
        "coordinates": [
          -7.026111111,
          33.066111111
        ]
      },
      "properties": {
        "label": "Essakhra Lqarar",
        "type": "Mine",
        "entity": "http://www.wikidata.org/entity/Q29082974",
        "country_qid": "Q1028",
        "Wikidata Qid": "Q29082974"
      }
    },
    {
      "type": "Feature",
      "geometry": {
        "type": "Point",
        "coordinates": [
          -8.948888888,
          32.579166666
        ]
      },
      "properties": {
        "label": "Q29082373",
        "type": "Mine",
        "entity": "http://www.wikidata.org/entity/Q29082373",
        "country_qid": "Q1028",
        "Wikidata Qid": "Q29082373"
      }
    },
    {
      "type": "Feature",
      "geometry": {
        "type": "Point",
        "coordinates": [
          -8.385277777,
          32.188611111
        ]
      },
      "properties": {
        "label": "Q31867472",
        "type": "Mine",
        "entity": "http://www.wikidata.org/entity/Q31867472",
        "country_qid": "Q1028",
        "Wikidata Qid": "Q31867472"
      }
    },
    {
      "type": "Feature",
      "geometry": {
        "type": "Point",
        "coordinates": [
          -7.282777777,
          30.848055555
        ]
      },
      "properties": {
        "label": "Daousdrem",
        "type": "Mine",
        "entity": "http://www.wikidata.org/entity/Q27520340",
        "country_qid": "Q1028",
        "Wikidata Qid": "Q27520340"
      }
    },
    {
      "type": "Feature",
      "geometry": {
        "type": "Point",
        "coordinates": [
          -5.549444444,
          33.653888888
        ]
      },
      "properties": {
        "label": "Q27538924",
        "type": "Mine",
        "entity": "http://www.wikidata.org/entity/Q27538924",
        "country_qid": "Q1028",
        "Wikidata Qid": "Q27538924"
      }
    },
    {
      "type": "Feature",
      "geometry": {
        "type": "Point",
        "coordinates": [
          -4.633333333,
          32.766666666
        ]
      },
      "properties": {
        "label": "Mibladen Mines",
        "type": "Mine",
        "entity": "http://www.wikidata.org/entity/Q107573292",
        "country_qid": "Q1028",
        "Wikidata Qid": "Q107573292"
      }
    },
    {
      "type": "Feature",
      "geometry": {
        "type": "Point",
        "coordinates": [
          -7.148888888,
          33.0225
        ]
      },
      "properties": {
        "label": "Q29095568",
        "type": "Mine",
        "entity": "http://www.wikidata.org/entity/Q29095568",
        "country_qid": "Q1028",
        "Wikidata Qid": "Q29095568"
      }
    },
    {
      "type": "Feature",
      "geometry": {
        "type": "Point",
        "coordinates": [
          -9.395,
          31.959444444
        ]
      },
      "properties": {
        "label": "Q29085980",
        "type": "Mine",
        "entity": "http://www.wikidata.org/entity/Q29085980",
        "country_qid": "Q1028",
        "Wikidata Qid": "Q29085980"
      }
    },
    {
      "type": "Feature",
      "geometry": {
        "type": "Point",
        "coordinates": [
          -7.03,
          33.721388888
        ]
      },
      "properties": {
        "label": "Q29096119",
        "type": "Mine",
        "entity": "http://www.wikidata.org/entity/Q29096119",
        "country_qid": "Q1028",
        "Wikidata Qid": "Q29096119"
      }
    },
    {
      "type": "Feature",
      "geometry": {
        "type": "Point",
        "coordinates": [
          -7.0225,
          33.728055555
        ]
      },
      "properties": {
        "label": "Q29096147",
        "type": "Mine",
        "entity": "http://www.wikidata.org/entity/Q29096147",
        "country_qid": "Q1028",
        "Wikidata Qid": "Q29096147"
      }
    },
    {
      "type": "Feature",
      "geometry": {
        "type": "Point",
        "coordinates": [
          -7.148611111,
          30.945833333
        ]
      },
      "properties": {
        "label": "Inkene",
        "type": "Mine",
        "entity": "http://www.wikidata.org/entity/Q27522239",
        "country_qid": "Q1028",
        "Wikidata Qid": "Q27522239"
      }
    },
    {
      "type": "Feature",
      "geometry": {
        "type": "Point",
        "coordinates": [
          -6.301388888,
          30.929722222
        ]
      },
      "properties": {
        "label": "Patte d'Oie mine",
        "type": "Mine",
        "entity": "http://www.wikidata.org/entity/Q106623286",
        "country_qid": "Q1028",
        "Wikidata Qid": "Q106623286"
      }
    },
    {
      "type": "Feature",
      "geometry": {
        "type": "Point",
        "coordinates": [
          -9.338888888,
          30.593333333
        ]
      },
      "properties": {
        "label": "Mine de Bou el Baz",
        "type": "Mine",
        "entity": "http://www.wikidata.org/entity/Q27519405",
        "country_qid": "Q1028",
        "Wikidata Qid": "Q27519405"
      }
    },
    {
      "type": "Feature",
      "geometry": {
        "type": "Point",
        "coordinates": [
          -6.645833333,
          34.296944444
        ]
      },
      "properties": {
        "label": "Dyar Amer",
        "type": "Mine",
        "entity": "http://www.wikidata.org/entity/Q29095879",
        "country_qid": "Q1028",
        "Wikidata Qid": "Q29095879"
      }
    },
    {
      "type": "Feature",
      "geometry": {
        "type": "Point",
        "coordinates": [
          -6.741944444,
          30.647222222
        ]
      },
      "properties": {
        "label": "Q27530493",
        "type": "Mine",
        "entity": "http://www.wikidata.org/entity/Q27530493",
        "country_qid": "Q1028",
        "Wikidata Qid": "Q27530493"
      }
    },
    {
      "type": "Feature",
      "geometry": {
        "type": "Point",
        "coordinates": [
          -8.403611111,
          32.195277777
        ]
      },
      "properties": {
        "label": "Q31867474",
        "type": "Mine",
        "entity": "http://www.wikidata.org/entity/Q31867474",
        "country_qid": "Q1028",
        "Wikidata Qid": "Q31867474"
      }
    },
    {
      "type": "Feature",
      "geometry": {
        "type": "Point",
        "coordinates": [
          -7.024166666,
          33.098055555
        ]
      },
      "properties": {
        "label": "Essakhra Lemdahba",
        "type": "Mine",
        "entity": "http://www.wikidata.org/entity/Q29082956",
        "country_qid": "Q1028",
        "Wikidata Qid": "Q29082956"
      }
    },
    {
      "type": "Feature",
      "geometry": {
        "type": "Point",
        "coordinates": [
          -7.036111111,
          33.725277777
        ]
      },
      "properties": {
        "label": "Q29096116",
        "type": "Mine",
        "entity": "http://www.wikidata.org/entity/Q29096116",
        "country_qid": "Q1028",
        "Wikidata Qid": "Q29096116"
      }
    },
    {
      "type": "Feature",
      "geometry": {
        "type": "Point",
        "coordinates": [
          -2.816111111,
          35.003055555
        ]
      },
      "properties": {
        "label": "Q29101007",
        "type": "Mine",
        "entity": "http://www.wikidata.org/entity/Q29101007",
        "country_qid": "Q1028",
        "Wikidata Qid": "Q29101007"
      }
    },
    {
      "type": "Feature",
      "geometry": {
        "type": "Point",
        "coordinates": [
          -7.0375,
          33.735833333
        ]
      },
      "properties": {
        "label": "Q29096110",
        "type": "Mine",
        "entity": "http://www.wikidata.org/entity/Q29096110",
        "country_qid": "Q1028",
        "Wikidata Qid": "Q29096110"
      }
    },
    {
      "type": "Feature",
      "geometry": {
        "type": "Point",
        "coordinates": [
          -7.28,
          31.1
        ]
      },
      "properties": {
        "label": "Q27522176",
        "type": "Mine",
        "entity": "http://www.wikidata.org/entity/Q27522176",
        "country_qid": "Q1028",
        "Wikidata Qid": "Q27522176"
      }
    },
    {
      "type": "Feature",
      "geometry": {
        "type": "Point",
        "coordinates": [
          -1.72,
          34.47
        ]
      },
      "properties": {
        "label": "El Abed",
        "type": "Mine",
        "entity": "http://www.wikidata.org/entity/Q27508586",
        "country_qid": "Q1028",
        "Wikidata Qid": "Q27508586"
      }
    },
    {
      "type": "Feature",
      "geometry": {
        "type": "Point",
        "coordinates": [
          -7.164722222,
          33.003055555
        ]
      },
      "properties": {
        "label": "Q29095572",
        "type": "Mine",
        "entity": "http://www.wikidata.org/entity/Q29095572",
        "country_qid": "Q1028",
        "Wikidata Qid": "Q29095572"
      }
    },
    {
      "type": "Feature",
      "geometry": {
        "type": "Point",
        "coordinates": [
          -7.228888888,
          30.957222222
        ]
      },
      "properties": {
        "label": "Migoudane",
        "type": "Mine",
        "entity": "http://www.wikidata.org/entity/Q27515473",
        "country_qid": "Q1028",
        "Wikidata Qid": "Q27515473"
      }
    },
    {
      "type": "Feature",
      "geometry": {
        "type": "Point",
        "coordinates": [
          -5.906944444,
          32.928055555
        ]
      },
      "properties": {
        "label": "Madene n Tazoult",
        "type": "Mine",
        "entity": "http://www.wikidata.org/entity/Q29102296",
        "country_qid": "Q1028",
        "Wikidata Qid": "Q29102296"
      }
    },
    {
      "type": "Feature",
      "geometry": {
        "type": "Point",
        "coordinates": [
          -6.420833333,
          34.634444444
        ]
      },
      "properties": {
        "label": "Q29102896",
        "type": "Mine",
        "entity": "http://www.wikidata.org/entity/Q29102896",
        "country_qid": "Q1028",
        "Wikidata Qid": "Q29102896"
      }
    },
    {
      "type": "Feature",
      "geometry": {
        "type": "Point",
        "coordinates": [
          -7.012222222,
          33.698611111
        ]
      },
      "properties": {
        "label": "Q29096124",
        "type": "Mine",
        "entity": "http://www.wikidata.org/entity/Q29096124",
        "country_qid": "Q1028",
        "Wikidata Qid": "Q29096124"
      }
    },
    {
      "type": "Feature",
      "geometry": {
        "type": "Point",
        "coordinates": [
          -7.103611111,
          30.680555555
        ]
      },
      "properties": {
        "label": "Q27530621",
        "type": "Mine",
        "entity": "http://www.wikidata.org/entity/Q27530621",
        "country_qid": "Q1028",
        "Wikidata Qid": "Q27530621"
      }
    },
    {
      "type": "Feature",
      "geometry": {
        "type": "Point",
        "coordinates": [
          -8.410555555,
          32.2025
        ]
      },
      "properties": {
        "label": "Q29082158",
        "type": "Mine",
        "entity": "http://www.wikidata.org/entity/Q29082158",
        "country_qid": "Q1028",
        "Wikidata Qid": "Q29082158"
      }
    }
  ]
}