{
  "type": "FeatureCollection",
  "features": [
    {
      "type": "Feature",
      "geometry": {
        "type": "Point",
        "coordinates": [
          114.31388889,
          23.26861111
        ]
      },
      "properties": {
        "label": "Huizhou Pumped Storage Power Station",
        "type": "power plant",
        "entity": "http://www.wikidata.org/entity/Q1636201",
        "country_qid": "Q148",
        "Wikidata Qid": "Q1636201"
      }
    },
    {
      "type": "Feature",
      "geometry": {
        "type": "Point",
        "coordinates": [
          120.155,
          26.803611111
        ]
      },
      "properties": {
        "label": "Xiapu Nuclear Power Plant",
        "type": "power plant",
        "entity": "http://www.wikidata.org/entity/Q28409026",
        "country_qid": "Q148",
        "Wikidata Qid": "Q28409026"
      }
    },
    {
      "type": "Feature",
      "geometry": {
        "type": "Point",
        "coordinates": [
          114.823888888,
          27.7375
        ]
      },
      "properties": {
        "label": "Jiangxi Jiangkou Shuidianzhan",
        "type": "power plant",
        "entity": "http://www.wikidata.org/entity/Q29621988",
        "country_qid": "Q148",
        "Wikidata Qid": "Q29621988"
      }
    },
    {
      "type": "Feature",
      "geometry": {
        "type": "Point",
        "coordinates": [
          109.712777777,
          19.201944444
        ]
      },
      "properties": {
        "label": "Q84813343",
        "type": "power plant",
        "entity": "http://www.wikidata.org/entity/Q84813343",
        "country_qid": "Q148",
        "Wikidata Qid": "Q84813343"
      }
    },
    {
      "type": "Feature",
      "geometry": {
        "type": "Point",
        "coordinates": [
          120.5157494,
          27.2013582
        ]
      },
      "properties": {
        "label": "San'ao nuclear power plant",
        "type": "power plant",
        "entity": "http://www.wikidata.org/entity/Q109377736",
        "country_qid": "Q148",
        "Wikidata Qid": "Q109377736"
      }
    },
    {
      "type": "Feature",
      "geometry": {
        "type": "Point",
        "coordinates": [
          118.533,
          25.527
        ]
      },
      "properties": {
        "label": "Xianyou Pumped Storage Power Station",
        "type": "power plant",
        "entity": "http://www.wikidata.org/entity/Q17357745",
        "country_qid": "Q148",
        "Wikidata Qid": "Q17357745"
      }
    },
    {
      "type": "Feature",
      "geometry": {
        "type": "Point",
        "coordinates": [
          117.491666666,
          23.829166666
        ]
      },
      "properties": {
        "label": "Zhangzhou Nuclear Power Plant",
        "type": "power plant",
        "entity": "http://www.wikidata.org/entity/Q30894419",
        "country_qid": "Q148",
        "Wikidata Qid": "Q30894419"
      }
    },
    {
      "type": "Feature",
      "geometry": {
        "type": "Point",
        "coordinates": [
          113.272,
          38.5368
        ]
      },
      "properties": {
        "label": "Xilongchi Pumped Storage Power Station",
        "type": "power plant",
        "entity": "http://www.wikidata.org/entity/Q17363904",
        "country_qid": "Q148",
        "Wikidata Qid": "Q17363904"
      }
    },
    {
      "type": "Feature",
      "geometry": {
        "type": "Point",
        "coordinates": [
          118.27972222,
          40.38861111
        ]
      },
      "properties": {
        "label": "Panjiakou Dam",
        "type": "power plant",
        "entity": "http://www.wikidata.org/entity/Q3376682",
        "country_qid": "Q148",
        "Wikidata Qid": "Q3376682"
      }
    },
    {
      "type": "Feature",
      "geometry": {
        "type": "Point",
        "coordinates": [
          116.8275,
          40.482222222
        ]
      },
      "properties": {
        "label": "Q84812964",
        "type": "power plant",
        "entity": "http://www.wikidata.org/entity/Q84812964",
        "country_qid": "Q148",
        "Wikidata Qid": "Q84812964"
      }
    },
    {
      "type": "Feature",
      "geometry": {
        "type": "Point",
        "coordinates": [
          118.291,
          31.1133
        ]
      },
      "properties": {
        "label": "Xiangshuijian Pumped Storage Power Station",
        "type": "power plant",
        "entity": "http://www.wikidata.org/entity/Q17364455",
        "country_qid": "Q148",
        "Wikidata Qid": "Q17364455"
      }
    },
    {
      "type": "Feature",
      "geometry": {
        "type": "Point",
        "coordinates": [
          116.549444444,
          41.676111111
        ]
      },
      "properties": {
        "label": "Fengning Pumped Storage Power Station",
        "type": "power plant",
        "entity": "http://www.wikidata.org/entity/Q17382397",
        "country_qid": "Q148",
        "Wikidata Qid": "Q17382397"
      }
    },
    {
      "type": "Feature",
      "geometry": {
        "type": "Point",
        "coordinates": [
          114.000277777,
          38.317777777
        ]
      },
      "properties": {
        "label": "Q84813158",
        "type": "power plant",
        "entity": "http://www.wikidata.org/entity/Q84813158",
        "country_qid": "Q148",
        "Wikidata Qid": "Q84813158"
      }
    },
    {
      "type": "Feature",
      "geometry": {
        "type": "Point",
        "coordinates": [
          82.651111111,
          36.919722222
        ]
      },
      "properties": {
        "label": "Bayiba Shuidianzhan",
        "type": "power plant",
        "entity": "http://www.wikidata.org/entity/Q29613651",
        "country_qid": "Q148",
        "Wikidata Qid": "Q29613651"
      }
    },
    {
      "type": "Feature",
      "geometry": {
        "type": "Point",
        "coordinates": [
          117.026,
          23.4495
        ]
      },
      "properties": {
        "label": "Nan'ao Wind Farm",
        "type": "power plant",
        "entity": "http://www.wikidata.org/entity/Q65084402",
        "country_qid": "Q148",
        "Wikidata Qid": "Q65084402"
      }
    },
    {
      "type": "Feature",
      "geometry": {
        "type": "Point",
        "coordinates": [
          120.28333333,
          27.045
        ]
      },
      "properties": {
        "label": "Ningde Nuclear Power Plant",
        "type": "power plant",
        "entity": "http://www.wikidata.org/entity/Q835447",
        "country_qid": "Q148",
        "Wikidata Qid": "Q835447"
      }
    },
    {
      "type": "Feature",
      "geometry": {
        "type": "Point",
        "coordinates": [
          121.4938,
          31.2031
        ]
      },
      "properties": {
        "label": "Power Station of Art",
        "type": "power plant",
        "entity": "http://www.wikidata.org/entity/Q7236419",
        "country_qid": "Q148",
        "Wikidata Qid": "Q7236419"
      }
    },
    {
      "type": "Feature",
      "geometry": {
        "type": "Point",
        "coordinates": [
          127.22444444,
          42.72638889
        ]
      },
      "properties": {
        "label": "Baishan Dam",
        "type": "power plant",
        "entity": "http://www.wikidata.org/entity/Q803971",
        "country_qid": "Q148",
        "Wikidata Qid": "Q803971"
      }
    },
    {
      "type": "Feature",
      "geometry": {
        "type": "Point",
        "coordinates": [
          112.54083333,
          33.31861111
        ]
      },
      "properties": {
        "label": "Nanyang Nuclear Power Plant",
        "type": "power plant",
        "entity": "http://www.wikidata.org/entity/Q15938258",
        "country_qid": "Q148",
        "Wikidata Qid": "Q15938258"
      }
    },
    {
      "type": "Feature",
      "geometry": {
        "type": "Point",
        "coordinates": [
          115.447478,
          30.60267
        ]
      },
      "properties": {
        "label": "Bailianhe Pumped Storage Power Station",
        "type": "power plant",
        "entity": "http://www.wikidata.org/entity/Q4848427",
        "country_qid": "Q148",
        "Wikidata Qid": "Q4848427"
      }
    },
    {
      "type": "Feature",
      "geometry": {
        "type": "Point",
        "coordinates": [
          90.6064,
          29.2641
        ]
      },
      "properties": {
        "label": "Yamdrok Hydropower Station",
        "type": "power plant",
        "entity": "http://www.wikidata.org/entity/Q19841067",
        "country_qid": "Q148",
        "Wikidata Qid": "Q19841067"
      }
    },
    {
      "type": "Feature",
      "geometry": {
        "type": "Point",
        "coordinates": [
          112.509166666,
          33.608333333
        ]
      },
      "properties": {
        "label": "Q19374885",
        "type": "power plant",
        "entity": "http://www.wikidata.org/entity/Q19374885",
        "country_qid": "Q148",
        "Wikidata Qid": "Q19374885"
      }
    },
    {
      "type": "Feature",
      "geometry": {
        "type": "Point",
        "coordinates": [
          115.861666666,
          27.205555555
        ]
      },
      "properties": {
        "label": "Dongkou Shuidianzhan",
        "type": "power plant",
        "entity": "http://www.wikidata.org/entity/Q29614640",
        "country_qid": "Q148",
        "Wikidata Qid": "Q29614640"
      }
    },
    {
      "type": "Feature",
      "geometry": {
        "type": "Point",
        "coordinates": [
          113.57972222,
          22.13694444
        ]
      },
      "properties": {
        "label": "Coloane A Power Station",
        "type": "power plant",
        "entity": "http://www.wikidata.org/entity/Q15211263",
        "country_qid": "Q148",
        "Wikidata Qid": "Q15211263"
      }
    },
    {
      "type": "Feature",
      "geometry": {
        "type": "Point",
        "coordinates": [
          121.254722222,
          29.699444444
        ]
      },
      "properties": {
        "label": "Q84765508",
        "type": "power plant",
        "entity": "http://www.wikidata.org/entity/Q84765508",
        "country_qid": "Q148",
        "Wikidata Qid": "Q84765508"
      }
    },
    {
      "type": "Feature",
      "geometry": {
        "type": "Point",
        "coordinates": [
          119.758,
          31.3147
        ]
      },
      "properties": {
        "label": "Yixing Pumped Storage Power Station",
        "type": "power plant",
        "entity": "http://www.wikidata.org/entity/Q17406222",
        "country_qid": "Q148",
        "Wikidata Qid": "Q17406222"
      }
    },
    {
      "type": "Feature",
      "geometry": {
        "type": "Point",
        "coordinates": [
          128.0882028,
          44.0132667
        ]
      },
      "properties": {
        "label": "Dunhua Pumped-storage Hydro Power Station",
        "type": "power plant",
        "entity": "http://www.wikidata.org/entity/Q107143123",
        "country_qid": "Q148",
        "Wikidata Qid": "Q107143123"
      }
    },
    {
      "type": "Feature",
      "geometry": {
        "type": "Point",
        "coordinates": [
          114.193739,
          22.290153
        ]
      },
      "properties": {
        "label": "North Point Power Station",
        "type": "power plant",
        "entity": "http://www.wikidata.org/entity/Q7056385",
        "country_qid": "Q148",
        "Wikidata Qid": "Q7056385"
      }
    },
    {
      "type": "Feature",
      "geometry": {
        "type": "Point",
        "coordinates": [
          120.5465412,
          40.351352
        ]
      },
      "properties": {
        "label": "Xudabao Nuclear Power Plant",
        "type": "power plant",
        "entity": "http://www.wikidata.org/entity/Q28223974",
        "country_qid": "Q148",
        "Wikidata Qid": "Q28223974"
      }
    },
    {
      "type": "Feature",
      "geometry": {
        "type": "Point",
        "coordinates": [
          116.477255555,
          39.907452777
        ]
      },
      "properties": {
        "label": "Guohua Beijing Thermal Power Plant",
        "type": "power plant",
        "entity": "http://www.wikidata.org/entity/Q17029483",
        "country_qid": "Q148",
        "Wikidata Qid": "Q17029483"
      }
    },
    {
      "type": "Feature",
      "geometry": {
        "type": "Point",
        "coordinates": [
          114.120555555,
          22.225
        ]
      },
      "properties": {
        "label": "Lamma Winds",
        "type": "power plant",
        "entity": "http://www.wikidata.org/entity/Q6482068",
        "country_qid": "Q148",
        "Wikidata Qid": "Q6482068"
      }
    },
    {
      "type": "Feature",
      "geometry": {
        "type": "Point",
        "coordinates": [
          115.613888888,
          31.083055555
        ]
      },
      "properties": {
        "label": "Q84813294",
        "type": "power plant",
        "entity": "http://www.wikidata.org/entity/Q84813294",
        "country_qid": "Q148",
        "Wikidata Qid": "Q84813294"
      }
    },
    {
      "type": "Feature",
      "geometry": {
        "type": "Point",
        "coordinates": [
          119.37638889,
          31.23805556
        ]
      },
      "properties": {
        "label": "Liyang Pumped Storage Power Station",
        "type": "power plant",
        "entity": "http://www.wikidata.org/entity/Q6660012",
        "country_qid": "Q148",
        "Wikidata Qid": "Q6660012"
      }
    },
    {
      "type": "Feature",
      "geometry": {
        "type": "Point",
        "coordinates": [
          120.9581,
          30.43598333
        ]
      },
      "properties": {
        "label": "Qinshan Nuclear Power Plant",
        "type": "power plant",
        "entity": "http://www.wikidata.org/entity/Q1483977",
        "country_qid": "Q148",
        "Wikidata Qid": "Q1483977"
      }
    },
    {
      "type": "Feature",
      "geometry": {
        "type": "Point",
        "coordinates": [
          114.978919,
          22.695437
        ]
      },
      "properties": {
        "label": "Taipingling Nuclear Power Plant",
        "type": "power plant",
        "entity": "http://www.wikidata.org/entity/Q85860592",
        "country_qid": "Q148",
        "Wikidata Qid": "Q85860592"
      }
    },
    {
      "type": "Feature",
      "geometry": {
        "type": "Point",
        "coordinates": [
          118.07005,
          35.41828
        ]
      },
      "properties": {
        "label": "Q126719855",
        "type": "power plant",
        "entity": "http://www.wikidata.org/entity/Q126719855",
        "country_qid": "Q148",
        "Wikidata Qid": "Q126719855"
      }
    },
    {
      "type": "Feature",
      "geometry": {
        "type": "Point",
        "coordinates": [
          118.765277777,
          26.460555555
        ]
      },
      "properties": {
        "label": "Gutianxi Shuidianzhan",
        "type": "power plant",
        "entity": "http://www.wikidata.org/entity/Q29618690",
        "country_qid": "Q148",
        "Wikidata Qid": "Q29618690"
      }
    },
    {
      "type": "Feature",
      "geometry": {
        "type": "Point",
        "coordinates": [
          115.8,
          22.75
        ]
      },
      "properties": {
        "label": "Lufeng Nuclear Power Plant",
        "type": "power plant",
        "entity": "http://www.wikidata.org/entity/Q3664621",
        "country_qid": "Q148",
        "Wikidata Qid": "Q3664621"
      }
    },
    {
      "type": "Feature",
      "geometry": {
        "type": "Point",
        "coordinates": [
          108.898838,
          19.459916
        ]
      },
      "properties": {
        "label": "Changjiang Nuclear Power Plant",
        "type": "power plant",
        "entity": "http://www.wikidata.org/entity/Q136274",
        "country_qid": "Q148",
        "Wikidata Qid": "Q136274"
      }
    },
    {
      "type": "Feature",
      "geometry": {
        "type": "Point",
        "coordinates": [
          114.058,
          37.7743
        ]
      },
      "properties": {
        "label": "Zhanghewan Pumped Storage Power Station",
        "type": "power plant",
        "entity": "http://www.wikidata.org/entity/Q12011190",
        "country_qid": "Q148",
        "Wikidata Qid": "Q12011190"
      }
    },
    {
      "type": "Feature",
      "geometry": {
        "type": "Point",
        "coordinates": [
          115.312777777,
          28.338333333
        ]
      },
      "properties": {
        "label": "Guabangshan Shuidianzhan",
        "type": "power plant",
        "entity": "http://www.wikidata.org/entity/Q29618330",
        "country_qid": "Q148",
        "Wikidata Qid": "Q29618330"
      }
    },
    {
      "type": "Feature",
      "geometry": {
        "type": "Point",
        "coordinates": [
          120.941758,
          30.441342
        ]
      },
      "properties": {
        "label": "Fangjiashan Nuclear Power Plant",
        "type": "power plant",
        "entity": "http://www.wikidata.org/entity/Q1029360",
        "country_qid": "Q148",
        "Wikidata Qid": "Q1029360"
      }
    },
    {
      "type": "Feature",
      "geometry": {
        "type": "Point",
        "coordinates": [
          118.7825,
          30.18527778
        ]
      },
      "properties": {
        "label": "Jixi Pumped Storage Power Station",
        "type": "power plant",
        "entity": "http://www.wikidata.org/entity/Q6203511",
        "country_qid": "Q148",
        "Wikidata Qid": "Q6203511"
      }
    },
    {
      "type": "Feature",
      "geometry": {
        "type": "Point",
        "coordinates": [
          121.588888888,
          29.396944444
        ]
      },
      "properties": {
        "label": "Q84765512",
        "type": "power plant",
        "entity": "http://www.wikidata.org/entity/Q84765512",
        "country_qid": "Q148",
        "Wikidata Qid": "Q84765512"
      }
    },
    {
      "type": "Feature",
      "geometry": {
        "type": "Point",
        "coordinates": [
          111.68833333,
          40.98722222
        ]
      },
      "properties": {
        "label": "Hohhot Pumped Storage Power Station",
        "type": "power plant",
        "entity": "http://www.wikidata.org/entity/Q5877631",
        "country_qid": "Q148",
        "Wikidata Qid": "Q5877631"
      }
    },
    {
      "type": "Feature",
      "geometry": {
        "type": "Point",
        "coordinates": [
          113.95333333,
          23.76444444
        ]
      },
      "properties": {
        "label": "Guangdong Pumped Storage Power Station",
        "type": "power plant",
        "entity": "http://www.wikidata.org/entity/Q1079481",
        "country_qid": "Q148",
        "Wikidata Qid": "Q1079481"
      }
    },
    {
      "type": "Feature",
      "geometry": {
        "type": "Point",
        "coordinates": [
          106.86351667,
          39.65788611
        ]
      },
      "properties": {
        "label": "Q10883204",
        "type": "power plant",
        "entity": "http://www.wikidata.org/entity/Q10883204",
        "country_qid": "Q148",
        "Wikidata Qid": "Q10883204"
      }
    },
    {
      "type": "Feature",
      "geometry": {
        "type": "Point",
        "coordinates": [
          112.82638889,
          29.7375
        ]
      },
      "properties": {
        "label": "Q3664633",
        "type": "power plant",
        "entity": "http://www.wikidata.org/entity/Q3664633",
        "country_qid": "Q148",
        "Wikidata Qid": "Q3664633"
      }
    },
    {
      "type": "Feature",
      "geometry": {
        "type": "Point",
        "coordinates": [
          108.562731597,
          21.667305748
        ]
      },
      "properties": {
        "label": "Fangchenggang Nuclear Power Plant",
        "type": "power plant",
        "entity": "http://www.wikidata.org/entity/Q135679",
        "country_qid": "Q148",
        "Wikidata Qid": "Q135679"
      }
    },
    {
      "type": "Feature",
      "geometry": {
        "type": "Point",
        "coordinates": [
          90.606388888,
          29.263888888
        ]
      },
      "properties": {
        "label": "Q84812389",
        "type": "power plant",
        "entity": "http://www.wikidata.org/entity/Q84812389",
        "country_qid": "Q148",
        "Wikidata Qid": "Q84812389"
      }
    },
    {
      "type": "Feature",
      "geometry": {
        "type": "Point",
        "coordinates": [
          120.189166666,
          28.534722222
        ]
      },
      "properties": {
        "label": "Q84765493",
        "type": "power plant",
        "entity": "http://www.wikidata.org/entity/Q84765493",
        "country_qid": "Q148",
        "Wikidata Qid": "Q84765493"
      }
    },
    {
      "type": "Feature",
      "geometry": {
        "type": "Point",
        "coordinates": [
          114.55148889,
          22.60478889
        ]
      },
      "properties": {
        "label": "Ling Ao Nuclear Power Plant",
        "type": "power plant",
        "entity": "http://www.wikidata.org/entity/Q1739439",
        "country_qid": "Q148",
        "Wikidata Qid": "Q1739439"
      }
    },
    {
      "type": "Feature",
      "geometry": {
        "type": "Point",
        "coordinates": [
          121.38333333,
          36.70833333
        ]
      },
      "properties": {
        "label": "Haiyang Nuclear Power Plant",
        "type": "power plant",
        "entity": "http://www.wikidata.org/entity/Q1029384",
        "country_qid": "Q148",
        "Wikidata Qid": "Q1029384"
      }
    },
    {
      "type": "Feature",
      "geometry": {
        "type": "Point",
        "coordinates": [
          115.757,
          40.343
        ]
      },
      "properties": {
        "label": "Guanting Wind Power Farm",
        "type": "power plant",
        "entity": "http://www.wikidata.org/entity/Q19360154",
        "country_qid": "Q148",
        "Wikidata Qid": "Q19360154"
      }
    },
    {
      "type": "Feature",
      "geometry": {
        "type": "Point",
        "coordinates": [
          115.461111111,
          27.390277777
        ]
      },
      "properties": {
        "label": "Baishuimen Shuidianzhan",
        "type": "power plant",
        "entity": "http://www.wikidata.org/entity/Q29613592",
        "country_qid": "Q148",
        "Wikidata Qid": "Q29613592"
      }
    },
    {
      "type": "Feature",
      "geometry": {
        "type": "Point",
        "coordinates": [
          107.507,
          29.5569
        ]
      },
      "properties": {
        "label": "816 Nuclear Military Plant",
        "type": "power plant",
        "entity": "http://www.wikidata.org/entity/Q4644510",
        "country_qid": "Q148",
        "Wikidata Qid": "Q4644510"
      }
    },
    {
      "type": "Feature",
      "geometry": {
        "type": "Point",
        "coordinates": [
          116.146111111,
          31.559722222
        ]
      },
      "properties": {
        "label": "Q84811298",
        "type": "power plant",
        "entity": "http://www.wikidata.org/entity/Q84811298",
        "country_qid": "Q148",
        "Wikidata Qid": "Q84811298"
      }
    },
    {
      "type": "Feature",
      "geometry": {
        "type": "Point",
        "coordinates": [
          114.508055555,
          27.859166666
        ]
      },
      "properties": {
        "label": "Matan Shuidianzhan",
        "type": "power plant",
        "entity": "http://www.wikidata.org/entity/Q29625626",
        "country_qid": "Q148",
        "Wikidata Qid": "Q29625626"
      }
    },
    {
      "type": "Feature",
      "geometry": {
        "type": "Point",
        "coordinates": [
          113.47138889,
          35.46777778
        ]
      },
      "properties": {
        "label": "Baoquan Pumped Storage Power Station",
        "type": "power plant",
        "entity": "http://www.wikidata.org/entity/Q4857466",
        "country_qid": "Q148",
        "Wikidata Qid": "Q4857466"
      }
    },
    {
      "type": "Feature",
      "geometry": {
        "type": "Point",
        "coordinates": [
          121.9448,
          29.0564
        ]
      },
      "properties": {
        "label": "Jinqimen Nuclear Power Plant",
        "type": "power plant",
        "entity": "http://www.wikidata.org/entity/Q124739962",
        "country_qid": "Q148",
        "Wikidata Qid": "Q124739962"
      }
    },
    {
      "type": "Feature",
      "geometry": {
        "type": "Point",
        "coordinates": [
          118.27,
          32.307
        ]
      },
      "properties": {
        "label": "Q11983208",
        "type": "power plant",
        "entity": "http://www.wikidata.org/entity/Q11983208",
        "country_qid": "Q148",
        "Wikidata Qid": "Q11983208"
      }
    },
    {
      "type": "Feature",
      "geometry": {
        "type": "Point",
        "coordinates": [
          117.043,
          36.2254
        ]
      },
      "properties": {
        "label": "Tai'an Pumped Storage Power Station",
        "type": "power plant",
        "entity": "http://www.wikidata.org/entity/Q10379918",
        "country_qid": "Q148",
        "Wikidata Qid": "Q10379918"
      }
    },
    {
      "type": "Feature",
      "geometry": {
        "type": "Point",
        "coordinates": [
          121.64194444,
          29.10111111
        ]
      },
      "properties": {
        "label": "Sanmen Nuclear Power Station",
        "type": "power plant",
        "entity": "http://www.wikidata.org/entity/Q1029398",
        "country_qid": "Q148",
        "Wikidata Qid": "Q1029398"
      }
    },
    {
      "type": "Feature",
      "geometry": {
        "type": "Point",
        "coordinates": [
          129.701,
          45.3431
        ]
      },
      "properties": {
        "label": "Huanggou Pumped Storage Power Station",
        "type": "power plant",
        "entity": "http://www.wikidata.org/entity/Q11976006",
        "country_qid": "Q148",
        "Wikidata Qid": "Q11976006"
      }
    },
    {
      "type": "Feature",
      "geometry": {
        "type": "Point",
        "coordinates": [
          119.254166666,
          32.083333333
        ]
      },
      "properties": {
        "label": "Q84812803",
        "type": "power plant",
        "entity": "http://www.wikidata.org/entity/Q84812803",
        "country_qid": "Q148",
        "Wikidata Qid": "Q84812803"
      }
    },
    {
      "type": "Feature",
      "geometry": {
        "type": "Point",
        "coordinates": [
          115.318,
          29.0664
        ]
      },
      "properties": {
        "label": "Hongping Pumped Storage Power Station",
        "type": "power plant",
        "entity": "http://www.wikidata.org/entity/Q17422182",
        "country_qid": "Q148",
        "Wikidata Qid": "Q17422182"
      }
    },
    {
      "type": "Feature",
      "geometry": {
        "type": "Point",
        "coordinates": [
          114.54323056,
          22.59726389
        ]
      },
      "properties": {
        "label": "Daya Bay Nuclear Power Plant",
        "type": "power plant",
        "entity": "http://www.wikidata.org/entity/Q964007",
        "country_qid": "Q148",
        "Wikidata Qid": "Q964007"
      }
    },
    {
      "type": "Feature",
      "geometry": {
        "type": "Point",
        "coordinates": [
          113.01,
          28.45972222
        ]
      },
      "properties": {
        "label": "Heimifeng Pumped Storage Power Station",
        "type": "power plant",
        "entity": "http://www.wikidata.org/entity/Q5699602",
        "country_qid": "Q148",
        "Wikidata Qid": "Q5699602"
      }
    },
    {
      "type": "Feature",
      "geometry": {
        "type": "Point",
        "coordinates": [
          129.567777777,
          49.276111111
        ]
      },
      "properties": {
        "label": "Jiayinxian Fadianchang",
        "type": "power plant",
        "entity": "http://www.wikidata.org/entity/Q29622024",
        "country_qid": "Q148",
        "Wikidata Qid": "Q29622024"
      }
    },
    {
      "type": "Feature",
      "geometry": {
        "type": "Point",
        "coordinates": [
          119.608888888,
          30.489444444
        ]
      },
      "properties": {
        "label": "Q84765522",
        "type": "power plant",
        "entity": "http://www.wikidata.org/entity/Q84765522",
        "country_qid": "Q148",
        "Wikidata Qid": "Q84765522"
      }
    },
    {
      "type": "Feature",
      "geometry": {
        "type": "Point",
        "coordinates": [
          106.3,
          30.99
        ]
      },
      "properties": {
        "label": "Sanba Nuclear Power Plant",
        "type": "power plant",
        "entity": "http://www.wikidata.org/entity/Q17012735",
        "country_qid": "Q148",
        "Wikidata Qid": "Q17012735"
      }
    },
    {
      "type": "Feature",
      "geometry": {
        "type": "Point",
        "coordinates": [
          120.51252,
          27.20158
        ]
      },
      "properties": {
        "label": "San'ao Nuclear Power Plant",
        "type": "power plant",
        "entity": "http://www.wikidata.org/entity/Q112150280",
        "country_qid": "Q148",
        "Wikidata Qid": "Q112150280"
      }
    },
    {
      "type": "Feature",
      "geometry": {
        "type": "Point",
        "coordinates": [
          120.998,
          29.2031
        ]
      },
      "properties": {
        "label": "Tongbai Pumped Storage Power Station",
        "type": "power plant",
        "entity": "http://www.wikidata.org/entity/Q12006764",
        "country_qid": "Q148",
        "Wikidata Qid": "Q12006764"
      }
    },
    {
      "type": "Feature",
      "geometry": {
        "type": "Point",
        "coordinates": [
          116.1433572,
          39.8132625
        ]
      },
      "properties": {
        "label": "Jing Feng Thermal Gas Power Station",
        "type": "power plant",
        "entity": "http://www.wikidata.org/entity/Q19360127",
        "country_qid": "Q148",
        "Wikidata Qid": "Q19360127"
      }
    },
    {
      "type": "Feature",
      "geometry": {
        "type": "Point",
        "coordinates": [
          119.60583333,
          30.47027778
        ]
      },
      "properties": {
        "label": "Tianhuangping Pumped Storage Power Station",
        "type": "power plant",
        "entity": "http://www.wikidata.org/entity/Q3436035",
        "country_qid": "Q148",
        "Wikidata Qid": "Q3436035"
      }
    },
    {
      "type": "Feature",
      "geometry": {
        "type": "Point",
        "coordinates": [
          96.902222222,
          40.199722222
        ]
      },
      "properties": {
        "label": "Gansu Wind Farm",
        "type": "power plant",
        "entity": "http://www.wikidata.org/entity/Q32243",
        "country_qid": "Q148",
        "Wikidata Qid": "Q32243"
      }
    },
    {
      "type": "Feature",
      "geometry": {
        "type": "Point",
        "coordinates": [
          114.67,
          29.66
        ]
      },
      "properties": {
        "label": "Xianning Nuclear Power Plant",
        "type": "power plant",
        "entity": "http://www.wikidata.org/entity/Q135639",
        "country_qid": "Q148",
        "Wikidata Qid": "Q135639"
      }
    },
    {
      "type": "Feature",
      "geometry": {
        "type": "Point",
        "coordinates": [
          109.806944444,
          21.554166666
        ]
      },
      "properties": {
        "label": "Lianjiang Nuclear Power Plant",
        "type": "power plant",
        "entity": "http://www.wikidata.org/entity/Q123002687",
        "country_qid": "Q148",
        "Wikidata Qid": "Q123002687"
      }
    },
    {
      "type": "Feature",
      "geometry": {
        "type": "Point",
        "coordinates": [
          124.6999,
          40.425
        ]
      },
      "properties": {
        "label": "Pushihe Pumped Storage Power Station",
        "type": "power plant",
        "entity": "http://www.wikidata.org/entity/Q11996508",
        "country_qid": "Q148",
        "Wikidata Qid": "Q11996508"
      }
    },
    {
      "type": "Feature",
      "geometry": {
        "type": "Point",
        "coordinates": [
          112.982,
          21.918
        ]
      },
      "properties": {
        "label": "Taishan Nuclear Power Plant",
        "type": "power plant",
        "entity": "http://www.wikidata.org/entity/Q1519910",
        "country_qid": "Q148",
        "Wikidata Qid": "Q1519910"
      }
    },
    {
      "type": "Feature",
      "geometry": {
        "type": "Point",
        "coordinates": [
          114.096212,
          22.328983
        ]
      },
      "properties": {
        "label": "Tsing Yi Power Station",
        "type": "power plant",
        "entity": "http://www.wikidata.org/entity/Q16924048",
        "country_qid": "Q148",
        "Wikidata Qid": "Q16924048"
      }
    },
    {
      "type": "Feature",
      "geometry": {
        "type": "Point",
        "coordinates": [
          116.030139,
          39.740929
        ]
      },
      "properties": {
        "label": "China Experimental Fast Reactor",
        "type": "power plant",
        "entity": "http://www.wikidata.org/entity/Q1840807",
        "country_qid": "Q148",
        "Wikidata Qid": "Q1840807"
      }
    },
    {
      "type": "Feature",
      "geometry": {
        "type": "Point",
        "coordinates": [
          119.459722222,
          34.686944444
        ]
      },
      "properties": {
        "label": "Tianwan Nuclear Power Plant",
        "type": "power plant",
        "entity": "http://www.wikidata.org/entity/Q1739478",
        "country_qid": "Q148",
        "Wikidata Qid": "Q1739478"
      }
    },
    {
      "type": "Feature",
      "geometry": {
        "type": "Point",
        "coordinates": [
          114.253333333,
          22.6525
        ]
      },
      "properties": {
        "label": "Shenzhen Pumped Storage Power Station",
        "type": "power plant",
        "entity": "http://www.wikidata.org/entity/Q84765477",
        "country_qid": "Q148",
        "Wikidata Qid": "Q84765477"
      }
    },
    {
      "type": "Feature",
      "geometry": {
        "type": "Point",
        "coordinates": [
          119.428055555,
          31.286666666
        ]
      },
      "properties": {
        "label": "Q16914150",
        "type": "power plant",
        "entity": "http://www.wikidata.org/entity/Q16914150",
        "country_qid": "Q148",
        "Wikidata Qid": "Q16914150"
      }
    },
    {
      "type": "Feature",
      "geometry": {
        "type": "Point",
        "coordinates": [
          116.26861111,
          40.25555556
        ]
      },
      "properties": {
        "label": "Shisanling Pumped Storage Power Station",
        "type": "power plant",
        "entity": "http://www.wikidata.org/entity/Q7499054",
        "country_qid": "Q148",
        "Wikidata Qid": "Q7499054"
      }
    },
    {
      "type": "Feature",
      "geometry": {
        "type": "Point",
        "coordinates": [
          120.401111111,
          28.641666666
        ]
      },
      "properties": {
        "label": "Q19398776",
        "type": "power plant",
        "entity": "http://www.wikidata.org/entity/Q19398776",
        "country_qid": "Q148",
        "Wikidata Qid": "Q19398776"
      }
    },
    {
      "type": "Feature",
      "geometry": {
        "type": "Point",
        "coordinates": [
          108.293888888,
          21.545277777
        ]
      },
      "properties": {
        "label": "Guangxi Bailong Nuclear Power Project",
        "type": "power plant",
        "entity": "http://www.wikidata.org/entity/Q85764720",
        "country_qid": "Q148",
        "Wikidata Qid": "Q85764720"
      }
    },
    {
      "type": "Feature",
      "geometry": {
        "type": "Point",
        "coordinates": [
          122.528888888,
          36.972222222
        ]
      },
      "properties": {
        "label": "Shidao Bay Nuclear Power Plant",
        "type": "power plant",
        "entity": "http://www.wikidata.org/entity/Q14159771",
        "country_qid": "Q148",
        "Wikidata Qid": "Q14159771"
      }
    },
    {
      "type": "Feature",
      "geometry": {
        "type": "Point",
        "coordinates": [
          103.632222222,
          29.500277777
        ]
      },
      "properties": {
        "label": "Angu Hydropower Station",
        "type": "power plant",
        "entity": "http://www.wikidata.org/entity/Q17748600",
        "country_qid": "Q148",
        "Wikidata Qid": "Q17748600"
      }
    },
    {
      "type": "Feature",
      "geometry": {
        "type": "Point",
        "coordinates": [
          121.475,
          39.80194444
        ]
      },
      "properties": {
        "label": "Hongyanhe Nuclear Power Plant",
        "type": "power plant",
        "entity": "http://www.wikidata.org/entity/Q132171",
        "country_qid": "Q148",
        "Wikidata Qid": "Q132171"
      }
    },
    {
      "type": "Feature",
      "geometry": {
        "type": "Point",
        "coordinates": [
          112.261,
          21.7083
        ]
      },
      "properties": {
        "label": "Yangjiang Nuclear Power Station",
        "type": "power plant",
        "entity": "http://www.wikidata.org/entity/Q1029375",
        "country_qid": "Q148",
        "Wikidata Qid": "Q1029375"
      }
    },
    {
      "type": "Feature",
      "geometry": {
        "type": "Point",
        "coordinates": [
          106.82916667,
          39.7065
        ]
      },
      "properties": {
        "label": "Q10878138",
        "type": "power plant",
        "entity": "http://www.wikidata.org/entity/Q10878138",
        "country_qid": "Q148",
        "Wikidata Qid": "Q10878138"
      }
    },
    {
      "type": "Feature",
      "geometry": {
        "type": "Point",
        "coordinates": [
          112.862,
          23.7364
        ]
      },
      "properties": {
        "label": "Qingyuan Pumped Storage Power Station",
        "type": "power plant",
        "entity": "http://www.wikidata.org/entity/Q11996698",
        "country_qid": "Q148",
        "Wikidata Qid": "Q11996698"
      }
    },
    {
      "type": "Feature",
      "geometry": {
        "type": "Point",
        "coordinates": [
          119.44722222,
          25.44583333
        ]
      },
      "properties": {
        "label": "Fuqing Nuclear Power Plant",
        "type": "power plant",
        "entity": "http://www.wikidata.org/entity/Q586892",
        "country_qid": "Q148",
        "Wikidata Qid": "Q586892"
      }
    },
    {
      "type": "Feature",
      "geometry": {
        "type": "Point",
        "coordinates": [
          114.241666666,
          23.534444444
        ]
      },
      "properties": {
        "label": "Luxi Shuidianzhan",
        "type": "power plant",
        "entity": "http://www.wikidata.org/entity/Q29625247",
        "country_qid": "Q148",
        "Wikidata Qid": "Q29625247"
      }
    },
    {
      "type": "Feature",
      "geometry": {
        "type": "Point",
        "coordinates": [
          104.6833402,
          25.1999369
        ]
      },
      "properties": {
        "label": "Yunnan Diandong Energy",
        "type": "power plant",
        "entity": "http://www.wikidata.org/entity/Q17766422",
        "country_qid": "Q148",
        "Wikidata Qid": "Q17766422"
      }
    },
    {
      "type": "Feature",
      "geometry": {
        "type": "Point",
        "coordinates": [
          108.63619995,
          19.04920006
        ]
      },
      "properties": {
        "label": "Huaneng Dongfang Power Plant",
        "type": "power plant",
        "entity": "http://www.wikidata.org/entity/Q17779743",
        "country_qid": "Q148",
        "Wikidata Qid": "Q17779743"
      }
    },
    {
      "type": "Feature",
      "geometry": {
        "type": "Point",
        "coordinates": [
          126.01611,
          41.78111
        ]
      },
      "properties": {
        "label": "Q17769742",
        "type": "power plant",
        "entity": "http://www.wikidata.org/entity/Q17769742",
        "country_qid": "Q148",
        "Wikidata Qid": "Q17769742"
      }
    },
    {
      "type": "Feature",
      "geometry": {
        "type": "Point",
        "coordinates": [
          82.8865,
          41.7383
        ]
      },
      "properties": {
        "label": "Q19378453",
        "type": "power plant",
        "entity": "http://www.wikidata.org/entity/Q19378453",
        "country_qid": "Q148",
        "Wikidata Qid": "Q19378453"
      }
    },
    {
      "type": "Feature",
      "geometry": {
        "type": "Point",
        "coordinates": [
          114.6178,
          27.776
        ]
      },
      "properties": {
        "label": "Q17770847",
        "type": "power plant",
        "entity": "http://www.wikidata.org/entity/Q17770847",
        "country_qid": "Q148",
        "Wikidata Qid": "Q17770847"
      }
    },
    {
      "type": "Feature",
      "geometry": {
        "type": "Point",
        "coordinates": [
          117.0855,
          29.188
        ]
      },
      "properties": {
        "label": "Jingdezhen power station",
        "type": "power plant",
        "entity": "http://www.wikidata.org/entity/Q19376309",
        "country_qid": "Q148",
        "Wikidata Qid": "Q19376309"
      }
    },
    {
      "type": "Feature",
      "geometry": {
        "type": "Point",
        "coordinates": [
          117.2225,
          28.2883
        ]
      },
      "properties": {
        "label": "Q17779342",
        "type": "power plant",
        "entity": "http://www.wikidata.org/entity/Q17779342",
        "country_qid": "Q148",
        "Wikidata Qid": "Q17779342"
      }
    },
    {
      "type": "Feature",
      "geometry": {
        "type": "Point",
        "coordinates": [
          114.1395,
          32.1095
        ]
      },
      "properties": {
        "label": "Q19374874",
        "type": "power plant",
        "entity": "http://www.wikidata.org/entity/Q19374874",
        "country_qid": "Q148",
        "Wikidata Qid": "Q19374874"
      }
    },
    {
      "type": "Feature",
      "geometry": {
        "type": "Point",
        "coordinates": [
          121.5518761,
          31.2706832
        ]
      },
      "properties": {
        "label": "Yangshupu Power Plant",
        "type": "power plant",
        "entity": "http://www.wikidata.org/entity/Q15709505",
        "country_qid": "Q148",
        "Wikidata Qid": "Q15709505"
      }
    },
    {
      "type": "Feature",
      "geometry": {
        "type": "Point",
        "coordinates": [
          119.7625,
          26.3732
        ]
      },
      "properties": {
        "label": "Q19377067",
        "type": "power plant",
        "entity": "http://www.wikidata.org/entity/Q19377067",
        "country_qid": "Q148",
        "Wikidata Qid": "Q19377067"
      }
    },
    {
      "type": "Feature",
      "geometry": {
        "type": "Point",
        "coordinates": [
          119.9924,
          31.9584
        ]
      },
      "properties": {
        "label": "Q17762125",
        "type": "power plant",
        "entity": "http://www.wikidata.org/entity/Q17762125",
        "country_qid": "Q148",
        "Wikidata Qid": "Q17762125"
      }
    },
    {
      "type": "Feature",
      "geometry": {
        "type": "Point",
        "coordinates": [
          130.29099,
          42.89643
        ]
      },
      "properties": {
        "label": "Q19374924",
        "type": "power plant",
        "entity": "http://www.wikidata.org/entity/Q19374924",
        "country_qid": "Q148",
        "Wikidata Qid": "Q19374924"
      }
    },
    {
      "type": "Feature",
      "geometry": {
        "type": "Point",
        "coordinates": [
          117.9319,
          34.3485
        ]
      },
      "properties": {
        "label": "Q17764887",
        "type": "power plant",
        "entity": "http://www.wikidata.org/entity/Q17764887",
        "country_qid": "Q148",
        "Wikidata Qid": "Q17764887"
      }
    },
    {
      "type": "Feature",
      "geometry": {
        "type": "Point",
        "coordinates": [
          106.7866639,
          35.5011528
        ]
      },
      "properties": {
        "label": "Huaneng Pingliang Power Plant",
        "type": "power plant",
        "entity": "http://www.wikidata.org/entity/Q19374861",
        "country_qid": "Q148",
        "Wikidata Qid": "Q19374861"
      }
    },
    {
      "type": "Feature",
      "geometry": {
        "type": "Point",
        "coordinates": [
          112.797,
          28.4892
        ]
      },
      "properties": {
        "label": "Q17762121",
        "type": "power plant",
        "entity": "http://www.wikidata.org/entity/Q17762121",
        "country_qid": "Q148",
        "Wikidata Qid": "Q17762121"
      }
    },
    {
      "type": "Feature",
      "geometry": {
        "type": "Point",
        "coordinates": [
          117.494,
          38.775
        ]
      },
      "properties": {
        "label": "Q19372352",
        "type": "power plant",
        "entity": "http://www.wikidata.org/entity/Q19372352",
        "country_qid": "Q148",
        "Wikidata Qid": "Q19372352"
      }
    },
    {
      "type": "Feature",
      "geometry": {
        "type": "Point",
        "coordinates": [
          116.8588,
          33.868
        ]
      },
      "properties": {
        "label": "Q19374857",
        "type": "power plant",
        "entity": "http://www.wikidata.org/entity/Q19374857",
        "country_qid": "Q148",
        "Wikidata Qid": "Q19374857"
      }
    },
    {
      "type": "Feature",
      "geometry": {
        "type": "Point",
        "coordinates": [
          113.2,
          34.3926
        ]
      },
      "properties": {
        "label": "Q17765841",
        "type": "power plant",
        "entity": "http://www.wikidata.org/entity/Q17765841",
        "country_qid": "Q148",
        "Wikidata Qid": "Q17765841"
      }
    },
    {
      "type": "Feature",
      "geometry": {
        "type": "Point",
        "coordinates": [
          122.77556,
          45.52583
        ]
      },
      "properties": {
        "label": "Q17749770",
        "type": "power plant",
        "entity": "http://www.wikidata.org/entity/Q17749770",
        "country_qid": "Q148",
        "Wikidata Qid": "Q17749770"
      }
    },
    {
      "type": "Feature",
      "geometry": {
        "type": "Point",
        "coordinates": [
          121.2157,
          41.1399
        ]
      },
      "properties": {
        "label": "Q17764878",
        "type": "power plant",
        "entity": "http://www.wikidata.org/entity/Q17764878",
        "country_qid": "Q148",
        "Wikidata Qid": "Q17764878"
      }
    },
    {
      "type": "Feature",
      "geometry": {
        "type": "Point",
        "coordinates": [
          104.6701215,
          28.2694356
        ]
      },
      "properties": {
        "label": "Q17776595",
        "type": "power plant",
        "entity": "http://www.wikidata.org/entity/Q17776595",
        "country_qid": "Q148",
        "Wikidata Qid": "Q17776595"
      }
    },
    {
      "type": "Feature",
      "geometry": {
        "type": "Point",
        "coordinates": [
          121.434,
          41.7845
        ]
      },
      "properties": {
        "label": "Q17775536",
        "type": "power plant",
        "entity": "http://www.wikidata.org/entity/Q17775536",
        "country_qid": "Q148",
        "Wikidata Qid": "Q17775536"
      }
    },
    {
      "type": "Feature",
      "geometry": {
        "type": "Point",
        "coordinates": [
          121.50944444,
          29.4825
        ]
      },
      "properties": {
        "label": "Ninghai Power Station",
        "type": "power plant",
        "entity": "http://www.wikidata.org/entity/Q17028112",
        "country_qid": "Q148",
        "Wikidata Qid": "Q17028112"
      }
    },
    {
      "type": "Feature",
      "geometry": {
        "type": "Point",
        "coordinates": [
          116.9831407,
          33.654995
        ]
      },
      "properties": {
        "label": "Huadian Suzhou Power Plant",
        "type": "power plant",
        "entity": "http://www.wikidata.org/entity/Q19374854",
        "country_qid": "Q148",
        "Wikidata Qid": "Q19374854"
      }
    },
    {
      "type": "Feature",
      "geometry": {
        "type": "Point",
        "coordinates": [
          118.8656,
          30.869
        ]
      },
      "properties": {
        "label": "Xuancheng Power Station",
        "type": "power plant",
        "entity": "http://www.wikidata.org/entity/Q17779487",
        "country_qid": "Q148",
        "Wikidata Qid": "Q17779487"
      }
    },
    {
      "type": "Feature",
      "geometry": {
        "type": "Point",
        "coordinates": [
          112.923,
          21.8644
        ]
      },
      "properties": {
        "label": "Guohua Taishan Power Station",
        "type": "power plant",
        "entity": "http://www.wikidata.org/entity/Q16259185",
        "country_qid": "Q148",
        "Wikidata Qid": "Q16259185"
      }
    },
    {
      "type": "Feature",
      "geometry": {
        "type": "Point",
        "coordinates": [
          117.411388888,
          39.053611111
        ]
      },
      "properties": {
        "label": "Junliangcheng Power Station",
        "type": "power plant",
        "entity": "http://www.wikidata.org/entity/Q19376607",
        "country_qid": "Q148",
        "Wikidata Qid": "Q19376607"
      }
    },
    {
      "type": "Feature",
      "geometry": {
        "type": "Point",
        "coordinates": [
          115.845,
          33.0045
        ]
      },
      "properties": {
        "label": "Q17775537",
        "type": "power plant",
        "entity": "http://www.wikidata.org/entity/Q17775537",
        "country_qid": "Q148",
        "Wikidata Qid": "Q17775537"
      }
    },
    {
      "type": "Feature",
      "geometry": {
        "type": "Point",
        "coordinates": [
          106.4343,
          29.3473
        ]
      },
      "properties": {
        "label": "Huaneng Luohuang Power Plant",
        "type": "power plant",
        "entity": "http://www.wikidata.org/entity/Q19374860",
        "country_qid": "Q148",
        "Wikidata Qid": "Q19374860"
      }
    },
    {
      "type": "Feature",
      "geometry": {
        "type": "Point",
        "coordinates": [
          123.56608,
          42.49446
        ]
      },
      "properties": {
        "label": "Q17766425",
        "type": "power plant",
        "entity": "http://www.wikidata.org/entity/Q17766425",
        "country_qid": "Q148",
        "Wikidata Qid": "Q17766425"
      }
    },
    {
      "type": "Feature",
      "geometry": {
        "type": "Point",
        "coordinates": [
          117.96,
          31.067
        ]
      },
      "properties": {
        "label": "Q17779477",
        "type": "power plant",
        "entity": "http://www.wikidata.org/entity/Q17779477",
        "country_qid": "Q148",
        "Wikidata Qid": "Q17779477"
      }
    },
    {
      "type": "Feature",
      "geometry": {
        "type": "Point",
        "coordinates": [
          106.3846493,
          39.0355196
        ]
      },
      "properties": {
        "label": "Q17764932",
        "type": "power plant",
        "entity": "http://www.wikidata.org/entity/Q17764932",
        "country_qid": "Q148",
        "Wikidata Qid": "Q17764932"
      }
    },
    {
      "type": "Feature",
      "geometry": {
        "type": "Point",
        "coordinates": [
          113.1642343,
          29.4509025
        ]
      },
      "properties": {
        "label": "Huaneng Yueyang Power Plant",
        "type": "power plant",
        "entity": "http://www.wikidata.org/entity/Q19374866",
        "country_qid": "Q148",
        "Wikidata Qid": "Q19374866"
      }
    },
    {
      "type": "Feature",
      "geometry": {
        "type": "Point",
        "coordinates": [
          111.2833,
          27.0
        ]
      },
      "properties": {
        "label": "Q17749884",
        "type": "power plant",
        "entity": "http://www.wikidata.org/entity/Q17749884",
        "country_qid": "Q148",
        "Wikidata Qid": "Q17749884"
      }
    },
    {
      "type": "Feature",
      "geometry": {
        "type": "Point",
        "coordinates": [
          112.533055555,
          39.365555555
        ]
      },
      "properties": {
        "label": "Shengtou Power Station",
        "type": "power plant",
        "entity": "http://www.wikidata.org/entity/Q15912977",
        "country_qid": "Q148",
        "Wikidata Qid": "Q15912977"
      }
    },
    {
      "type": "Feature",
      "geometry": {
        "type": "Point",
        "coordinates": [
          114.6403,
          23.5673
        ]
      },
      "properties": {
        "label": "Q17779271",
        "type": "power plant",
        "entity": "http://www.wikidata.org/entity/Q17779271",
        "country_qid": "Q148",
        "Wikidata Qid": "Q17779271"
      }
    },
    {
      "type": "Feature",
      "geometry": {
        "type": "Point",
        "coordinates": [
          117.0252,
          32.6692
        ]
      },
      "properties": {
        "label": "Q17764882",
        "type": "power plant",
        "entity": "http://www.wikidata.org/entity/Q17764882",
        "country_qid": "Q148",
        "Wikidata Qid": "Q17764882"
      }
    },
    {
      "type": "Feature",
      "geometry": {
        "type": "Point",
        "coordinates": [
          121.670237,
          29.504271
        ]
      },
      "properties": {
        "label": "Q15938182",
        "type": "power plant",
        "entity": "http://www.wikidata.org/entity/Q15938182",
        "country_qid": "Q148",
        "Wikidata Qid": "Q15938182"
      }
    },
    {
      "type": "Feature",
      "geometry": {
        "type": "Point",
        "coordinates": [
          106.548,
          30.1612
        ]
      },
      "properties": {
        "label": "Q17764340",
        "type": "power plant",
        "entity": "http://www.wikidata.org/entity/Q17764340",
        "country_qid": "Q148",
        "Wikidata Qid": "Q17764340"
      }
    },
    {
      "type": "Feature",
      "geometry": {
        "type": "Point",
        "coordinates": [
          112.9541855,
          36.9786753
        ]
      },
      "properties": {
        "label": "Huaneng Yushe Power Plant",
        "type": "power plant",
        "entity": "http://www.wikidata.org/entity/Q19374869",
        "country_qid": "Q148",
        "Wikidata Qid": "Q19374869"
      }
    },
    {
      "type": "Feature",
      "geometry": {
        "type": "Point",
        "coordinates": [
          106.8258015,
          30.5292304
        ]
      },
      "properties": {
        "label": "Sichuan Guang'an Power Plant",
        "type": "power plant",
        "entity": "http://www.wikidata.org/entity/Q19374852",
        "country_qid": "Q148",
        "Wikidata Qid": "Q19374852"
      }
    },
    {
      "type": "Feature",
      "geometry": {
        "type": "Point",
        "coordinates": [
          124.6005063,
          46.1350605
        ]
      },
      "properties": {
        "label": "Huaneng Xinhua Power Plant",
        "type": "power plant",
        "entity": "http://www.wikidata.org/entity/Q19374865",
        "country_qid": "Q148",
        "Wikidata Qid": "Q19374865"
      }
    },
    {
      "type": "Feature",
      "geometry": {
        "type": "Point",
        "coordinates": [
          117.578261789,
          34.814085207
        ]
      },
      "properties": {
        "label": "Shiliquan power plant",
        "type": "power plant",
        "entity": "http://www.wikidata.org/entity/Q15276935",
        "country_qid": "Q148",
        "Wikidata Qid": "Q15276935"
      }
    },
    {
      "type": "Feature",
      "geometry": {
        "type": "Point",
        "coordinates": [
          117.13,
          30.538
        ]
      },
      "properties": {
        "label": "Q17748640",
        "type": "power plant",
        "entity": "http://www.wikidata.org/entity/Q17748640",
        "country_qid": "Q148",
        "Wikidata Qid": "Q17748640"
      }
    },
    {
      "type": "Feature",
      "geometry": {
        "type": "Point",
        "coordinates": [
          111.562,
          29.1979
        ]
      },
      "properties": {
        "label": "Q17762385",
        "type": "power plant",
        "entity": "http://www.wikidata.org/entity/Q17762385",
        "country_qid": "Q148",
        "Wikidata Qid": "Q17762385"
      }
    },
    {
      "type": "Feature",
      "geometry": {
        "type": "Point",
        "coordinates": [
          126.45167,
          41.965
        ]
      },
      "properties": {
        "label": "Q19374945",
        "type": "power plant",
        "entity": "http://www.wikidata.org/entity/Q19374945",
        "country_qid": "Q148",
        "Wikidata Qid": "Q19374945"
      }
    },
    {
      "type": "Feature",
      "geometry": {
        "type": "Point",
        "coordinates": [
          106.786,
          28.834
        ]
      },
      "properties": {
        "label": "Q17749773",
        "type": "power plant",
        "entity": "http://www.wikidata.org/entity/Q17749773",
        "country_qid": "Q148",
        "Wikidata Qid": "Q17749773"
      }
    },
    {
      "type": "Feature",
      "geometry": {
        "type": "Point",
        "coordinates": [
          117.5892,
          30.7542
        ]
      },
      "properties": {
        "label": "Q17762240",
        "type": "power plant",
        "entity": "http://www.wikidata.org/entity/Q17762240",
        "country_qid": "Q148",
        "Wikidata Qid": "Q17762240"
      }
    },
    {
      "type": "Feature",
      "geometry": {
        "type": "Point",
        "coordinates": [
          120.0758886,
          31.940466
        ]
      },
      "properties": {
        "label": "Jiangsu Ligang Power Plant",
        "type": "power plant",
        "entity": "http://www.wikidata.org/entity/Q19379350",
        "country_qid": "Q148",
        "Wikidata Qid": "Q19379350"
      }
    },
    {
      "type": "Feature",
      "geometry": {
        "type": "Point",
        "coordinates": [
          109.766,
          23.112
        ]
      },
      "properties": {
        "label": "Q17779332",
        "type": "power plant",
        "entity": "http://www.wikidata.org/entity/Q17779332",
        "country_qid": "Q148",
        "Wikidata Qid": "Q17779332"
      }
    },
    {
      "type": "Feature",
      "geometry": {
        "type": "Point",
        "coordinates": [
          109.01399994,
          27.29520035
        ]
      },
      "properties": {
        "label": "Q17764607",
        "type": "power plant",
        "entity": "http://www.wikidata.org/entity/Q17764607",
        "country_qid": "Q148",
        "Wikidata Qid": "Q17764607"
      }
    },
    {
      "type": "Feature",
      "geometry": {
        "type": "Point",
        "coordinates": [
          112.8585,
          26.3855
        ]
      },
      "properties": {
        "label": "Q19379193",
        "type": "power plant",
        "entity": "http://www.wikidata.org/entity/Q19379193",
        "country_qid": "Q148",
        "Wikidata Qid": "Q19379193"
      }
    },
    {
      "type": "Feature",
      "geometry": {
        "type": "Point",
        "coordinates": [
          113.6775,
          22.747
        ]
      },
      "properties": {
        "label": "Shajiao power plant",
        "type": "power plant",
        "entity": "http://www.wikidata.org/entity/Q17779273",
        "country_qid": "Q148",
        "Wikidata Qid": "Q17779273"
      }
    },
    {
      "type": "Feature",
      "geometry": {
        "type": "Point",
        "coordinates": [
          125.16139,
          42.8725
        ]
      },
      "properties": {
        "label": "Q19379302",
        "type": "power plant",
        "entity": "http://www.wikidata.org/entity/Q19379302",
        "country_qid": "Q148",
        "Wikidata Qid": "Q19379302"
      }
    },
    {
      "type": "Feature",
      "geometry": {
        "type": "Point",
        "coordinates": [
          121.1798322,
          31.6565504
        ]
      },
      "properties": {
        "label": "Huaneng Taicang Power Plant",
        "type": "power plant",
        "entity": "http://www.wikidata.org/entity/Q19374862",
        "country_qid": "Q148",
        "Wikidata Qid": "Q19374862"
      }
    },
    {
      "type": "Feature",
      "geometry": {
        "type": "Point",
        "coordinates": [
          115.0197,
          27.0468
        ]
      },
      "properties": {
        "label": "Huaneng Jinggangshan Power Plant",
        "type": "power plant",
        "entity": "http://www.wikidata.org/entity/Q19374859",
        "country_qid": "Q148",
        "Wikidata Qid": "Q19374859"
      }
    },
    {
      "type": "Feature",
      "geometry": {
        "type": "Point",
        "coordinates": [
          121.1384948,
          28.1151877
        ]
      },
      "properties": {
        "label": "Huaneng Yuhuan Power Plant",
        "type": "power plant",
        "entity": "http://www.wikidata.org/entity/Q19374868",
        "country_qid": "Q148",
        "Wikidata Qid": "Q19374868"
      }
    },
    {
      "type": "Feature",
      "geometry": {
        "type": "Point",
        "coordinates": [
          106.346,
          38.148
        ]
      },
      "properties": {
        "label": "Ningxia Lingwu power station",
        "type": "power plant",
        "entity": "http://www.wikidata.org/entity/Q19379491",
        "country_qid": "Q148",
        "Wikidata Qid": "Q19379491"
      }
    },
    {
      "type": "Feature",
      "geometry": {
        "type": "Point",
        "coordinates": [
          123.365,
          42.7005
        ]
      },
      "properties": {
        "label": "Q19376876",
        "type": "power plant",
        "entity": "http://www.wikidata.org/entity/Q19376876",
        "country_qid": "Q148",
        "Wikidata Qid": "Q19376876"
      }
    },
    {
      "type": "Feature",
      "geometry": {
        "type": "Point",
        "coordinates": [
          111.2333,
          39.8666
        ]
      },
      "properties": {
        "label": "Q19376594",
        "type": "power plant",
        "entity": "http://www.wikidata.org/entity/Q19376594",
        "country_qid": "Q148",
        "Wikidata Qid": "Q19376594"
      }
    },
    {
      "type": "Feature",
      "geometry": {
        "type": "Point",
        "coordinates": [
          125.39361,
          43.88361
        ]
      },
      "properties": {
        "label": "Q19372266",
        "type": "power plant",
        "entity": "http://www.wikidata.org/entity/Q19372266",
        "country_qid": "Q148",
        "Wikidata Qid": "Q19372266"
      }
    },
    {
      "type": "Feature",
      "geometry": {
        "type": "Point",
        "coordinates": [
          105.928,
          37.984
        ]
      },
      "properties": {
        "label": "Daba Power Station",
        "type": "power plant",
        "entity": "http://www.wikidata.org/entity/Q17764875",
        "country_qid": "Q148",
        "Wikidata Qid": "Q17764875"
      }
    },
    {
      "type": "Feature",
      "geometry": {
        "type": "Point",
        "coordinates": [
          114.8915112,
          31.1417264
        ]
      },
      "properties": {
        "label": "Huanggang Dabieshan Power Plant",
        "type": "power plant",
        "entity": "http://www.wikidata.org/entity/Q17764346",
        "country_qid": "Q148",
        "Wikidata Qid": "Q17764346"
      }
    },
    {
      "type": "Feature",
      "geometry": {
        "type": "Point",
        "coordinates": [
          124.05194,
          47.37833
        ]
      },
      "properties": {
        "label": "Q19376305",
        "type": "power plant",
        "entity": "http://www.wikidata.org/entity/Q19376305",
        "country_qid": "Q148",
        "Wikidata Qid": "Q19376305"
      }
    },
    {
      "type": "Feature",
      "geometry": {
        "type": "Point",
        "coordinates": [
          111.3524,
          24.7376
        ]
      },
      "properties": {
        "label": "Q19374302",
        "type": "power plant",
        "entity": "http://www.wikidata.org/entity/Q19374302",
        "country_qid": "Q148",
        "Wikidata Qid": "Q19374302"
      }
    },
    {
      "type": "Feature",
      "geometry": {
        "type": "Point",
        "coordinates": [
          120.9753,
          31.757
        ]
      },
      "properties": {
        "label": "Changshu Power Plants",
        "type": "power plant",
        "entity": "http://www.wikidata.org/entity/Q11963424",
        "country_qid": "Q148",
        "Wikidata Qid": "Q11963424"
      }
    },
    {
      "type": "Feature",
      "geometry": {
        "type": "Point",
        "coordinates": [
          117.930555555,
          39.218888888
        ]
      },
      "properties": {
        "label": "Beijiang Power Station",
        "type": "power plant",
        "entity": "http://www.wikidata.org/entity/Q11960438",
        "country_qid": "Q148",
        "Wikidata Qid": "Q11960438"
      }
    },
    {
      "type": "Feature",
      "geometry": {
        "type": "Point",
        "coordinates": [
          116.5325,
          39.886
        ]
      },
      "properties": {
        "label": "Huaneng Beijing Co-generation Power Plant",
        "type": "power plant",
        "entity": "http://www.wikidata.org/entity/Q11971552",
        "country_qid": "Q148",
        "Wikidata Qid": "Q11971552"
      }
    },
    {
      "type": "Feature",
      "geometry": {
        "type": "Point",
        "coordinates": [
          120.7689071,
          32.0329004
        ]
      },
      "properties": {
        "label": "Huaneng Nantong Power Plant",
        "type": "power plant",
        "entity": "http://www.wikidata.org/entity/Q11975988",
        "country_qid": "Q148",
        "Wikidata Qid": "Q11975988"
      }
    },
    {
      "type": "Feature",
      "geometry": {
        "type": "Point",
        "coordinates": [
          121.147,
          30.6294
        ]
      },
      "properties": {
        "label": "Jiaxing Power Station",
        "type": "power plant",
        "entity": "http://www.wikidata.org/entity/Q9662389",
        "country_qid": "Q148",
        "Wikidata Qid": "Q9662389"
      }
    },
    {
      "type": "Feature",
      "geometry": {
        "type": "Point",
        "coordinates": [
          116.6539,
          23.1881
        ]
      },
      "properties": {
        "label": "Huaneng Haimen Power Plant",
        "type": "power plant",
        "entity": "http://www.wikidata.org/entity/Q11973668",
        "country_qid": "Q148",
        "Wikidata Qid": "Q11973668"
      }
    },
    {
      "type": "Feature",
      "geometry": {
        "type": "Point",
        "coordinates": [
          108.8692,
          23.8287
        ]
      },
      "properties": {
        "label": "Guigang Power Station",
        "type": "power plant",
        "entity": "http://www.wikidata.org/entity/Q11973169",
        "country_qid": "Q148",
        "Wikidata Qid": "Q11973169"
      }
    },
    {
      "type": "Feature",
      "geometry": {
        "type": "Point",
        "coordinates": [
          119.4817,
          25.9906
        ]
      },
      "properties": {
        "label": "Huaneng Fuzhou Power Plant",
        "type": "power plant",
        "entity": "http://www.wikidata.org/entity/Q11975979",
        "country_qid": "Q148",
        "Wikidata Qid": "Q11975979"
      }
    },
    {
      "type": "Feature",
      "geometry": {
        "type": "Point",
        "coordinates": [
          109.0161,
          21.781
        ]
      },
      "properties": {
        "label": "Q11960441",
        "type": "power plant",
        "entity": "http://www.wikidata.org/entity/Q11960441",
        "country_qid": "Q148",
        "Wikidata Qid": "Q11960441"
      }
    },
    {
      "type": "Feature",
      "geometry": {
        "type": "Point",
        "coordinates": [
          121.4016019,
          31.4658728
        ]
      },
      "properties": {
        "label": "Huaneng Shanghai Shidongkou Second Power Plant",
        "type": "power plant",
        "entity": "http://www.wikidata.org/entity/Q11975989",
        "country_qid": "Q148",
        "Wikidata Qid": "Q11975989"
      }
    },
    {
      "type": "Feature",
      "geometry": {
        "type": "Point",
        "coordinates": [
          121.662,
          41.9978
        ]
      },
      "properties": {
        "label": "Q11970563",
        "type": "power plant",
        "entity": "http://www.wikidata.org/entity/Q11970563",
        "country_qid": "Q148",
        "Wikidata Qid": "Q11970563"
      }
    },
    {
      "type": "Feature",
      "geometry": {
        "type": "Point",
        "coordinates": [
          115.7096,
          28.194
        ]
      },
      "properties": {
        "label": "Q11968698",
        "type": "power plant",
        "entity": "http://www.wikidata.org/entity/Q11968698",
        "country_qid": "Q148",
        "Wikidata Qid": "Q11968698"
      }
    },
    {
      "type": "Feature",
      "geometry": {
        "type": "Point",
        "coordinates": [
          117.0376,
          39.1513
        ]
      },
      "properties": {
        "label": "Tianjin Huaneng Yangliuqing Cogeneration Power Plant",
        "type": "power plant",
        "entity": "http://www.wikidata.org/entity/Q11975998",
        "country_qid": "Q148",
        "Wikidata Qid": "Q11975998"
      }
    },
    {
      "type": "Feature",
      "geometry": {
        "type": "Point",
        "coordinates": [
          117.0252,
          32.6692
        ]
      },
      "properties": {
        "label": "Q11975970",
        "type": "power plant",
        "entity": "http://www.wikidata.org/entity/Q11975970",
        "country_qid": "Q148",
        "Wikidata Qid": "Q11975970"
      }
    },
    {
      "type": "Feature",
      "geometry": {
        "type": "Point",
        "coordinates": [
          114.2754,
          36.1195
        ]
      },
      "properties": {
        "label": "Q11958464",
        "type": "power plant",
        "entity": "http://www.wikidata.org/entity/Q11958464",
        "country_qid": "Q148",
        "Wikidata Qid": "Q11958464"
      }
    },
    {
      "type": "Feature",
      "geometry": {
        "type": "Point",
        "coordinates": [
          121.4040145,
          31.4649453
        ]
      },
      "properties": {
        "label": "Huaneng Shanghai Shidongkou Power Plant",
        "type": "power plant",
        "entity": "http://www.wikidata.org/entity/Q11586776",
        "country_qid": "Q148",
        "Wikidata Qid": "Q11586776"
      }
    },
    {
      "type": "Feature",
      "geometry": {
        "type": "Point",
        "coordinates": [
          113.515,
          22.857
        ]
      },
      "properties": {
        "label": "Q11973114",
        "type": "power plant",
        "entity": "http://www.wikidata.org/entity/Q11973114",
        "country_qid": "Q148",
        "Wikidata Qid": "Q11973114"
      }
    },
    {
      "type": "Feature",
      "geometry": {
        "type": "Point",
        "coordinates": [
          120.008,
          40.0794
        ]
      },
      "properties": {
        "label": "Suizhong Power Station",
        "type": "power plant",
        "entity": "http://www.wikidata.org/entity/Q7635606",
        "country_qid": "Q148",
        "Wikidata Qid": "Q7635606"
      }
    },
    {
      "type": "Feature",
      "geometry": {
        "type": "Point",
        "coordinates": [
          105.6870719,
          26.219855
        ]
      },
      "properties": {
        "label": "Q11958356",
        "type": "power plant",
        "entity": "http://www.wikidata.org/entity/Q11958356",
        "country_qid": "Q148",
        "Wikidata Qid": "Q11958356"
      }
    },
    {
      "type": "Feature",
      "geometry": {
        "type": "Point",
        "coordinates": [
          117.0778,
          32.6854
        ]
      },
      "properties": {
        "label": "Q11964795",
        "type": "power plant",
        "entity": "http://www.wikidata.org/entity/Q11964795",
        "country_qid": "Q148",
        "Wikidata Qid": "Q11964795"
      }
    },
    {
      "type": "Feature",
      "geometry": {
        "type": "Point",
        "coordinates": [
          114.179,
          35.8512
        ]
      },
      "properties": {
        "label": "Q11974584",
        "type": "power plant",
        "entity": "http://www.wikidata.org/entity/Q11974584",
        "country_qid": "Q148",
        "Wikidata Qid": "Q11974584"
      }
    },
    {
      "type": "Feature",
      "geometry": {
        "type": "Point",
        "coordinates": [
          116.7361,
          23.3255
        ]
      },
      "properties": {
        "label": "Huaneng Shantou Coal-Fired Power Plant",
        "type": "power plant",
        "entity": "http://www.wikidata.org/entity/Q11975995",
        "country_qid": "Q148",
        "Wikidata Qid": "Q11975995"
      }
    },
    {
      "type": "Feature",
      "geometry": {
        "type": "Point",
        "coordinates": [
          108.3942,
          21.5927
        ]
      },
      "properties": {
        "label": "Q11968469",
        "type": "power plant",
        "entity": "http://www.wikidata.org/entity/Q11968469",
        "country_qid": "Q148",
        "Wikidata Qid": "Q11968469"
      }
    },
    {
      "type": "Feature",
      "geometry": {
        "type": "Point",
        "coordinates": [
          117.2513,
          31.915
        ]
      },
      "properties": {
        "label": "Q11974625",
        "type": "power plant",
        "entity": "http://www.wikidata.org/entity/Q11974625",
        "country_qid": "Q148",
        "Wikidata Qid": "Q11974625"
      }
    },
    {
      "type": "Feature",
      "geometry": {
        "type": "Point",
        "coordinates": [
          116.1295,
          39.94
        ]
      },
      "properties": {
        "label": "Gaojing Power Station",
        "type": "power plant",
        "entity": "http://www.wikidata.org/entity/Q11971550",
        "country_qid": "Q148",
        "Wikidata Qid": "Q11971550"
      }
    },
    {
      "type": "Feature",
      "geometry": {
        "type": "Point",
        "coordinates": [
          118.749,
          24.7299
        ]
      },
      "properties": {
        "label": "Q11975779",
        "type": "power plant",
        "entity": "http://www.wikidata.org/entity/Q11975779",
        "country_qid": "Q148",
        "Wikidata Qid": "Q11975779"
      }
    },
    {
      "type": "Feature",
      "geometry": {
        "type": "Point",
        "coordinates": [
          105.5617,
          27.0973
        ]
      },
      "properties": {
        "label": "Q11964455",
        "type": "power plant",
        "entity": "http://www.wikidata.org/entity/Q11964455",
        "country_qid": "Q148",
        "Wikidata Qid": "Q11964455"
      }
    },
    {
      "type": "Feature",
      "geometry": {
        "type": "Point",
        "coordinates": [
          104.7697,
          26.3253
        ]
      },
      "properties": {
        "label": "Q11968356",
        "type": "power plant",
        "entity": "http://www.wikidata.org/entity/Q11968356",
        "country_qid": "Q148",
        "Wikidata Qid": "Q11968356"
      }
    },
    {
      "type": "Feature",
      "geometry": {
        "type": "Point",
        "coordinates": [
          116.65,
          32.75043
        ]
      },
      "properties": {
        "label": "Q11968704",
        "type": "power plant",
        "entity": "http://www.wikidata.org/entity/Q11968704",
        "country_qid": "Q148",
        "Wikidata Qid": "Q11968704"
      }
    },
    {
      "type": "Feature",
      "geometry": {
        "type": "Point",
        "coordinates": [
          116.7756,
          33.9666
        ]
      },
      "properties": {
        "label": "Q11964797",
        "type": "power plant",
        "entity": "http://www.wikidata.org/entity/Q11964797",
        "country_qid": "Q148",
        "Wikidata Qid": "Q11964797"
      }
    },
    {
      "type": "Feature",
      "geometry": {
        "type": "Point",
        "coordinates": [
          117.238,
          38.0513
        ]
      },
      "properties": {
        "label": "Q11963513",
        "type": "power plant",
        "entity": "http://www.wikidata.org/entity/Q11963513",
        "country_qid": "Q148",
        "Wikidata Qid": "Q11963513"
      }
    },
    {
      "type": "Feature",
      "geometry": {
        "type": "Point",
        "coordinates": [
          114.1959929,
          38.0569788
        ]
      },
      "properties": {
        "label": "Huaneng Shangan Power Plant",
        "type": "power plant",
        "entity": "http://www.wikidata.org/entity/Q11975993",
        "country_qid": "Q148",
        "Wikidata Qid": "Q11975993"
      }
    },
    {
      "type": "Feature",
      "geometry": {
        "type": "Point",
        "coordinates": [
          124.14583,
          39.83833
        ]
      },
      "properties": {
        "label": "Huaneng Dandong Power Plant",
        "type": "power plant",
        "entity": "http://www.wikidata.org/entity/Q11975978",
        "country_qid": "Q148",
        "Wikidata Qid": "Q11975978"
      }
    },
    {
      "type": "Feature",
      "geometry": {
        "type": "Point",
        "coordinates": [
          116.9015,
          32.6843
        ]
      },
      "properties": {
        "label": "Pingwei Power Plant",
        "type": "power plant",
        "entity": "http://www.wikidata.org/entity/Q11060768",
        "country_qid": "Q148",
        "Wikidata Qid": "Q11060768"
      }
    },
    {
      "type": "Feature",
      "geometry": {
        "type": "Point",
        "coordinates": [
          126.67,
          45.7105
        ]
      },
      "properties": {
        "label": "Q11974274",
        "type": "power plant",
        "entity": "http://www.wikidata.org/entity/Q11974274",
        "country_qid": "Q148",
        "Wikidata Qid": "Q11974274"
      }
    },
    {
      "type": "Feature",
      "geometry": {
        "type": "Point",
        "coordinates": [
          106.753,
          28.641
        ]
      },
      "properties": {
        "label": "Q11958458",
        "type": "power plant",
        "entity": "http://www.wikidata.org/entity/Q11958458",
        "country_qid": "Q148",
        "Wikidata Qid": "Q11958458"
      }
    },
    {
      "type": "Feature",
      "geometry": {
        "type": "Point",
        "coordinates": [
          116.587,
          24.404
        ]
      },
      "properties": {
        "label": "Dabu Power Station",
        "type": "power plant",
        "entity": "http://www.wikidata.org/entity/Q11964760",
        "country_qid": "Q148",
        "Wikidata Qid": "Q11964760"
      }
    },
    {
      "type": "Feature",
      "geometry": {
        "type": "Point",
        "coordinates": [
          112.9963,
          27.8282
        ]
      },
      "properties": {
        "label": "Q9880909",
        "type": "power plant",
        "entity": "http://www.wikidata.org/entity/Q9880909",
        "country_qid": "Q148",
        "Wikidata Qid": "Q9880909"
      }
    },
    {
      "type": "Feature",
      "geometry": {
        "type": "Point",
        "coordinates": [
          118.7527656,
          32.2076541
        ]
      },
      "properties": {
        "label": "Huaneng Nanjing Power Plant",
        "type": "power plant",
        "entity": "http://www.wikidata.org/entity/Q11975987",
        "country_qid": "Q148",
        "Wikidata Qid": "Q11975987"
      }
    },
    {
      "type": "Feature",
      "geometry": {
        "type": "Point",
        "coordinates": [
          104.6176422,
          25.1027091
        ]
      },
      "properties": {
        "label": "Yunnan Diandong Yuwang Energy",
        "type": "power plant",
        "entity": "http://www.wikidata.org/entity/Q11965613",
        "country_qid": "Q148",
        "Wikidata Qid": "Q11965613"
      }
    },
    {
      "type": "Feature",
      "geometry": {
        "type": "Point",
        "coordinates": [
          117.102,
          32.775
        ]
      },
      "properties": {
        "label": "Q11960551",
        "type": "power plant",
        "entity": "http://www.wikidata.org/entity/Q11960551",
        "country_qid": "Q148",
        "Wikidata Qid": "Q11960551"
      }
    },
    {
      "type": "Feature",
      "geometry": {
        "type": "Point",
        "coordinates": [
          121.72444,
          39.01472
        ]
      },
      "properties": {
        "label": "Huaneng Dalian power plant",
        "type": "power plant",
        "entity": "http://www.wikidata.org/entity/Q11975980",
        "country_qid": "Q148",
        "Wikidata Qid": "Q11975980"
      }
    },
    {
      "type": "Feature",
      "geometry": {
        "type": "Point",
        "coordinates": [
          118.1256,
          24.3048
        ]
      },
      "properties": {
        "label": "Houshi Power Station",
        "type": "power plant",
        "entity": "http://www.wikidata.org/entity/Q10917954",
        "country_qid": "Q148",
        "Wikidata Qid": "Q10917954"
      }
    },
    {
      "type": "Feature",
      "geometry": {
        "type": "Point",
        "coordinates": [
          111.3946,
          29.579
        ]
      },
      "properties": {
        "label": "Q11975965",
        "type": "power plant",
        "entity": "http://www.wikidata.org/entity/Q11975965",
        "country_qid": "Q148",
        "Wikidata Qid": "Q11975965"
      }
    },
    {
      "type": "Feature",
      "geometry": {
        "type": "Point",
        "coordinates": [
          117.8228116,
          31.6515868
        ]
      },
      "properties": {
        "label": "Huaneng Chaohu Power Plant",
        "type": "power plant",
        "entity": "http://www.wikidata.org/entity/Q11975981",
        "country_qid": "Q148",
        "Wikidata Qid": "Q11975981"
      }
    },
    {
      "type": "Feature",
      "geometry": {
        "type": "Point",
        "coordinates": [
          118.152,
          31.2395
        ]
      },
      "properties": {
        "label": "Anhui Huadian Wuhu Power Plant",
        "type": "power plant",
        "entity": "http://www.wikidata.org/entity/Q11975969",
        "country_qid": "Q148",
        "Wikidata Qid": "Q11975969"
      }
    },
    {
      "type": "Feature",
      "geometry": {
        "type": "Point",
        "coordinates": [
          130.2995081,
          47.0966398
        ]
      },
      "properties": {
        "label": "Huaneng Hegang Power Plant",
        "type": "power plant",
        "entity": "http://www.wikidata.org/entity/Q11975984",
        "country_qid": "Q148",
        "Wikidata Qid": "Q11975984"
      }
    },
    {
      "type": "Feature",
      "geometry": {
        "type": "Point",
        "coordinates": [
          106.85739167,
          39.31823889
        ]
      },
      "properties": {
        "label": "Q11149729",
        "type": "power plant",
        "entity": "http://www.wikidata.org/entity/Q11149729",
        "country_qid": "Q148",
        "Wikidata Qid": "Q11149729"
      }
    },
    {
      "type": "Feature",
      "geometry": {
        "type": "Point",
        "coordinates": [
          118.9614042,
          33.5966527
        ]
      },
      "properties": {
        "label": "Huaneng Huaiyin Power Plant",
        "type": "power plant",
        "entity": "http://www.wikidata.org/entity/Q11975983",
        "country_qid": "Q148",
        "Wikidata Qid": "Q11975983"
      }
    },
    {
      "type": "Feature",
      "geometry": {
        "type": "Point",
        "coordinates": [
          117.56,
          31.794
        ]
      },
      "properties": {
        "label": "Q11974623",
        "type": "power plant",
        "entity": "http://www.wikidata.org/entity/Q11974623",
        "country_qid": "Q148",
        "Wikidata Qid": "Q11974623"
      }
    },
    {
      "type": "Feature",
      "geometry": {
        "type": "Point",
        "coordinates": [
          119.773889,
          48.549722
        ]
      },
      "properties": {
        "label": "Yimin Power Station",
        "type": "power plant",
        "entity": "http://www.wikidata.org/entity/Q11975997",
        "country_qid": "Q148",
        "Wikidata Qid": "Q11975997"
      }
    },
    {
      "type": "Feature",
      "geometry": {
        "type": "Point",
        "coordinates": [
          121.407181,
          31.463077
        ]
      },
      "properties": {
        "label": "Huaneng Shanghai Shidongkou First Power Plant",
        "type": "power plant",
        "entity": "http://www.wikidata.org/entity/Q11975991",
        "country_qid": "Q148",
        "Wikidata Qid": "Q11975991"
      }
    },
    {
      "type": "Feature",
      "geometry": {
        "type": "Point",
        "coordinates": [
          110.031842,
          19.9593321
        ]
      },
      "properties": {
        "label": "Huaneng Haikou Power Station",
        "type": "power plant",
        "entity": "http://www.wikidata.org/entity/Q11975982",
        "country_qid": "Q148",
        "Wikidata Qid": "Q11975982"
      }
    },
    {
      "type": "Feature",
      "geometry": {
        "type": "Point",
        "coordinates": [
          93.4456,
          42.7408
        ]
      },
      "properties": {
        "label": "Q11964653",
        "type": "power plant",
        "entity": "http://www.wikidata.org/entity/Q11964653",
        "country_qid": "Q148",
        "Wikidata Qid": "Q11964653"
      }
    },
    {
      "type": "Feature",
      "geometry": {
        "type": "Point",
        "coordinates": [
          119.9627638,
          30.9137589
        ]
      },
      "properties": {
        "label": "Changxing Power Plant",
        "type": "power plant",
        "entity": "http://www.wikidata.org/entity/Q11963430",
        "country_qid": "Q148",
        "Wikidata Qid": "Q11963430"
      }
    },
    {
      "type": "Feature",
      "geometry": {
        "type": "Point",
        "coordinates": [
          87.6409,
          43.7434
        ]
      },
      "properties": {
        "label": "Q11975780",
        "type": "power plant",
        "entity": "http://www.wikidata.org/entity/Q11975780",
        "country_qid": "Q148",
        "Wikidata Qid": "Q11975780"
      }
    },
    {
      "type": "Feature",
      "geometry": {
        "type": "Point",
        "coordinates": [
          87.6409,
          43.7434
        ]
      },
      "properties": {
        "label": "Q11975781",
        "type": "power plant",
        "entity": "http://www.wikidata.org/entity/Q11975781",
        "country_qid": "Q148",
        "Wikidata Qid": "Q11975781"
      }
    },
    {
      "type": "Feature",
      "geometry": {
        "type": "Point",
        "coordinates": [
          116.8594,
          33.868
        ]
      },
      "properties": {
        "label": "Q11975973",
        "type": "power plant",
        "entity": "http://www.wikidata.org/entity/Q11975973",
        "country_qid": "Q148",
        "Wikidata Qid": "Q11975973"
      }
    },
    {
      "type": "Feature",
      "geometry": {
        "type": "Point",
        "coordinates": [
          117.0969,
          23.5661
        ]
      },
      "properties": {
        "label": "Sanbaimen Power Station",
        "type": "power plant",
        "entity": "http://www.wikidata.org/entity/Q11963440",
        "country_qid": "Q148",
        "Wikidata Qid": "Q11963440"
      }
    },
    {
      "type": "Feature",
      "geometry": {
        "type": "Point",
        "coordinates": [
          117.8423488,
          36.4724001
        ]
      },
      "properties": {
        "label": "Huaneng Shandong Zibo Baiyanghe Power Plant",
        "type": "power plant",
        "entity": "http://www.wikidata.org/entity/Q11960007",
        "country_qid": "Q148",
        "Wikidata Qid": "Q11960007"
      }
    },
    {
      "type": "Feature",
      "geometry": {
        "type": "Point",
        "coordinates": [
          113.4997,
          23.064
        ]
      },
      "properties": {
        "label": "Q11974997",
        "type": "power plant",
        "entity": "http://www.wikidata.org/entity/Q11974997",
        "country_qid": "Q148",
        "Wikidata Qid": "Q11974997"
      }
    },
    {
      "type": "Feature",
      "geometry": {
        "type": "Point",
        "coordinates": [
          119.3394,
          25.4393
        ]
      },
      "properties": {
        "label": "Q11970564",
        "type": "power plant",
        "entity": "http://www.wikidata.org/entity/Q11970564",
        "country_qid": "Q148",
        "Wikidata Qid": "Q11970564"
      }
    },
    {
      "type": "Feature",
      "geometry": {
        "type": "Point",
        "coordinates": [
          116.2423896,
          37.4501621
        ]
      },
      "properties": {
        "label": "Huaneng Dezhou Power Plant",
        "type": "power plant",
        "entity": "http://www.wikidata.org/entity/Q11975977",
        "country_qid": "Q148",
        "Wikidata Qid": "Q11975977"
      }
    },
    {
      "type": "Feature",
      "geometry": {
        "type": "Point",
        "coordinates": [
          116.5537941,
          35.3964142
        ]
      },
      "properties": {
        "label": "Huaneng Jining Power Plant",
        "type": "power plant",
        "entity": "http://www.wikidata.org/entity/Q11975985",
        "country_qid": "Q148",
        "Wikidata Qid": "Q11975985"
      }
    },
    {
      "type": "Feature",
      "geometry": {
        "type": "Point",
        "coordinates": [
          116.4916598,
          31.6572437
        ]
      },
      "properties": {
        "label": "Anhui Huadian Lu'an Power Plant",
        "type": "power plant",
        "entity": "http://www.wikidata.org/entity/Q11975966",
        "country_qid": "Q148",
        "Wikidata Qid": "Q11975966"
      }
    },
    {
      "type": "Feature",
      "geometry": {
        "type": "Point",
        "coordinates": [
          116.0362,
          29.7403
        ]
      },
      "properties": {
        "label": "Q11978620",
        "type": "power plant",
        "entity": "http://www.wikidata.org/entity/Q11978620",
        "country_qid": "Q148",
        "Wikidata Qid": "Q11978620"
      }
    },
    {
      "type": "Feature",
      "geometry": {
        "type": "Point",
        "coordinates": [
          125.9258294,
          44.1071943
        ]
      },
      "properties": {
        "label": "Huaneng Jiutai Power Plant",
        "type": "power plant",
        "entity": "http://www.wikidata.org/entity/Q11978624",
        "country_qid": "Q148",
        "Wikidata Qid": "Q11978624"
      }
    },
    {
      "type": "Feature",
      "geometry": {
        "type": "Point",
        "coordinates": [
          108.6239505,
          21.7011165
        ]
      },
      "properties": {
        "label": "Qinzhou Power Station",
        "type": "power plant",
        "entity": "http://www.wikidata.org/entity/Q11996700",
        "country_qid": "Q148",
        "Wikidata Qid": "Q11996700"
      }
    },
    {
      "type": "Feature",
      "geometry": {
        "type": "Point",
        "coordinates": [
          113.5833,
          24.5843
        ]
      },
      "properties": {
        "label": "Shaoguan Power Plant",
        "type": "power plant",
        "entity": "http://www.wikidata.org/entity/Q12000160",
        "country_qid": "Q148",
        "Wikidata Qid": "Q12000160"
      }
    },
    {
      "type": "Feature",
      "geometry": {
        "type": "Point",
        "coordinates": [
          116.1,
          24.305
        ]
      },
      "properties": {
        "label": "Q11988913",
        "type": "power plant",
        "entity": "http://www.wikidata.org/entity/Q11988913",
        "country_qid": "Q148",
        "Wikidata Qid": "Q11988913"
      }
    },
    {
      "type": "Feature",
      "geometry": {
        "type": "Point",
        "coordinates": [
          114.746,
          22.6073
        ]
      },
      "properties": {
        "label": "Pinghai Power Plant",
        "type": "power plant",
        "entity": "http://www.wikidata.org/entity/Q11995714",
        "country_qid": "Q148",
        "Wikidata Qid": "Q11995714"
      }
    },
    {
      "type": "Feature",
      "geometry": {
        "type": "Point",
        "coordinates": [
          88.9291,
          44.4065
        ]
      },
      "properties": {
        "label": "Q11982290",
        "type": "power plant",
        "entity": "http://www.wikidata.org/entity/Q11982290",
        "country_qid": "Q148",
        "Wikidata Qid": "Q11982290"
      }
    },
    {
      "type": "Feature",
      "geometry": {
        "type": "Point",
        "coordinates": [
          117.6721573,
          36.2548982
        ]
      },
      "properties": {
        "label": "Huadian Laicheng Power Plant",
        "type": "power plant",
        "entity": "http://www.wikidata.org/entity/Q11982967",
        "country_qid": "Q148",
        "Wikidata Qid": "Q11982967"
      }
    },
    {
      "type": "Feature",
      "geometry": {
        "type": "Point",
        "coordinates": [
          105.1827,
          26.598
        ]
      },
      "properties": {
        "label": "Q11991016",
        "type": "power plant",
        "entity": "http://www.wikidata.org/entity/Q11991016",
        "country_qid": "Q148",
        "Wikidata Qid": "Q11991016"
      }
    },
    {
      "type": "Feature",
      "geometry": {
        "type": "Point",
        "coordinates": [
          111.482,
          27.626
        ]
      },
      "properties": {
        "label": "Q11978614",
        "type": "power plant",
        "entity": "http://www.wikidata.org/entity/Q11978614",
        "country_qid": "Q148",
        "Wikidata Qid": "Q11978614"
      }
    },
    {
      "type": "Feature",
      "geometry": {
        "type": "Point",
        "coordinates": [
          116.852,
          28.4505
        ]
      },
      "properties": {
        "label": "Q11976010",
        "type": "power plant",
        "entity": "http://www.wikidata.org/entity/Q11976010",
        "country_qid": "Q148",
        "Wikidata Qid": "Q11976010"
      }
    },
    {
      "type": "Feature",
      "geometry": {
        "type": "Point",
        "coordinates": [
          112.3857,
          34.6808
        ]
      },
      "properties": {
        "label": "Q11987043",
        "type": "power plant",
        "entity": "http://www.wikidata.org/entity/Q11987043",
        "country_qid": "Q148",
        "Wikidata Qid": "Q11987043"
      }
    },
    {
      "type": "Feature",
      "geometry": {
        "type": "Point",
        "coordinates": [
          118.2351798,
          36.7833518
        ]
      },
      "properties": {
        "label": "Huaneng Xindian Power Plant",
        "type": "power plant",
        "entity": "http://www.wikidata.org/entity/Q11975999",
        "country_qid": "Q148",
        "Wikidata Qid": "Q11975999"
      }
    },
    {
      "type": "Feature",
      "geometry": {
        "type": "Point",
        "coordinates": [
          106.29192,
          36.044987
        ]
      },
      "properties": {
        "label": "Q11986520",
        "type": "power plant",
        "entity": "http://www.wikidata.org/entity/Q11986520",
        "country_qid": "Q148",
        "Wikidata Qid": "Q11986520"
      }
    },
    {
      "type": "Feature",
      "geometry": {
        "type": "Point",
        "coordinates": [
          131.053,
          45.759
        ]
      },
      "properties": {
        "label": "Q11996706",
        "type": "power plant",
        "entity": "http://www.wikidata.org/entity/Q11996706",
        "country_qid": "Q148",
        "Wikidata Qid": "Q11996706"
      }
    },
    {
      "type": "Feature",
      "geometry": {
        "type": "Point",
        "coordinates": [
          113.0141,
          34.821
        ]
      },
      "properties": {
        "label": "Q11987067",
        "type": "power plant",
        "entity": "http://www.wikidata.org/entity/Q11987067",
        "country_qid": "Q148",
        "Wikidata Qid": "Q11987067"
      }
    },
    {
      "type": "Feature",
      "geometry": {
        "type": "Point",
        "coordinates": [
          118.6333,
          24.55
        ]
      },
      "properties": {
        "label": "Q11978601",
        "type": "power plant",
        "entity": "http://www.wikidata.org/entity/Q11978601",
        "country_qid": "Q148",
        "Wikidata Qid": "Q11978601"
      }
    },
    {
      "type": "Feature",
      "geometry": {
        "type": "Point",
        "coordinates": [
          117.1553,
          25.2797
        ]
      },
      "properties": {
        "label": "Q11986755",
        "type": "power plant",
        "entity": "http://www.wikidata.org/entity/Q11986755",
        "country_qid": "Q148",
        "Wikidata Qid": "Q11986755"
      }
    },
    {
      "type": "Feature",
      "geometry": {
        "type": "Point",
        "coordinates": [
          106.2555,
          27.475
        ]
      },
      "properties": {
        "label": "Q11996681",
        "type": "power plant",
        "entity": "http://www.wikidata.org/entity/Q11996681",
        "country_qid": "Q148",
        "Wikidata Qid": "Q11996681"
      }
    },
    {
      "type": "Feature",
      "geometry": {
        "type": "Point",
        "coordinates": [
          106.1245,
          27.052
        ]
      },
      "properties": {
        "label": "Q11996685",
        "type": "power plant",
        "entity": "http://www.wikidata.org/entity/Q11996685",
        "country_qid": "Q148",
        "Wikidata Qid": "Q11996685"
      }
    },
    {
      "type": "Feature",
      "geometry": {
        "type": "Point",
        "coordinates": [
          113.4955,
          23.079
        ]
      },
      "properties": {
        "label": "Huangpu Power Plant",
        "type": "power plant",
        "entity": "http://www.wikidata.org/entity/Q11976011",
        "country_qid": "Q148",
        "Wikidata Qid": "Q11976011"
      }
    },
    {
      "type": "Feature",
      "geometry": {
        "type": "Point",
        "coordinates": [
          110.8788,
          21.6755
        ]
      },
      "properties": {
        "label": "Maoming Power Plant",
        "type": "power plant",
        "entity": "http://www.wikidata.org/entity/Q11988089",
        "country_qid": "Q148",
        "Wikidata Qid": "Q11988089"
      }
    },
    {
      "type": "Feature",
      "geometry": {
        "type": "Point",
        "coordinates": [
          113.0775,
          34.792
        ]
      },
      "properties": {
        "label": "Q11983895",
        "type": "power plant",
        "entity": "http://www.wikidata.org/entity/Q11983895",
        "country_qid": "Q148",
        "Wikidata Qid": "Q11983895"
      }
    },
    {
      "type": "Feature",
      "geometry": {
        "type": "Point",
        "coordinates": [
          116.547,
          23.0051
        ]
      },
      "properties": {
        "label": "Huilai Power Plant",
        "type": "power plant",
        "entity": "http://www.wikidata.org/entity/Q11976049",
        "country_qid": "Q148",
        "Wikidata Qid": "Q11976049"
      }
    },
    {
      "type": "Feature",
      "geometry": {
        "type": "Point",
        "coordinates": [
          118.489,
          31.734
        ]
      },