{
  "type": "FeatureCollection",
  "features": [
    {
      "type": "Feature",
      "geometry": {
        "type": "Point",
        "coordinates": [
          103.825,
          1.2647
        ]
      },
      "properties": {
        "label": "St James Power Station",
        "type": "power plant",
        "entity": "http://www.wikidata.org/entity/Q7593503",
        "country_qid": "Q334",
        "Wikidata Qid": "Q7593503"
      }
    },
    {
      "type": "Feature",
      "geometry": {
        "type": "Point",
        "coordinates": [
          103.6210915,
          1.2977376
        ]
      },
      "properties": {
        "label": "Keppel Seghers Tuas Waste-To-Energy Plant",
        "type": "power plant",
        "entity": "http://www.wikidata.org/entity/Q116740943",
        "country_qid": "Q334",
        "Wikidata Qid": "Q116740943"
      }
    },
    {
      "type": "Feature",
      "geometry": {
        "type": "Point",
        "coordinates": [
          103.634752,
          1.3248235
        ]
      },
      "properties": {
        "label": "Tuas Incineration Plant",
        "type": "power plant",
        "entity": "http://www.wikidata.org/entity/Q116740837",
        "country_qid": "Q334",
        "Wikidata Qid": "Q116740837"
      }
    },
    {
      "type": "Feature",
      "geometry": {
        "type": "Point",
        "coordinates": [
          103.7107497,
          1.3113141
        ]
      },
      "properties": {
        "label": "Jurong Power Station",
        "type": "power plant",
        "entity": "http://www.wikidata.org/entity/Q116734820",
        "country_qid": "Q334",
        "Wikidata Qid": "Q116734820"
      }
    },
    {
      "type": "Feature",
      "geometry": {
        "type": "Point",
        "coordinates": [
          103.6223763,
          1.3023793
        ]
      },
      "properties": {
        "label": "Tuaspring Power Plant",
        "type": "power plant",
        "entity": "http://www.wikidata.org/entity/Q116740906",
        "country_qid": "Q334",
        "Wikidata Qid": "Q116740906"
      }
    },
    {
      "type": "Feature",
      "geometry": {
        "type": "Point",
        "coordinates": [
          103.7027246,
          1.254326
        ]
      },
      "properties": {
        "label": "Sembcorp Cogen Sakra Power Station",
        "type": "power plant",
        "entity": "http://www.wikidata.org/entity/Q11996467",
        "country_qid": "Q334",
        "Wikidata Qid": "Q11996467"
      }
    },
    {
      "type": "Feature",
      "geometry": {
        "type": "Point",
        "coordinates": [
          103.727,
          1.28
        ]
      },
      "properties": {
        "label": "Pulau Seraya Power Station",
        "type": "power plant",
        "entity": "http://www.wikidata.org/entity/Q11996469",
        "country_qid": "Q334",
        "Wikidata Qid": "Q11996469"
      }
    },
    {
      "type": "Feature",
      "geometry": {
        "type": "Point",
        "coordinates": [
          103.8,
          1.46666667
        ]
      },
      "properties": {
        "label": "Senoko Power Station",
        "type": "power plant",
        "entity": "http://www.wikidata.org/entity/Q2944699",
        "country_qid": "Q334",
        "Wikidata Qid": "Q2944699"
      }
    },
    {
      "type": "Feature",
      "geometry": {
        "type": "Point",
        "coordinates": [
          103.6205,
          1.2965
        ]
      },
      "properties": {
        "label": "Tuas South Incineration Plant",
        "type": "power plant",
        "entity": "http://www.wikidata.org/entity/Q113630077",
        "country_qid": "Q334",
        "Wikidata Qid": "Q113630077"
      }
    },
    {
      "type": "Feature",
      "geometry": {
        "type": "Point",
        "coordinates": [
          103.6677057,
          1.2763845
        ]
      },
      "properties": {
        "label": "Tembusu Multi-Utilities Complex",
        "type": "power plant",
        "entity": "http://www.wikidata.org/entity/Q116735026",
        "country_qid": "Q334",
        "Wikidata Qid": "Q116735026"
      }
    },
    {
      "type": "Feature",
      "geometry": {
        "type": "Point",
        "coordinates": [
          103.7947512,
          1.462305
        ]
      },
      "properties": {
        "label": "Senoko Incineration Plant",
        "type": "power plant",
        "entity": "http://www.wikidata.org/entity/Q116740932",
        "country_qid": "Q334",
        "Wikidata Qid": "Q116740932"
      }
    },
    {
      "type": "Feature",
      "geometry": {
        "type": "Point",
        "coordinates": [
          103.6697549,
          1.2592387
        ]
      },
      "properties": {
        "label": "Sembcorp Cogen Banyan Power Station",
        "type": "power plant",
        "entity": "http://www.wikidata.org/entity/Q116734933",
        "country_qid": "Q334",
        "Wikidata Qid": "Q116734933"
      }
    },
    {
      "type": "Feature",
      "geometry": {
        "type": "Point",
        "coordinates": [
          103.6747537,
          1.2821169
        ]
      },
      "properties": {
        "label": "Keppel Merlimau Cogen Plant",
        "type": "power plant",
        "entity": "http://www.wikidata.org/entity/Q116740818",
        "country_qid": "Q334",
        "Wikidata Qid": "Q116740818"
      }
    },
    {
      "type": "Feature",
      "geometry": {
        "type": "Point",
        "coordinates": [
          103.621738,
          1.2990917
        ]
      },
      "properties": {
        "label": "TuasOne Waste-to-energy Plant",
        "type": "power plant",
        "entity": "http://www.wikidata.org/entity/Q116740854",
        "country_qid": "Q334",
        "Wikidata Qid": "Q116740854"
      }
    },
    {
      "type": "Feature",
      "geometry": {
        "type": "Point",
        "coordinates": [
          103.6414,
          1.28876
        ]
      },
      "properties": {
        "label": "Tuas Power Plant",
        "type": "power plant",
        "entity": "http://www.wikidata.org/entity/Q18022429",
        "country_qid": "Q334",
        "Wikidata Qid": "Q18022429"
      }
    },
    {
      "type": "Feature",
      "geometry": {
        "type": "Point",
        "coordinates": [
          103.722626795,
          1.283543295
        ]
      },
      "properties": {
        "label": "PacificLight",
        "type": "power plant",
        "entity": "http://www.wikidata.org/entity/Q28401590",
        "country_qid": "Q334",
        "Wikidata Qid": "Q28401590"
      }
    },
    {
      "type": "Feature",
      "geometry": {
        "type": "Point",
        "coordinates": [
          103.839722222,
          1.404166666
        ]
      },
      "properties": {
        "label": "Lower Seletar Reservoir",
        "type": "Reservoir",
        "entity": "http://www.wikidata.org/entity/Q7332333",
        "country_qid": "Q334",
        "Wikidata Qid": "Q7332333"
      }
    },
    {
      "type": "Feature",
      "geometry": {
        "type": "Point",
        "coordinates": [
          103.867536111,
          1.286258333
        ]
      },
      "properties": {
        "label": "Marina Reservoir",
        "type": "Reservoir",
        "entity": "http://www.wikidata.org/entity/Q6763896",
        "country_qid": "Q334",
        "Wikidata Qid": "Q6763896"
      }
    },
    {
      "type": "Feature",
      "geometry": {
        "type": "Point",
        "coordinates": [
          103.823333333,
          1.369444444
        ]
      },
      "properties": {
        "label": "Lower Peirce Reservoir",
        "type": "Reservoir",
        "entity": "http://www.wikidata.org/entity/Q6693708",
        "country_qid": "Q334",
        "Wikidata Qid": "Q6693708"
      }
    },
    {
      "type": "Feature",
      "geometry": {
        "type": "Point",
        "coordinates": [
          103.673611,
          1.4
        ]
      },
      "properties": {
        "label": "Murai Reservoir",
        "type": "Reservoir",
        "entity": "http://www.wikidata.org/entity/Q6937236",
        "country_qid": "Q334",
        "Wikidata Qid": "Q6937236"
      }
    },
    {
      "type": "Feature",
      "geometry": {
        "type": "Point",
        "coordinates": [
          103.663888888,
          1.376944444
        ]
      },
      "properties": {
        "label": "Poyan Reservoir",
        "type": "Reservoir",
        "entity": "http://www.wikidata.org/entity/Q7236974",
        "country_qid": "Q334",
        "Wikidata Qid": "Q7236974"
      }
    },
    {
      "type": "Feature",
      "geometry": {
        "type": "Point",
        "coordinates": [
          103.726747222,
          1.341633333
        ]
      },
      "properties": {
        "label": "Jurong Lake",
        "type": "Reservoir",
        "entity": "http://www.wikidata.org/entity/Q6315365",
        "country_qid": "Q334",
        "Wikidata Qid": "Q6315365"
      }
    },
    {
      "type": "Feature",
      "geometry": {
        "type": "Point",
        "coordinates": [
          103.831111111,
          1.343611111
        ]
      },
      "properties": {
        "label": "MacRitchie Reservoir",
        "type": "Reservoir",
        "entity": "http://www.wikidata.org/entity/Q7331703",
        "country_qid": "Q334",
        "Wikidata Qid": "Q7331703"
      }
    },
    {
      "type": "Feature",
      "geometry": {
        "type": "Point",
        "coordinates": [
          104.042222222,
          1.413333333
        ]
      },
      "properties": {
        "label": "Pulau Tekong Reservoir",
        "type": "Reservoir",
        "entity": "http://www.wikidata.org/entity/Q7259253",
        "country_qid": "Q334",
        "Wikidata Qid": "Q7259253"
      }
    },
    {
      "type": "Feature",
      "geometry": {
        "type": "Point",
        "coordinates": [
          103.741666666,
          1.313888888
        ]
      },
      "properties": {
        "label": "Pandan Reservoir",
        "type": "Reservoir",
        "entity": "http://www.wikidata.org/entity/Q7130485",
        "country_qid": "Q334",
        "Wikidata Qid": "Q7130485"
      }
    },
    {
      "type": "Feature",
      "geometry": {
        "type": "Point",
        "coordinates": [
          103.979444444,
          1.344444444
        ]
      },
      "properties": {
        "label": "South End Reservoir",
        "type": "Reservoir",
        "entity": "http://www.wikidata.org/entity/Q7567189",
        "country_qid": "Q334",
        "Wikidata Qid": "Q7567189"
      }
    },
    {
      "type": "Feature",
      "geometry": {
        "type": "Point",
        "coordinates": [
          103.925,
          1.342222222
        ]
      },
      "properties": {
        "label": "Bedok Reservoir",
        "type": "Reservoir",
        "entity": "http://www.wikidata.org/entity/Q4879346",
        "country_qid": "Q334",
        "Wikidata Qid": "Q4879346"
      }
    },
    {
      "type": "Feature",
      "geometry": {
        "type": "Point",
        "coordinates": [
          103.743055555,
          1.428333333
        ]
      },
      "properties": {
        "label": "Kranji Reservoir",
        "type": "Reservoir",
        "entity": "http://www.wikidata.org/entity/Q6436092",
        "country_qid": "Q334",
        "Wikidata Qid": "Q6436092"
      }
    },
    {
      "type": "Feature",
      "geometry": {
        "type": "Point",
        "coordinates": [
          103.801944444,
          1.3675
        ]
      },
      "properties": {
        "label": "Upper Peirce Reservoir",
        "type": "Reservoir",
        "entity": "http://www.wikidata.org/entity/Q7337882",
        "country_qid": "Q334",
        "Wikidata Qid": "Q7337882"
      }
    },
    {
      "type": "Feature",
      "geometry": {
        "type": "Point",
        "coordinates": [
          103.847222,
          1.304167
        ]
      },
      "properties": {
        "label": "Mount Emily Reservoir",
        "type": "Reservoir",
        "entity": "http://www.wikidata.org/entity/Q86752348",
        "country_qid": "Q334",
        "Wikidata Qid": "Q86752348"
      }
    },
    {
      "type": "Feature",
      "geometry": {
        "type": "Point",
        "coordinates": [
          103.6425,
          1.349444444
        ]
      },
      "properties": {
        "label": "Tengeh Reservoir",
        "type": "Reservoir",
        "entity": "http://www.wikidata.org/entity/Q7332379",
        "country_qid": "Q334",
        "Wikidata Qid": "Q7332379"
      }
    },
    {
      "type": "Feature",
      "geometry": {
        "type": "Point",
        "coordinates": [
          103.684166666,
          1.425
        ]
      },
      "properties": {
        "label": "Sarimbun Reservoir",
        "type": "Reservoir",
        "entity": "http://www.wikidata.org/entity/Q7347476",
        "country_qid": "Q334",
        "Wikidata Qid": "Q7347476"
      }
    },
    {
      "type": "Feature",
      "geometry": {
        "type": "Point",
        "coordinates": [
          103.995,
          1.386388888
        ]
      },
      "properties": {
        "label": "Changi Creek Reservoir",
        "type": "Reservoir",
        "entity": "http://www.wikidata.org/entity/Q5071991",
        "country_qid": "Q334",
        "Wikidata Qid": "Q5071991"
      }
    },
    {
      "type": "Feature",
      "geometry": {
        "type": "Point",
        "coordinates": [
          103.803888888,
          1.401111111
        ]
      },
      "properties": {
        "label": "Upper Seletar Reservoir",
        "type": "Reservoir",
        "entity": "http://www.wikidata.org/entity/Q7334084",
        "country_qid": "Q334",
        "Wikidata Qid": "Q7334084"
      }
    },
    {
      "type": "Feature",
      "geometry": {
        "type": "Point",
        "coordinates": [
          103.846666666,
          1.293611111
        ]
      },
      "properties": {
        "label": "Fort Canning Reservoir",
        "type": "Reservoir",
        "entity": "http://www.wikidata.org/entity/Q5470891",
        "country_qid": "Q334",
        "Wikidata Qid": "Q5470891"
      }
    },
    {
      "type": "Feature",
      "geometry": {
        "type": "Point",
        "coordinates": [
          103.76,
          1.33343
        ]
      },
      "properties": {
        "label": "Ulu Pandan Depot",
        "type": "Industrial building",
        "entity": "http://www.wikidata.org/entity/Q7880749",
        "country_qid": "Q334",
        "Wikidata Qid": "Q7880749"
      }
    },
    {
      "type": "Feature",
      "geometry": {
        "type": "Point",
        "coordinates": [
          103.79696,
          1.419357
        ]
      },
      "properties": {
        "label": "Mandai Depot",
        "type": "Industrial building",
        "entity": "http://www.wikidata.org/entity/Q6747717",
        "country_qid": "Q334",
        "Wikidata Qid": "Q6747717"
      }
    },
    {
      "type": "Feature",
      "geometry": {
        "type": "Point",
        "coordinates": [
          103.885,
          1.388888888
        ]
      },
      "properties": {
        "label": "Sengkang Depot",
        "type": "Industrial building",
        "entity": "http://www.wikidata.org/entity/Q7450575",
        "country_qid": "Q334",
        "Wikidata Qid": "Q7450575"
      }
    },
    {
      "type": "Feature",
      "geometry": {
        "type": "Point",
        "coordinates": [
          103.849,
          1.29208
        ]
      },
      "properties": {
        "label": "Central Fire Station, Singapore",
        "type": "Industrial building",
        "entity": "http://www.wikidata.org/entity/Q5061081",
        "country_qid": "Q334",
        "Wikidata Qid": "Q5061081"
      }
    },
    {
      "type": "Feature",
      "geometry": {
        "type": "Point",
        "coordinates": [
          103.643666666,
          1.338055555
        ]
      },
      "properties": {
        "label": "Tuas Depot",
        "type": "Industrial building",
        "entity": "http://www.wikidata.org/entity/Q7850661",
        "country_qid": "Q334",
        "Wikidata Qid": "Q7850661"
      }
    },
    {
      "type": "Feature",
      "geometry": {
        "type": "Point",
        "coordinates": [
          103.6665,
          1.2752
        ]
      },
      "properties": {
        "label": "Jurong Island desalination plant",
        "type": "Industrial building",
        "entity": "http://www.wikidata.org/entity/Q111992528",
        "country_qid": "Q334",
        "Wikidata Qid": "Q111992528"
      }
    },
    {
      "type": "Feature",
      "geometry": {
        "type": "Point",
        "coordinates": [
          103.698,
          1.33102
        ]
      },
      "properties": {
        "label": "Soon Lee Bus Park",
        "type": "Industrial building",
        "entity": "http://www.wikidata.org/entity/Q7562691",
        "country_qid": "Q334",
        "Wikidata Qid": "Q7562691"
      }
    },
    {
      "type": "Feature",
      "geometry": {
        "type": "Point",
        "coordinates": [
          103.76,
          1.38029
        ]
      },
      "properties": {
        "label": "Ten Mile Junction Depot",
        "type": "Industrial building",
        "entity": "http://www.wikidata.org/entity/Q7699236",
        "country_qid": "Q334",
        "Wikidata Qid": "Q7699236"
      }
    },
    {
      "type": "Feature",
      "geometry": {
        "type": "Point",
        "coordinates": [
          103.957591666,
          1.329630555
        ]
      },
      "properties": {
        "label": "Changi Depot",
        "type": "Industrial building",
        "entity": "http://www.wikidata.org/entity/Q5071992",
        "country_qid": "Q334",
        "Wikidata Qid": "Q5071992"
      }
    },
    {
      "type": "Feature",
      "geometry": {
        "type": "Point",
        "coordinates": [
          103.887,
          1.3411
        ]
      },
      "properties": {
        "label": "Kim Chuan Depot",
        "type": "Industrial building",
        "entity": "http://www.wikidata.org/entity/Q6408482",
        "country_qid": "Q334",
        "Wikidata Qid": "Q6408482"
      }
    },
    {
      "type": "Feature",
      "geometry": {
        "type": "Point",
        "coordinates": [
          103.756,
          1.39794
        ]
      },
      "properties": {
        "label": "Gali Batu Depot",
        "type": "Industrial building",
        "entity": "http://www.wikidata.org/entity/Q5518541",
        "country_qid": "Q334",
        "Wikidata Qid": "Q5518541"
      }
    },
    {
      "type": "Feature",
      "geometry": {
        "type": "Point",
        "coordinates": [
          103.702,
          1.27448
        ]
      },
      "properties": {
        "label": "ExxonMobil Singapore Chemical Plant",
        "type": "Industrial building",
        "entity": "http://www.wikidata.org/entity/Q16510567",
        "country_qid": "Q334",
        "Wikidata Qid": "Q16510567"
      }
    },
    {
      "type": "Feature",
      "geometry": {
        "type": "Point",
        "coordinates": [
          103.7499,
          1.3266
        ]
      },
      "properties": {
        "label": "Ulu Pandan Bus Depot",
        "type": "Industrial building",
        "entity": "http://www.wikidata.org/entity/Q39053642",
        "country_qid": "Q334",
        "Wikidata Qid": "Q39053642"
      }
    },
    {
      "type": "Feature",
      "geometry": {
        "type": "Point",
        "coordinates": [
          103.854,
          1.35529
        ]
      },
      "properties": {
        "label": "Bishan Depot",
        "type": "Industrial building",
        "entity": "http://www.wikidata.org/entity/Q4917328",
        "country_qid": "Q334",
        "Wikidata Qid": "Q4917328"
      }
    },
    {
      "type": "Feature",
      "geometry": {
        "type": "Point",
        "coordinates": [
          103.73951972,
          1.32549
        ]
      },
      "properties": {
        "label": "Singapore Mint",
        "type": "Industrial building",
        "entity": "http://www.wikidata.org/entity/Q7523053",
        "country_qid": "Q334",
        "Wikidata Qid": "Q7523053"
      }
    },
    {
      "type": "Feature",
      "geometry": {
        "type": "Point",
        "coordinates": [
          103.846017,
          1.28265
        ]
      },
      "properties": {
        "label": "Lion Brewery Co",
        "type": "Industrial building",
        "entity": "http://www.wikidata.org/entity/Q133826797",
        "country_qid": "Q334",
        "Wikidata Qid": "Q133826797"
      }
    },
    {
      "type": "Feature",
      "geometry": {
        "type": "Point",
        "coordinates": [
          103.95734,
          1.32736
        ]
      },
      "properties": {
        "label": "East Coast Integrated Depot",
        "type": "Industrial building",
        "entity": "http://www.wikidata.org/entity/Q29025336",
        "country_qid": "Q334",
        "Wikidata Qid": "Q29025336"
      }
    },
    {
      "type": "Feature",
      "geometry": {
        "type": "Point",
        "coordinates": [
          103.7725,
          1.405833333
        ]
      },
      "properties": {
        "label": "Seng Kee Quarry",
        "type": "Mine",
        "entity": "http://www.wikidata.org/entity/Q49460366",
        "country_qid": "Q334",
        "Wikidata Qid": "Q49460366"
      }
    },
    {
      "type": "Feature",
      "geometry": {
        "type": "Point",
        "coordinates": [
          103.754166666,
          1.361111111
        ]
      },
      "properties": {
        "label": "Seng Chew Quarry",
        "type": "Mine",
        "entity": "http://www.wikidata.org/entity/Q49460365",
        "country_qid": "Q334",
        "Wikidata Qid": "Q49460365"
      }
    },
    {
      "type": "Feature",
      "geometry": {
        "type": "Point",
        "coordinates": [
          103.756666666,
          1.355
        ]
      },
      "properties": {
        "label": "Gammon Granite Quarry",
        "type": "Mine",
        "entity": "http://www.wikidata.org/entity/Q49460222",
        "country_qid": "Q334",
        "Wikidata Qid": "Q49460222"
      }
    }
  ]
}