{
  "type": "FeatureCollection",
  "features": [
    {
      "type": "Feature",
      "geometry": {
        "type": "Point",
        "coordinates": [
          4.385556,
          50.188611
        ]
      },
      "properties": {
        "label": "Eau d'Heure lakes",
        "type": "Reservoir",
        "entity": "http://www.wikidata.org/entity/Q617270",
        "country_qid": "Q31"
      }
    },
    {
      "type": "Feature",
      "geometry": {
        "type": "Point",
        "coordinates": [
          4.60319,
          50.5815
        ]
      },
      "properties": {
        "label": "Fonts baptismaux de Gentinnes",
        "type": "Reservoir",
        "entity": "http://www.wikidata.org/entity/Q3076408",
        "country_qid": "Q31"
      }
    },
    {
      "type": "Feature",
      "geometry": {
        "type": "Point",
        "coordinates": [
          5.99,
          50.58555556
        ]
      },
      "properties": {
        "label": "Lake Gileppe",
        "type": "Reservoir",
        "entity": "http://www.wikidata.org/entity/Q17373262",
        "country_qid": "Q31"
      }
    },
    {
      "type": "Feature",
      "geometry": {
        "type": "Point",
        "coordinates": [
          4.52655,
          50.3376
        ]
      },
      "properties": {
        "label": "Fonts baptismaux de Gerpinnes",
        "type": "Reservoir",
        "entity": "http://www.wikidata.org/entity/Q3076411",
        "country_qid": "Q31"
      }
    },
    {
      "type": "Feature",
      "geometry": {
        "type": "Point",
        "coordinates": [
          4.322080555,
          50.860325
        ]
      },
      "properties": {
        "label": "Q42431833",
        "type": "Reservoir",
        "entity": "http://www.wikidata.org/entity/Q42431833",
        "country_qid": "Q31"
      }
    },
    {
      "type": "Feature",
      "geometry": {
        "type": "Point",
        "coordinates": [
          5.889444444,
          50.502777777
        ]
      },
      "properties": {
        "label": "Lake Warfaaz",
        "type": "Reservoir",
        "entity": "http://www.wikidata.org/entity/Q1129678",
        "country_qid": "Q31"
      }
    },
    {
      "type": "Feature",
      "geometry": {
        "type": "Point",
        "coordinates": [
          5.583077,
          50.647966
        ]
      },
      "properties": {
        "label": "Baptismal font at St Bartholomew's Church, Liège",
        "type": "Reservoir",
        "entity": "http://www.wikidata.org/entity/Q3076419",
        "country_qid": "Q31"
      }
    },
    {
      "type": "Feature",
      "geometry": {
        "type": "Point",
        "coordinates": [
          5.41229,
          50.5299
        ]
      },
      "properties": {
        "label": "Fonts baptismaux de Saint-Séverin-en-Condroz",
        "type": "Reservoir",
        "entity": "http://www.wikidata.org/entity/Q3076412",
        "country_qid": "Q31"
      }
    },
    {
      "type": "Feature",
      "geometry": {
        "type": "Point",
        "coordinates": [
          5.6685,
          50.1445
        ]
      },
      "properties": {
        "label": "Lake Nisramont",
        "type": "Reservoir",
        "entity": "http://www.wikidata.org/entity/Q2094247",
        "country_qid": "Q31"
      }
    },
    {
      "type": "Feature",
      "geometry": {
        "type": "Point",
        "coordinates": [
          6.092222222,
          50.616666666
        ]
      },
      "properties": {
        "label": "Dam of the Vesdre",
        "type": "Reservoir",
        "entity": "http://www.wikidata.org/entity/Q165395",
        "country_qid": "Q31"
      }
    },
    {
      "type": "Feature",
      "geometry": {
        "type": "Point",
        "coordinates": [
          6.113611111,
          50.45
        ]
      },
      "properties": {
        "label": "Lake Robertville",
        "type": "Reservoir",
        "entity": "http://www.wikidata.org/entity/Q320702",
        "country_qid": "Q31"
      }
    },
    {
      "type": "Feature",
      "geometry": {
        "type": "Point",
        "coordinates": [
          4.346032,
          50.849719
        ]
      },
      "properties": {
        "label": "Q124037404",
        "type": "Reservoir",
        "entity": "http://www.wikidata.org/entity/Q124037404",
        "country_qid": "Q31"
      }
    },
    {
      "type": "Feature",
      "geometry": {
        "type": "Point",
        "coordinates": [
          3.13611,
          51.1432
        ]
      },
      "properties": {
        "label": "Baptismal font of Zedelgem",
        "type": "Reservoir",
        "entity": "http://www.wikidata.org/entity/Q3076416",
        "country_qid": "Q31"
      }
    },
    {
      "type": "Feature",
      "geometry": {
        "type": "Point",
        "coordinates": [
          6.227777777,
          50.4275
        ]
      },
      "properties": {
        "label": "Lake Bütgenbach",
        "type": "Reservoir",
        "entity": "http://www.wikidata.org/entity/Q470432",
        "country_qid": "Q31"
      }
    },
    {
      "type": "Feature",
      "geometry": {
        "type": "Point",
        "coordinates": [
          5.377593,
          49.7338
        ]
      },
      "properties": {
        "label": "Lac de la Vierre",
        "type": "Reservoir",
        "entity": "http://www.wikidata.org/entity/Q1933210",
        "country_qid": "Q31"
      }
    },
    {
      "type": "Feature",
      "geometry": {
        "type": "Point",
        "coordinates": [
          4.70625,
          50.3084
        ]
      },
      "properties": {
        "label": "Fonts baptismaux de Furnaux",
        "type": "Reservoir",
        "entity": "http://www.wikidata.org/entity/Q3076407",
        "country_qid": "Q31"
      }
    },
    {
      "type": "Feature",
      "geometry": {
        "type": "Point",
        "coordinates": [
          4.77327,
          50.7807
        ]
      },
      "properties": {
        "label": "Fonts baptismaux de Beauvechain",
        "type": "Reservoir",
        "entity": "http://www.wikidata.org/entity/Q3076404",
        "country_qid": "Q31"
      }
    }
  ]
}