{
  "type": "FeatureCollection",
  "features": [
    {
      "type": "Feature",
      "geometry": {
        "type": "Point",
        "coordinates": [
          24.85806,
          35.10222
        ]
      },
      "properties": {
        "label": "Phaneromeni reservoir",
        "type": "Reservoir",
        "entity": "http://www.wikidata.org/entity/Q97202572",
        "country_qid": "Q41"
      }
    },
    {
      "type": "Feature",
      "geometry": {
        "type": "Point",
        "coordinates": [
          22.8217,
          39.4916
        ]
      },
      "properties": {
        "label": "Lake Karla",
        "type": "Reservoir",
        "entity": "http://www.wikidata.org/entity/Q6476415",
        "country_qid": "Q41"
      }
    },
    {
      "type": "Feature",
      "geometry": {
        "type": "Point",
        "coordinates": [
          21.37388889,
          38.79861111
        ]
      },
      "properties": {
        "label": "Kastraki lake",
        "type": "Reservoir",
        "entity": "http://www.wikidata.org/entity/Q1365911",
        "country_qid": "Q41"
      }
    },
    {
      "type": "Feature",
      "geometry": {
        "type": "Point",
        "coordinates": [
          22.098,
          39.15
        ]
      },
      "properties": {
        "label": "Lake Smokovo",
        "type": "Reservoir",
        "entity": "http://www.wikidata.org/entity/Q12880042",
        "country_qid": "Q41"
      }
    },
    {
      "type": "Feature",
      "geometry": {
        "type": "Point",
        "coordinates": [
          22.004,
          40.805
        ]
      },
      "properties": {
        "label": "Lake Agra",
        "type": "Reservoir",
        "entity": "http://www.wikidata.org/entity/Q12880034",
        "country_qid": "Q41"
      }
    },
    {
      "type": "Feature",
      "geometry": {
        "type": "Point",
        "coordinates": [
          23.9,
          38.168611111
        ]
      },
      "properties": {
        "label": "Lake Marathon",
        "type": "Reservoir",
        "entity": "http://www.wikidata.org/entity/Q1166181",
        "country_qid": "Q41"
      }
    },
    {
      "type": "Feature",
      "geometry": {
        "type": "Point",
        "coordinates": [
          24.224166666,
          41.353333333
        ]
      },
      "properties": {
        "label": "Thisavros lake",
        "type": "Reservoir",
        "entity": "http://www.wikidata.org/entity/Q15057367",
        "country_qid": "Q41"
      }
    },
    {
      "type": "Feature",
      "geometry": {
        "type": "Point",
        "coordinates": [
          23.720277777,
          38.046944444
        ]
      },
      "properties": {
        "label": "Lake Korykia",
        "type": "Reservoir",
        "entity": "http://www.wikidata.org/entity/Q103923956",
        "country_qid": "Q41"
      }
    },
    {
      "type": "Feature",
      "geometry": {
        "type": "Point",
        "coordinates": [
          23.720277777,
          38.046666666
        ]
      },
      "properties": {
        "label": "Kifisida Lake",
        "type": "Reservoir",
        "entity": "http://www.wikidata.org/entity/Q103923424",
        "country_qid": "Q41"
      }
    },
    {
      "type": "Feature",
      "geometry": {
        "type": "Point",
        "coordinates": [
          21.01,
          39.25
        ]
      },
      "properties": {
        "label": "Pournari lake",
        "type": "Reservoir",
        "entity": "http://www.wikidata.org/entity/Q2106785",
        "country_qid": "Q41"
      }
    },
    {
      "type": "Feature",
      "geometry": {
        "type": "Point",
        "coordinates": [
          25.519972222,
          41.163083333
        ]
      },
      "properties": {
        "label": "Gratini lake",
        "type": "Reservoir",
        "entity": "http://www.wikidata.org/entity/Q65233607",
        "country_qid": "Q41"
      }
    },
    {
      "type": "Feature",
      "geometry": {
        "type": "Point",
        "coordinates": [
          22.153888888,
          40.368888888
        ]
      },
      "properties": {
        "label": "Sfikia",
        "type": "Reservoir",
        "entity": "http://www.wikidata.org/entity/Q122310214",
        "country_qid": "Q41"
      }
    },
    {
      "type": "Feature",
      "geometry": {
        "type": "Point",
        "coordinates": [
          21.69214,
          40.88933
        ]
      },
      "properties": {
        "label": "Papadia lake",
        "type": "Reservoir",
        "entity": "http://www.wikidata.org/entity/Q25171539",
        "country_qid": "Q41"
      }
    },
    {
      "type": "Feature",
      "geometry": {
        "type": "Point",
        "coordinates": [
          21.5,
          38.94
        ]
      },
      "properties": {
        "label": "Kremasta lake",
        "type": "Reservoir",
        "entity": "http://www.wikidata.org/entity/Q926593",
        "country_qid": "Q41"
      }
    },
    {
      "type": "Feature",
      "geometry": {
        "type": "Point",
        "coordinates": [
          22.759249,
          37.730791
        ]
      },
      "properties": {
        "label": "Underground Cistern of Mycenae",
        "type": "Reservoir",
        "entity": "http://www.wikidata.org/entity/Q38279608",
        "country_qid": "Q41"
      }
    },
    {
      "type": "Feature",
      "geometry": {
        "type": "Point",
        "coordinates": [
          25.215373993,
          35.128094085
        ]
      },
      "properties": {
        "label": "Partira reservoir",
        "type": "Reservoir",
        "entity": "http://www.wikidata.org/entity/Q109943513",
        "country_qid": "Q41"
      }
    },
    {
      "type": "Feature",
      "geometry": {
        "type": "Point",
        "coordinates": [
          27.986111111,
          36.17
        ]
      },
      "properties": {
        "label": "Gadouras",
        "type": "Reservoir",
        "entity": "http://www.wikidata.org/entity/Q122260722",
        "country_qid": "Q41"
      }
    },
    {
      "type": "Feature",
      "geometry": {
        "type": "Point",
        "coordinates": [
          21.3325,
          38.693611111
        ]
      },
      "properties": {
        "label": "Stratos lake",
        "type": "Reservoir",
        "entity": "http://www.wikidata.org/entity/Q1479231",
        "country_qid": "Q41"
      }
    },
    {
      "type": "Feature",
      "geometry": {
        "type": "Point",
        "coordinates": [
          24.57083321,
          35.28055573
        ]
      },
      "properties": {
        "label": "Potamoi lake",
        "type": "Reservoir",
        "entity": "http://www.wikidata.org/entity/Q18629933",
        "country_qid": "Q41"
      }
    },
    {
      "type": "Feature",
      "geometry": {
        "type": "Point",
        "coordinates": [
          25.37835,
          37.10764
        ]
      },
      "properties": {
        "label": "Trani fountain",
        "type": "Reservoir",
        "entity": "http://www.wikidata.org/entity/Q123468968",
        "country_qid": "Q41"
      }
    },
    {
      "type": "Feature",
      "geometry": {
        "type": "Point",
        "coordinates": [
          22.01,
          37.76
        ]
      },
      "properties": {
        "label": "Ladon lake",
        "type": "Reservoir",
        "entity": "http://www.wikidata.org/entity/Q6469801",
        "country_qid": "Q41"
      }
    },
    {
      "type": "Feature",
      "geometry": {
        "type": "Point",
        "coordinates": [
          21.485277777,
          37.896111111
        ]
      },
      "properties": {
        "label": "Pinios Lake",
        "type": "Reservoir",
        "entity": "http://www.wikidata.org/entity/Q15057381",
        "country_qid": "Q41"
      }
    },
    {
      "type": "Feature",
      "geometry": {
        "type": "Point",
        "coordinates": [
          24.423611111,
          41.352777777
        ]
      },
      "properties": {
        "label": "Platanovrysi lake",
        "type": "Reservoir",
        "entity": "http://www.wikidata.org/entity/Q12880043",
        "country_qid": "Q41"
      }
    },
    {
      "type": "Feature",
      "geometry": {
        "type": "Point",
        "coordinates": [
          24.964478015,
          35.135562826
        ]
      },
      "properties": {
        "label": "Gergeri reservoir",
        "type": "Reservoir",
        "entity": "http://www.wikidata.org/entity/Q134570575",
        "country_qid": "Q41"
      }
    },
    {
      "type": "Feature",
      "geometry": {
        "type": "Point",
        "coordinates": [
          21.6425,
          37.140555555
        ]
      },
      "properties": {
        "label": "Lake Dopoli",
        "type": "Reservoir",
        "entity": "http://www.wikidata.org/entity/Q112034093",
        "country_qid": "Q41"
      }
    },
    {
      "type": "Feature",
      "geometry": {
        "type": "Point",
        "coordinates": [
          25.699166666,
          35.038611111
        ]
      },
      "properties": {
        "label": "Bramiana Reservoir",
        "type": "Reservoir",
        "entity": "http://www.wikidata.org/entity/Q25163899",
        "country_qid": "Q41"
      }
    },
    {
      "type": "Feature",
      "geometry": {
        "type": "Point",
        "coordinates": [
          22.937427,
          40.643165
        ]
      },
      "properties": {
        "label": "Cistern of Agioi Apostoloi",
        "type": "Reservoir",
        "entity": "http://www.wikidata.org/entity/Q38283665",
        "country_qid": "Q41"
      }
    },
    {
      "type": "Feature",
      "geometry": {
        "type": "Point",
        "coordinates": [
          22.15,
          38.54
        ]
      },
      "properties": {
        "label": "Lake Mornos",
        "type": "Reservoir",
        "entity": "http://www.wikidata.org/entity/Q12880041",
        "country_qid": "Q41"
      }
    },
    {
      "type": "Feature",
      "geometry": {
        "type": "Point",
        "coordinates": [
          25.17285,
          37.548598
        ]
      },
      "properties": {
        "label": "Dam Vaketas in Tinos",
        "type": "Reservoir",
        "entity": "http://www.wikidata.org/entity/Q56810094",
        "country_qid": "Q41"
      }
    },
    {
      "type": "Feature",
      "geometry": {
        "type": "Point",
        "coordinates": [
          22.440555555,
          41.035555555
        ]
      },
      "properties": {
        "label": "Mine Lake",
        "type": "Reservoir",
        "entity": "http://www.wikidata.org/entity/Q15057378",
        "country_qid": "Q41"
      }
    },
    {
      "type": "Feature",
      "geometry": {
        "type": "Point",
        "coordinates": [
          26.172609329,
          39.216428291
        ]
      },
      "properties": {
        "label": "Potamia reservoir",
        "type": "Reservoir",
        "entity": "http://www.wikidata.org/entity/Q134581265",
        "country_qid": "Q41"
      }
    },
    {
      "type": "Feature",
      "geometry": {
        "type": "Point",
        "coordinates": [
          23.721111111,
          38.044166666
        ]
      },
      "properties": {
        "label": "Lake Asopiada",
        "type": "Reservoir",
        "entity": "http://www.wikidata.org/entity/Q103922111",
        "country_qid": "Q41"
      }
    },
    {
      "type": "Feature",
      "geometry": {
        "type": "Point",
        "coordinates": [
          21.742748587,
          37.974571345
        ]
      },
      "properties": {
        "label": "Lake Velimáchí",
        "type": "Reservoir",
        "entity": "http://www.wikidata.org/entity/Q18692276",
        "country_qid": "Q41"
      }
    },
    {
      "type": "Feature",
      "geometry": {
        "type": "Point",
        "coordinates": [
          21.105777777,
          40.3545
        ]
      },
      "properties": {
        "label": "Vrachos Lake",
        "type": "Reservoir",
        "entity": "http://www.wikidata.org/entity/Q105000745",
        "country_qid": "Q41"
      }
    },
    {
      "type": "Feature",
      "geometry": {
        "type": "Point",
        "coordinates": [
          23.720277777,
          38.047777777
        ]
      },
      "properties": {
        "label": "Lake Melia",
        "type": "Reservoir",
        "entity": "http://www.wikidata.org/entity/Q103924279",
        "country_qid": "Q41"
      }
    },
    {
      "type": "Feature",
      "geometry": {
        "type": "Point",
        "coordinates": [
          25.159558296,
          35.119922612
        ]
      },
      "properties": {
        "label": "Armanogeia reservoir",
        "type": "Reservoir",
        "entity": "http://www.wikidata.org/entity/Q109943466",
        "country_qid": "Q41"
      }
    },
    {
      "type": "Feature",
      "geometry": {
        "type": "Point",
        "coordinates": [
          22.64944,
          41.03361
        ]
      },
      "properties": {
        "label": "Q12272300",
        "type": "Reservoir",
        "entity": "http://www.wikidata.org/entity/Q12272300",
        "country_qid": "Q41"
      }
    },
    {
      "type": "Feature",
      "geometry": {
        "type": "Point",
        "coordinates": [
          23.7206,
          38.045338
        ]
      },
      "properties": {
        "label": "Lake Naiada",
        "type": "Reservoir",
        "entity": "http://www.wikidata.org/entity/Q103982681",
        "country_qid": "Q41"
      }
    },
    {
      "type": "Feature",
      "geometry": {
        "type": "Point",
        "coordinates": [
          25.275824543,
          35.094946799
        ]
      },
      "properties": {
        "label": "Ini reservoir",
        "type": "Reservoir",
        "entity": "http://www.wikidata.org/entity/Q109943532",
        "country_qid": "Q41"
      }
    },
    {
      "type": "Feature",
      "geometry": {
        "type": "Point",
        "coordinates": [
          24.694411754,
          35.211580008
        ]
      },
      "properties": {
        "label": "Vizari reservoir",
        "type": "Reservoir",
        "entity": "http://www.wikidata.org/entity/Q134425563",
        "country_qid": "Q41"
      }
    },
    {
      "type": "Feature",
      "geometry": {
        "type": "Point",
        "coordinates": [
          21.366944444,
          38.801666666
        ]
      },
      "properties": {
        "label": "Q25123036",
        "type": "Reservoir",
        "entity": "http://www.wikidata.org/entity/Q25123036",
        "country_qid": "Q41"
      }
    },
    {
      "type": "Feature",
      "geometry": {
        "type": "Point",
        "coordinates": [
          27.795,
          36.103888888
        ]
      },
      "properties": {
        "label": "Apolakkia lake",
        "type": "Reservoir",
        "entity": "http://www.wikidata.org/entity/Q122233561",
        "country_qid": "Q41"
      }
    },
    {
      "type": "Feature",
      "geometry": {
        "type": "Point",
        "coordinates": [
          25.406111111,
          35.246111111
        ]
      },
      "properties": {
        "label": "Aposelemis lake",
        "type": "Reservoir",
        "entity": "http://www.wikidata.org/entity/Q72187481",
        "country_qid": "Q41"
      }
    },
    {
      "type": "Feature",
      "geometry": {
        "type": "Point",
        "coordinates": [
          21.863838641,
          38.666517914
        ]
      },
      "properties": {
        "label": "Evinos Lake",
        "type": "Reservoir",
        "entity": "http://www.wikidata.org/entity/Q65231567",
        "country_qid": "Q41"
      }
    },
    {
      "type": "Feature",
      "geometry": {
        "type": "Point",
        "coordinates": [
          25.841854,
          35.011387
        ]
      },
      "properties": {
        "label": "roman fish tank of Ferma",
        "type": "Reservoir",
        "entity": "http://www.wikidata.org/entity/Q113571605",
        "country_qid": "Q41"
      }
    },
    {
      "type": "Feature",
      "geometry": {
        "type": "Point",
        "coordinates": [
          25.7370346,
          35.2982222
        ]
      },
      "properties": {
        "label": "Cisterns in vaulted design",
        "type": "Reservoir",
        "entity": "http://www.wikidata.org/entity/Q124306768",
        "country_qid": "Q41"
      }
    },
    {
      "type": "Feature",
      "geometry": {
        "type": "Point",
        "coordinates": [
          25.111724852,
          35.13250241
        ]
      },
      "properties": {
        "label": "Damania reservoir",
        "type": "Reservoir",
        "entity": "http://www.wikidata.org/entity/Q109943444",
        "country_qid": "Q41"
      }
    },
    {
      "type": "Feature",
      "geometry": {
        "type": "Point",
        "coordinates": [
          22.5138,
          39.96127
        ]
      },
      "properties": {
        "label": "Lake Kati",
        "type": "Reservoir",
        "entity": "http://www.wikidata.org/entity/Q38128452",
        "country_qid": "Q41"
      }
    },
    {
      "type": "Feature",
      "geometry": {
        "type": "Point",
        "coordinates": [
          25.188088417,
          35.121874292
        ]
      },
      "properties": {
        "label": "Armougeles reservoir",
        "type": "Reservoir",
        "entity": "http://www.wikidata.org/entity/Q109943509",
        "country_qid": "Q41"
      }
    },
    {
      "type": "Feature",
      "geometry": {
        "type": "Point",
        "coordinates": [
          21.75,
          39.3
        ]
      },
      "properties": {
        "label": "Lake Plastiras",
        "type": "Reservoir",
        "entity": "http://www.wikidata.org/entity/Q1475796",
        "country_qid": "Q41"
      }
    },
    {
      "type": "Feature",
      "geometry": {
        "type": "Point",
        "coordinates": [
          21.07375,
          39.82988
        ]
      },
      "properties": {
        "label": "Lake Aoos",
        "type": "Reservoir",
        "entity": "http://www.wikidata.org/entity/Q12880038",
        "country_qid": "Q41"
      }
    },
    {
      "type": "Feature",
      "geometry": {
        "type": "Point",
        "coordinates": [
          22.286388888,
          37.929166666
        ]
      },
      "properties": {
        "label": "Lake Doxa",
        "type": "Reservoir",
        "entity": "http://www.wikidata.org/entity/Q3565135",
        "country_qid": "Q41"
      }
    },
    {
      "type": "Feature",
      "geometry": {
        "type": "Point",
        "coordinates": [
          25.899856567,
          36.832483294
        ]
      },
      "properties": {
        "label": "Old Cistern, Amorgos",
        "type": "Reservoir",
        "entity": "http://www.wikidata.org/entity/Q134454300",
        "country_qid": "Q41"
      }
    },
    {
      "type": "Feature",
      "geometry": {
        "type": "Point",
        "coordinates": [
          22.215555555,
          40.436111111
        ]
      },
      "properties": {
        "label": "Lake Asomaton",
        "type": "Reservoir",
        "entity": "http://www.wikidata.org/entity/Q15057364",
        "country_qid": "Q41"
      }
    },
    {
      "type": "Feature",
      "geometry": {
        "type": "Point",
        "coordinates": [
          21.946944444,
          40.213055555
        ]
      },
      "properties": {
        "label": "Lake Polyfytos",
        "type": "Reservoir",
        "entity": "http://www.wikidata.org/entity/Q12880045",
        "country_qid": "Q41"
      }
    },
    {
      "type": "Feature",
      "geometry": {
        "type": "Point",
        "coordinates": [
          23.7175,
          38.038888888
        ]
      },
      "properties": {
        "label": "Lake Aheloida",
        "type": "Reservoir",
        "entity": "http://www.wikidata.org/entity/Q103925161",
        "country_qid": "Q41"
      }
    },
    {
      "type": "Feature",
      "geometry": {
        "type": "Point",
        "coordinates": [
          23.13,
          41.21
        ]
      },
      "properties": {
        "label": "Lake Kerkini",
        "type": "Reservoir",
        "entity": "http://www.wikidata.org/entity/Q1739269",
        "country_qid": "Q41"
      }
    },
    {
      "type": "Feature",
      "geometry": {
        "type": "Point",
        "coordinates": [
          21.5807,
          37.6325
        ]
      },
      "properties": {
        "label": "Alfeios Lake",
        "type": "Reservoir",
        "entity": "http://www.wikidata.org/entity/Q15137647",
        "country_qid": "Q41"
      }
    },
    {
      "type": "Feature",
      "geometry": {
        "type": "Point",
        "coordinates": [
          24.034644,
          35.507475
        ]
      },
      "properties": {
        "label": "Old aqueduct of Chania",
        "type": "Reservoir",
        "entity": "http://www.wikidata.org/entity/Q113925645",
        "country_qid": "Q41"
      }
    },
    {
      "type": "Feature",
      "geometry": {
        "type": "Point",
        "coordinates": [
          23.9114,
          41.40047
        ]
      },
      "properties": {
        "label": "Lefkogeia",
        "type": "Reservoir",
        "entity": "http://www.wikidata.org/entity/Q94642809",
        "country_qid": "Q41"
      }
    },
    {
      "type": "Feature",
      "geometry": {
        "type": "Point",
        "coordinates": [
          20.85,
          39.261944444
        ]
      },
      "properties": {
        "label": "Louros reservoir",
        "type": "Reservoir",
        "entity": "http://www.wikidata.org/entity/Q15057373",
        "country_qid": "Q41"
      }
    },
    {
      "type": "Feature",
      "geometry": {
        "type": "Point",
        "coordinates": [
          22.159722222,
          40.363333333
        ]
      },
      "properties": {
        "label": "Q12880049",
        "type": "Reservoir",
        "entity": "http://www.wikidata.org/entity/Q12880049",
        "country_qid": "Q41"
      }
    },
    {
      "type": "Feature",
      "geometry": {
        "type": "Point",
        "coordinates": [
          21.670527777,
          40.564277777
        ]
      },
      "properties": {
        "label": "Perdikkas Lake",
        "type": "Reservoir",
        "entity": "http://www.wikidata.org/entity/Q127060047",
        "country_qid": "Q41"
      }
    }
  ]
}