{
  "type": "FeatureCollection",
  "features": [
    {
      "type": "Feature",
      "geometry": {
        "type": "Point",
        "coordinates": [
          110.953611111,
          -7.288888888
        ]
      },
      "properties": {
        "label": "Waduk Jatigrombol",
        "type": "Reservoir",
        "entity": "http://www.wikidata.org/entity/Q25108342",
        "country_qid": "Q252"
      }
    },
    {
      "type": "Feature",
      "geometry": {
        "type": "Point",
        "coordinates": [
          116.198888888,
          -8.794166666
        ]
      },
      "properties": {
        "label": "Embung Rage",
        "type": "Reservoir",
        "entity": "http://www.wikidata.org/entity/Q25287348",
        "country_qid": "Q252"
      }
    },
    {
      "type": "Feature",
      "geometry": {
        "type": "Point",
        "coordinates": [
          109.48431,
          -7.56135
        ]
      },
      "properties": {
        "label": "Sempor Reservoir",
        "type": "Reservoir",
        "entity": "http://www.wikidata.org/entity/Q25111682",
        "country_qid": "Q252"
      }
    },
    {
      "type": "Feature",
      "geometry": {
        "type": "Point",
        "coordinates": [
          116.366666666,
          -8.673888888
        ]
      },
      "properties": {
        "label": "Embung Malang",
        "type": "Reservoir",
        "entity": "http://www.wikidata.org/entity/Q25293824",
        "country_qid": "Q252"
      }
    },
    {
      "type": "Feature",
      "geometry": {
        "type": "Point",
        "coordinates": [
          116.319166666,
          -8.571666666
        ]
      },
      "properties": {
        "label": "Embung Jengguar",
        "type": "Reservoir",
        "entity": "http://www.wikidata.org/entity/Q25313386",
        "country_qid": "Q252"
      }
    },
    {
      "type": "Feature",
      "geometry": {
        "type": "Point",
        "coordinates": [
          110.992222222,
          -7.283055555
        ]
      },
      "properties": {
        "label": "Waduk Banaran",
        "type": "Reservoir",
        "entity": "http://www.wikidata.org/entity/Q25106719",
        "country_qid": "Q252"
      }
    },
    {
      "type": "Feature",
      "geometry": {
        "type": "Point",
        "coordinates": [
          110.9175,
          -7.321944444
        ]
      },
      "properties": {
        "label": "Waduk Pare",
        "type": "Reservoir",
        "entity": "http://www.wikidata.org/entity/Q25106758",
        "country_qid": "Q252"
      }
    },
    {
      "type": "Feature",
      "geometry": {
        "type": "Point",
        "coordinates": [
          110.98,
          -7.294166666
        ]
      },
      "properties": {
        "label": "Waduk Pare",
        "type": "Reservoir",
        "entity": "http://www.wikidata.org/entity/Q25108339",
        "country_qid": "Q252"
      }
    },
    {
      "type": "Feature",
      "geometry": {
        "type": "Point",
        "coordinates": [
          116.204722222,
          -8.608888888
        ]
      },
      "properties": {
        "label": "Bendung Gebong",
        "type": "Reservoir",
        "entity": "http://www.wikidata.org/entity/Q25311121",
        "country_qid": "Q252"
      }
    },
    {
      "type": "Feature",
      "geometry": {
        "type": "Point",
        "coordinates": [
          110.886944444,
          -8.06
        ]
      },
      "properties": {
        "label": "Irigasi Tambaksari",
        "type": "Reservoir",
        "entity": "http://www.wikidata.org/entity/Q25132567",
        "country_qid": "Q252"
      }
    },
    {
      "type": "Feature",
      "geometry": {
        "type": "Point",
        "coordinates": [
          116.345555555,
          -8.698055555
        ]
      },
      "properties": {
        "label": "Embung Tanggor",
        "type": "Reservoir",
        "entity": "http://www.wikidata.org/entity/Q25293819",
        "country_qid": "Q252"
      }
    },
    {
      "type": "Feature",
      "geometry": {
        "type": "Point",
        "coordinates": [
          112.112777777,
          -7.506111111
        ]
      },
      "properties": {
        "label": "Waduk Perning",
        "type": "Reservoir",
        "entity": "http://www.wikidata.org/entity/Q25254897",
        "country_qid": "Q252"
      }
    },
    {
      "type": "Feature",
      "geometry": {
        "type": "Point",
        "coordinates": [
          109.946666666,
          -7.476111111
        ]
      },
      "properties": {
        "label": "Cekdam Jelarang",
        "type": "Reservoir",
        "entity": "http://www.wikidata.org/entity/Q25159207",
        "country_qid": "Q252"
      }
    },
    {
      "type": "Feature",
      "geometry": {
        "type": "Point",
        "coordinates": [
          117.6775,
          -8.695833333
        ]
      },
      "properties": {
        "label": "Waduk Tiukulit",
        "type": "Reservoir",
        "entity": "http://www.wikidata.org/entity/Q25326346",
        "country_qid": "Q252"
      }
    },
    {
      "type": "Feature",
      "geometry": {
        "type": "Point",
        "coordinates": [
          112.315833333,
          -7.1325
        ]
      },
      "properties": {
        "label": "Waduk Balongganggang",
        "type": "Reservoir",
        "entity": "http://www.wikidata.org/entity/Q25258739",
        "country_qid": "Q252"
      }
    },
    {
      "type": "Feature",
      "geometry": {
        "type": "Point",
        "coordinates": [
          110.977777777,
          -7.284722222
        ]
      },
      "properties": {
        "label": "Waduk Gosek",
        "type": "Reservoir",
        "entity": "http://www.wikidata.org/entity/Q25106729",
        "country_qid": "Q252"
      }
    },
    {
      "type": "Feature",
      "geometry": {
        "type": "Point",
        "coordinates": [
          110.853055555,
          -7.232222222
        ]
      },
      "properties": {
        "label": "Waduk Sidorejo",
        "type": "Reservoir",
        "entity": "http://www.wikidata.org/entity/Q25135136",
        "country_qid": "Q252"
      }
    },
    {
      "type": "Feature",
      "geometry": {
        "type": "Point",
        "coordinates": [
          112.404166666,
          -7.159722222
        ]
      },
      "properties": {
        "label": "Waduk Jotosanur",
        "type": "Reservoir",
        "entity": "http://www.wikidata.org/entity/Q25258323",
        "country_qid": "Q252"
      }
    },
    {
      "type": "Feature",
      "geometry": {
        "type": "Point",
        "coordinates": [
          116.521111111,
          -8.696666666
        ]
      },
      "properties": {
        "label": "Embung Apitoye",
        "type": "Reservoir",
        "entity": "http://www.wikidata.org/entity/Q25293718",
        "country_qid": "Q252"
      }
    },
    {
      "type": "Feature",
      "geometry": {
        "type": "Point",
        "coordinates": [
          110.877777777,
          -7.331111111
        ]
      },
      "properties": {
        "label": "Waduk Mojoendok",
        "type": "Reservoir",
        "entity": "http://www.wikidata.org/entity/Q25106772",
        "country_qid": "Q252"
      }
    },
    {
      "type": "Feature",
      "geometry": {
        "type": "Point",
        "coordinates": [
          116.372222222,
          -8.623888888
        ]
      },
      "properties": {
        "label": "Embung Ringkeh",
        "type": "Reservoir",
        "entity": "http://www.wikidata.org/entity/Q25313419",
        "country_qid": "Q252"
      }
    },
    {
      "type": "Feature",
      "geometry": {
        "type": "Point",
        "coordinates": [
          116.328611111,
          -8.658611111
        ]
      },
      "properties": {
        "label": "Embung Muncan",
        "type": "Reservoir",
        "entity": "http://www.wikidata.org/entity/Q25293833",
        "country_qid": "Q252"
      }
    },
    {
      "type": "Feature",
      "geometry": {
        "type": "Point",
        "coordinates": [
          116.208333333,
          -8.850833333
        ]
      },
      "properties": {
        "label": "Embung Batubokah",
        "type": "Reservoir",
        "entity": "http://www.wikidata.org/entity/Q25287337",
        "country_qid": "Q252"
      }
    },
    {
      "type": "Feature",
      "geometry": {
        "type": "Point",
        "coordinates": [
          110.828611111,
          -7.991388888
        ]
      },
      "properties": {
        "label": "Waduk Songputri",
        "type": "Reservoir",
        "entity": "http://www.wikidata.org/entity/Q25104043",
        "country_qid": "Q252"
      }
    },
    {
      "type": "Feature",
      "geometry": {
        "type": "Point",
        "coordinates": [
          110.995277777,
          -7.314722222
        ]
      },
      "properties": {
        "label": "Waduk Glagahrejo",
        "type": "Reservoir",
        "entity": "http://www.wikidata.org/entity/Q25109131",
        "country_qid": "Q252"
      }
    },
    {
      "type": "Feature",
      "geometry": {
        "type": "Point",
        "coordinates": [
          110.833611111,
          -7.973611111
        ]
      },
      "properties": {
        "label": "Waduk Baran",
        "type": "Reservoir",
        "entity": "http://www.wikidata.org/entity/Q25107136",
        "country_qid": "Q252"
      }
    },
    {
      "type": "Feature",
      "geometry": {
        "type": "Point",
        "coordinates": [
          112.3829,
          -7.558
        ]
      },
      "properties": {
        "label": "Kolam Segaran",
        "type": "Reservoir",
        "entity": "http://www.wikidata.org/entity/Q25259415",
        "country_qid": "Q252"
      }
    },
    {
      "type": "Feature",
      "geometry": {
        "type": "Point",
        "coordinates": [
          116.366111111,
          -8.685833333
        ]
      },
      "properties": {
        "label": "Embung Nur",
        "type": "Reservoir",
        "entity": "http://www.wikidata.org/entity/Q25293822",
        "country_qid": "Q252"
      }
    },
    {
      "type": "Feature",
      "geometry": {
        "type": "Point",
        "coordinates": [
          116.3175,
          -8.696111111
        ]
      },
      "properties": {
        "label": "Embung Praigunung",
        "type": "Reservoir",
        "entity": "http://www.wikidata.org/entity/Q25293814",
        "country_qid": "Q252"
      }
    },
    {
      "type": "Feature",
      "geometry": {
        "type": "Point",
        "coordinates": [
          106.029166666,
          -6.014166666
        ]
      },
      "properties": {
        "label": "Waduk Krakatausteel",
        "type": "Reservoir",
        "entity": "http://www.wikidata.org/entity/Q25246613",
        "country_qid": "Q252"
      }
    },
    {
      "type": "Feature",
      "geometry": {
        "type": "Point",
        "coordinates": [
          116.143611111,
          -8.826388888
        ]
      },
      "properties": {
        "label": "Embung Pandantinggang",
        "type": "Reservoir",
        "entity": "http://www.wikidata.org/entity/Q25287388",
        "country_qid": "Q252"
      }
    },
    {
      "type": "Feature",
      "geometry": {
        "type": "Point",
        "coordinates": [
          112.084166666,
          -7.497777777
        ]
      },
      "properties": {
        "label": "Waduk Sumbersono",
        "type": "Reservoir",
        "entity": "http://www.wikidata.org/entity/Q25256369",
        "country_qid": "Q252"
      }
    },
    {
      "type": "Feature",
      "geometry": {
        "type": "Point",
        "coordinates": [
          109.621111111,
          -7.385555555
        ]
      },
      "properties": {
        "label": "Waduk Mrica",
        "type": "Reservoir",
        "entity": "http://www.wikidata.org/entity/Q25116768",
        "country_qid": "Q252"
      }
    },
    {
      "type": "Feature",
      "geometry": {
        "type": "Point",
        "coordinates": [
          112.474166666,
          -8.143888888
        ]
      },
      "properties": {
        "label": "Waduk Laor",
        "type": "Reservoir",
        "entity": "http://www.wikidata.org/entity/Q25284234",
        "country_qid": "Q252"
      }
    },
    {
      "type": "Feature",
      "geometry": {
        "type": "Point",
        "coordinates": [
          116.303888888,
          -8.646111111
        ]
      },
      "properties": {
        "label": "Embung Boboh",
        "type": "Reservoir",
        "entity": "http://www.wikidata.org/entity/Q25293837",
        "country_qid": "Q252"
      }
    },
    {
      "type": "Feature",
      "geometry": {
        "type": "Point",
        "coordinates": [
          116.235,
          -8.534444444
        ]
      },
      "properties": {
        "label": "Bendung Jangkok",
        "type": "Reservoir",
        "entity": "http://www.wikidata.org/entity/Q25311137",
        "country_qid": "Q252"
      }
    },
    {
      "type": "Feature",
      "geometry": {
        "type": "Point",
        "coordinates": [
          116.338888888,
          -8.712777777
        ]
      },
      "properties": {
        "label": "Embung Dakung",
        "type": "Reservoir",
        "entity": "http://www.wikidata.org/entity/Q25293798",
        "country_qid": "Q252"
      }
    },
    {
      "type": "Feature",
      "geometry": {
        "type": "Point",
        "coordinates": [
          116.240833333,
          -8.825555555
        ]
      },
      "properties": {
        "label": "Embung Bombas",
        "type": "Reservoir",
        "entity": "http://www.wikidata.org/entity/Q25287314",
        "country_qid": "Q252"
      }
    },
    {
      "type": "Feature",
      "geometry": {
        "type": "Point",
        "coordinates": [
          112.066944444,
          -7.496111111
        ]
      },
      "properties": {
        "label": "Waduk Sumberkepuh",
        "type": "Reservoir",
        "entity": "http://www.wikidata.org/entity/Q25256376",
        "country_qid": "Q252"
      }
    },
    {
      "type": "Feature",
      "geometry": {
        "type": "Point",
        "coordinates": [
          110.925833333,
          -7.185
        ]
      },
      "properties": {
        "label": "Cindelaras Reservoir",
        "type": "Reservoir",
        "entity": "http://www.wikidata.org/entity/Q25135114",
        "country_qid": "Q252"
      }
    },
    {
      "type": "Feature",
      "geometry": {
        "type": "Point",
        "coordinates": [
          116.263333333,
          -8.573888888
        ]
      },
      "properties": {
        "label": "Embung Ker",
        "type": "Reservoir",
        "entity": "http://www.wikidata.org/entity/Q25313446",
        "country_qid": "Q252"
      }
    },
    {
      "type": "Feature",
      "geometry": {
        "type": "Point",
        "coordinates": [
          111.621666666,
          -7.283333333
        ]
      },
      "properties": {
        "label": "Waduk Watang",
        "type": "Reservoir",
        "entity": "http://www.wikidata.org/entity/Q25266727",
        "country_qid": "Q252"
      }
    },
    {
      "type": "Feature",
      "geometry": {
        "type": "Point",
        "coordinates": [
          107.551388888,
          -7.144444444
        ]
      },
      "properties": {
        "label": "Kolam Lamajand",
        "type": "Reservoir",
        "entity": "http://www.wikidata.org/entity/Q25052060",
        "country_qid": "Q252"
      }
    },
    {
      "type": "Feature",
      "geometry": {
        "type": "Point",
        "coordinates": [
          110.816388888,
          -7.948055555
        ]
      },
      "properties": {
        "label": "Waduk Parangjoho",
        "type": "Reservoir",
        "entity": "http://www.wikidata.org/entity/Q25107124",
        "country_qid": "Q252"
      }
    },
    {
      "type": "Feature",
      "geometry": {
        "type": "Point",
        "coordinates": [
          111.554722222,
          -7.223055555
        ]
      },
      "properties": {
        "label": "Waduk Solovai",
        "type": "Reservoir",
        "entity": "http://www.wikidata.org/entity/Q25283999",
        "country_qid": "Q252"
      }
    },
    {
      "type": "Feature",
      "geometry": {
        "type": "Point",
        "coordinates": [
          111.8575,
          -7.212777777
        ]
      },
      "properties": {
        "label": "Waduk Gayam",
        "type": "Reservoir",
        "entity": "http://www.wikidata.org/entity/Q25270025",
        "country_qid": "Q252"
      }
    },
    {
      "type": "Feature",
      "geometry": {
        "type": "Point",
        "coordinates": [
          110.900555555,
          -7.380277777
        ]
      },
      "properties": {
        "label": "Ketro Reservoir",
        "type": "Reservoir",
        "entity": "http://www.wikidata.org/entity/Q25106640",
        "country_qid": "Q252"
      }
    },
    {
      "type": "Feature",
      "geometry": {
        "type": "Point",
        "coordinates": [
          110.840833333,
          -7.940277777
        ]
      },
      "properties": {
        "label": "Waduk Kedunguling",
        "type": "Reservoir",
        "entity": "http://www.wikidata.org/entity/Q25103857",
        "country_qid": "Q252"
      }
    },
    {
      "type": "Feature",
      "geometry": {
        "type": "Point",
        "coordinates": [
          116.379722222,
          -8.605833333
        ]
      },
      "properties": {
        "label": "Embung Petiji",
        "type": "Reservoir",
        "entity": "http://www.wikidata.org/entity/Q25325122",
        "country_qid": "Q252"
      }
    },
    {
      "type": "Feature",
      "geometry": {
        "type": "Point",
        "coordinates": [
          111.205833333,
          -6.988611111
        ]
      },
      "properties": {
        "label": "Waduk Bentolo",
        "type": "Reservoir",
        "entity": "http://www.wikidata.org/entity/Q25269786",
        "country_qid": "Q252"
      }
    },
    {
      "type": "Feature",
      "geometry": {
        "type": "Point",
        "coordinates": [
          112.070833333,
          -7.492777777
        ]
      },
      "properties": {
        "label": "Waduk Sendang",
        "type": "Reservoir",
        "entity": "http://www.wikidata.org/entity/Q25256371",
        "country_qid": "Q252"
      }
    },
    {
      "type": "Feature",
      "geometry": {
        "type": "Point",
        "coordinates": [
          116.39,
          -8.549444444
        ]
      },
      "properties": {
        "label": "Embung Gunungpaok",
        "type": "Reservoir",
        "entity": "http://www.wikidata.org/entity/Q25328465",
        "country_qid": "Q252"
      }
    },
    {
      "type": "Feature",
      "geometry": {
        "type": "Point",
        "coordinates": [
          110.923611111,
          -7.15
        ]
      },
      "properties": {
        "label": "Waduk Sange",
        "type": "Reservoir",
        "entity": "http://www.wikidata.org/entity/Q25135116",
        "country_qid": "Q252"
      }
    },
    {
      "type": "Feature",
      "geometry": {
        "type": "Point",
        "coordinates": [
          109.966666666,
          -7.415277777
        ]
      },
      "properties": {
        "label": "Cekdam Kalikajar",
        "type": "Reservoir",
        "entity": "http://www.wikidata.org/entity/Q25159208",
        "country_qid": "Q252"
      }
    },
    {
      "type": "Feature",
      "geometry": {
        "type": "Point",
        "coordinates": [
          116.529166666,
          -8.733055555
        ]
      },
      "properties": {
        "label": "Embung Repokkere",
        "type": "Reservoir",
        "entity": "http://www.wikidata.org/entity/Q25293713",
        "country_qid": "Q252"
      }
    },
    {
      "type": "Feature",
      "geometry": {
        "type": "Point",
        "coordinates": [
          110.623888888,
          -7.756388888
        ]
      },
      "properties": {
        "label": "Waduk Jombor",
        "type": "Reservoir",
        "entity": "http://www.wikidata.org/entity/Q25068554",
        "country_qid": "Q252"
      }
    },
    {
      "type": "Feature",
      "geometry": {
        "type": "Point",
        "coordinates": [
          112.080833333,
          -7.4975
        ]
      },
      "properties": {
        "label": "Waduk Logawe",
        "type": "Reservoir",
        "entity": "http://www.wikidata.org/entity/Q25256370",
        "country_qid": "Q252"
      }
    },
    {
      "type": "Feature",
      "geometry": {
        "type": "Point",
        "coordinates": [
          111.043888888,
          -7.5275
        ]
      },
      "properties": {
        "label": "Waduk Botok",
        "type": "Reservoir",
        "entity": "http://www.wikidata.org/entity/Q25161788",
        "country_qid": "Q252"
      }
    },
    {
      "type": "Feature",
      "geometry": {
        "type": "Point",
        "coordinates": [
          110.946388888,
          -7.338888888
        ]
      },
      "properties": {
        "label": "Waduk Donosari",
        "type": "Reservoir",
        "entity": "http://www.wikidata.org/entity/Q25106744",
        "country_qid": "Q252"
      }
    },
    {
      "type": "Feature",
      "geometry": {
        "type": "Point",
        "coordinates": [
          107.65789,
          -7.20922
        ]
      },
      "properties": {
        "label": "Lake Cisanti",
        "type": "Reservoir",
        "entity": "http://www.wikidata.org/entity/Q25460840",
        "country_qid": "Q252"
      }
    },
    {
      "type": "Feature",
      "geometry": {
        "type": "Point",
        "coordinates": [
          116.3825,
          -8.589444444
        ]
      },
      "properties": {
        "label": "Embung Mari",
        "type": "Reservoir",
        "entity": "http://www.wikidata.org/entity/Q25325123",
        "country_qid": "Q252"
      }
    },
    {
      "type": "Feature",
      "geometry": {
        "type": "Point",
        "coordinates": [
          110.983333333,
          -7.993333333
        ]
      },
      "properties": {
        "label": "Waduk Ngancar",
        "type": "Reservoir",
        "entity": "http://www.wikidata.org/entity/Q25103790",
        "country_qid": "Q252"
      }
    },
    {
      "type": "Feature",
      "geometry": {
        "type": "Point",
        "coordinates": [
          116.3425,
          -8.576666666
        ]
      },
      "properties": {
        "label": "Embung Aiqbukaq",
        "type": "Reservoir",
        "entity": "http://www.wikidata.org/entity/Q25326496",
        "country_qid": "Q252"
      }
    },
    {
      "type": "Feature",
      "geometry": {
        "type": "Point",
        "coordinates": [
          116.361666666,
          -8.573611111
        ]
      },
      "properties": {
        "label": "Embung Guleliat",
        "type": "Reservoir",
        "entity": "http://www.wikidata.org/entity/Q25313396",
        "country_qid": "Q252"
      }
    },
    {
      "type": "Feature",
      "geometry": {
        "type": "Point",
        "coordinates": [
          116.346388888,
          -8.599722222
        ]
      },
      "properties": {
        "label": "Embung Dao",
        "type": "Reservoir",
        "entity": "http://www.wikidata.org/entity/Q25313421",
        "country_qid": "Q252"
      }
    },
    {
      "type": "Feature",
      "geometry": {
        "type": "Point",
        "coordinates": [
          110.915833333,
          -7.15
        ]
      },
      "properties": {
        "label": "Waduk Gambringan",
        "type": "Reservoir",
        "entity": "http://www.wikidata.org/entity/Q25135117",
        "country_qid": "Q252"
      }
    },
    {
      "type": "Feature",
      "geometry": {
        "type": "Point",
        "coordinates": [
          110.701666666,
          -7.360833333
        ]
      },
      "properties": {
        "label": "Waduk Bade",
        "type": "Reservoir",
        "entity": "http://www.wikidata.org/entity/Q25104408",
        "country_qid": "Q252"
      }
    },
    {
      "type": "Feature",
      "geometry": {
        "type": "Point",
        "coordinates": [
          116.309166666,
          -8.745833333
        ]
      },
      "properties": {
        "label": "Embung Raba",
        "type": "Reservoir",
        "entity": "http://www.wikidata.org/entity/Q25293799",
        "country_qid": "Q252"
      }
    },
    {
      "type": "Feature",
      "geometry": {
        "type": "Point",
        "coordinates": [
          118.721944444,
          -8.585277777
        ]
      },
      "properties": {
        "label": "Embung Roiroka",
        "type": "Reservoir",
        "entity": "http://www.wikidata.org/entity/Q25295075",
        "country_qid": "Q252"
      }
    },
    {
      "type": "Feature",
      "geometry": {
        "type": "Point",
        "coordinates": [
          111.514166666,
          -7.275
        ]
      },
      "properties": {
        "label": "Waduk Warunggedang",
        "type": "Reservoir",
        "entity": "http://www.wikidata.org/entity/Q25268561",
        "country_qid": "Q252"
      }
    },
    {
      "type": "Feature",
      "geometry": {
        "type": "Point",
        "coordinates": [
          111.809722222,
          -7.174722222
        ]
      },
      "properties": {
        "label": "Waduk Leran Dua",
        "type": "Reservoir",
        "entity": "http://www.wikidata.org/entity/Q25268345",
        "country_qid": "Q252"
      }
    },
    {
      "type": "Feature",
      "geometry": {
        "type": "Point",
        "coordinates": [
          116.142777777,
          -8.795833333
        ]
      },
      "properties": {
        "label": "Embung Montongsapah",
        "type": "Reservoir",
        "entity": "http://www.wikidata.org/entity/Q25287393",
        "country_qid": "Q252"
      }
    },
    {
      "type": "Feature",
      "geometry": {
        "type": "Point",
        "coordinates": [
          116.515,
          -8.689166666
        ]
      },
      "properties": {
        "label": "Embung Belik",
        "type": "Reservoir",
        "entity": "http://www.wikidata.org/entity/Q25293719",
        "country_qid": "Q252"
      }
    },
    {
      "type": "Feature",
      "geometry": {
        "type": "Point",
        "coordinates": [
          112.371388888,
          -7.160833333
        ]
      },
      "properties": {
        "label": "Waduk Rancang",
        "type": "Reservoir",
        "entity": "http://www.wikidata.org/entity/Q25258767",
        "country_qid": "Q252"
      }
    },
    {
      "type": "Feature",
      "geometry": {
        "type": "Point",
        "coordinates": [
          111.728333333,
          -7.298055555
        ]
      },
      "properties": {
        "label": "Waduk Nglambang",
        "type": "Reservoir",
        "entity": "http://www.wikidata.org/entity/Q25266690",
        "country_qid": "Q252"
      }
    },
    {
      "type": "Feature",
      "geometry": {
        "type": "Point",
        "coordinates": [
          111.545277777,
          -7.385
        ]
      },
      "properties": {
        "label": "Waduk Kedungbendo",
        "type": "Reservoir",
        "entity": "http://www.wikidata.org/entity/Q25259218",
        "country_qid": "Q252"
      }
    },
    {
      "type": "Feature",
      "geometry": {
        "type": "Point",
        "coordinates": [
          118.759166666,
          -8.644722222
        ]
      },
      "properties": {
        "label": "Embung Ncera",
        "type": "Reservoir",
        "entity": "http://www.wikidata.org/entity/Q25324461",
        "country_qid": "Q252"
      }
    },
    {
      "type": "Feature",
      "geometry": {
        "type": "Point",
        "coordinates": [
          112.053611111,
          -7.3375
        ]
      },
      "properties": {
        "label": "Waduk Panjang",
        "type": "Reservoir",
        "entity": "http://www.wikidata.org/entity/Q25268153",
        "country_qid": "Q252"
      }
    },
    {
      "type": "Feature",
      "geometry": {
        "type": "Point",
        "coordinates": [
          116.916388888,
          -1.167777777
        ]
      },
      "properties": {
        "label": "Waduk Manggar",
        "type": "Reservoir",
        "entity": "http://www.wikidata.org/entity/Q28723766",
        "country_qid": "Q252"
      }
    },
    {
      "type": "Feature",
      "geometry": {
        "type": "Point",
        "coordinates": [
          110.889444444,
          -7.184444444
        ]
      },
      "properties": {
        "label": "Waduk Sonorejo",
        "type": "Reservoir",
        "entity": "http://www.wikidata.org/entity/Q25135113",
        "country_qid": "Q252"
      }
    },
    {
      "type": "Feature",
      "geometry": {
        "type": "Point",
        "coordinates": [
          116.328611111,
          -8.678611111
        ]
      },
      "properties": {
        "label": "Embung Surabaya",
        "type": "Reservoir",
        "entity": "http://www.wikidata.org/entity/Q25293817",
        "country_qid": "Q252"
      }
    },
    {
      "type": "Feature",
      "geometry": {
        "type": "Point",
        "coordinates": [
          116.327777777,
          -8.669722222
        ]
      },
      "properties": {
        "label": "Embung Bage",
        "type": "Reservoir",
        "entity": "http://www.wikidata.org/entity/Q25293815",
        "country_qid": "Q252"
      }
    },
    {
      "type": "Feature",
      "geometry": {
        "type": "Point",
        "coordinates": [
          116.519722222,
          -8.674166666
        ]
      },
      "properties": {
        "label": "Embung Gunungsepang",
        "type": "Reservoir",
        "entity": "http://www.wikidata.org/entity/Q25293720",
        "country_qid": "Q252"
      }
    },
    {
      "type": "Feature",
      "geometry": {
        "type": "Point",
        "coordinates": [
          111.592222222,
          -7.250833333
        ]
      },
      "properties": {
        "label": "Lapen Gatuk",
        "type": "Reservoir",
        "entity": "http://www.wikidata.org/entity/Q25268559",
        "country_qid": "Q252"
      }
    },
    {
      "type": "Feature",
      "geometry": {
        "type": "Point",
        "coordinates": [
          116.376666666,
          -8.560555555
        ]
      },
      "properties": {
        "label": "Embung Bual",
        "type": "Reservoir",
        "entity": "http://www.wikidata.org/entity/Q25325126",
        "country_qid": "Q252"
      }
    },
    {
      "type": "Feature",
      "geometry": {
        "type": "Point",
        "coordinates": [
          110.618611111,
          -7.417777777
        ]
      },
      "properties": {
        "label": "Waduk Winong",
        "type": "Reservoir",
        "entity": "http://www.wikidata.org/entity/Q25104715",
        "country_qid": "Q252"
      }
    },
    {
      "type": "Feature",
      "geometry": {
        "type": "Point",
        "coordinates": [
          116.286388888,
          -8.645833333
        ]
      },
      "properties": {
        "label": "Embung Lendangbatah",
        "type": "Reservoir",
        "entity": "http://www.wikidata.org/entity/Q25293840",
        "country_qid": "Q252"
      }
    },
    {
      "type": "Feature",
      "geometry": {
        "type": "Point",
        "coordinates": [
          116.270555555,
          -8.729722222
        ]
      },
      "properties": {
        "label": "Batujai Reservoir",
        "type": "Reservoir",
        "entity": "http://www.wikidata.org/entity/Q25293803",
        "country_qid": "Q252"
      }
    },
    {
      "type": "Feature",
      "geometry": {
        "type": "Point",
        "coordinates": [
          116.518611111,
          -8.719166666
        ]
      },
      "properties": {
        "label": "Embung Tampih",
        "type": "Reservoir",
        "entity": "http://www.wikidata.org/entity/Q25293714",
        "country_qid": "Q252"
      }
    },
    {
      "type": "Feature",
      "geometry": {
        "type": "Point",
        "coordinates": [
          114.555833333,
          -8.250833333
        ]
      },
      "properties": {
        "label": "Waduk Palasari",
        "type": "Reservoir",
        "entity": "http://www.wikidata.org/entity/Q25301775",
        "country_qid": "Q252"
      }
    },
    {
      "type": "Feature",
      "geometry": {
        "type": "Point",
        "coordinates": [
          111.098888888,
          -7.201666666
        ]
      },
      "properties": {
        "label": "Waduk Suru",
        "type": "Reservoir",
        "entity": "http://www.wikidata.org/entity/Q25153994",
        "country_qid": "Q252"
      }
    },
    {
      "type": "Feature",
      "geometry": {
        "type": "Point",
        "coordinates": [
          107.50361,
          -6.85528
        ]
      },
      "properties": {
        "label": "Situ Bolang",
        "type": "Reservoir",
        "entity": "http://www.wikidata.org/entity/Q25163656",
        "country_qid": "Q252"
      }
    },
    {
      "type": "Feature",
      "geometry": {
        "type": "Point",
        "coordinates": [
          116.371388888,
          -8.679444444
        ]
      },
      "properties": {
        "label": "Embung Dasansari",
        "type": "Reservoir",
        "entity": "http://www.wikidata.org/entity/Q25293823",
        "country_qid": "Q252"
      }
    },
    {
      "type": "Feature",
      "geometry": {
        "type": "Point",
        "coordinates": [
          110.928055555,
          -8.033333333
        ]
      },
      "properties": {
        "label": "Irigasi Sumber Kakap",
        "type": "Reservoir",
        "entity": "http://www.wikidata.org/entity/Q25132592",
        "country_qid": "Q252"
      }
    },
    {
      "type": "Feature",
      "geometry": {
        "type": "Point",
        "coordinates": [
          111.806388888,
          -7.17
        ]
      },
      "properties": {
        "label": "Waduk Leran Satu",
        "type": "Reservoir",
        "entity": "http://www.wikidata.org/entity/Q25268344",
        "country_qid": "Q252"
      }
    },
    {
      "type": "Feature",
      "geometry": {
        "type": "Point",
        "coordinates": [
          116.371388888,
          -8.702222222
        ]
      },
      "properties": {
        "label": "Embung Juring",
        "type": "Reservoir",
        "entity": "http://www.wikidata.org/entity/Q25293794",
        "country_qid": "Q252"
      }
    },
    {
      "type": "Feature",
      "geometry": {
        "type": "Point",
        "coordinates": [
          116.45,
          -8.689166666
        ]
      },
      "properties": {
        "label": "Embung Penye",
        "type": "Reservoir",
        "entity": "http://www.wikidata.org/entity/Q32020615",
        "country_qid": "Q252"
      }
    },
    {
      "type": "Feature",
      "geometry": {
        "type": "Point",
        "coordinates": [
          116.406111111,
          -8.703055555
        ]
      },
      "properties": {
        "label": "Embung Monjong",
        "type": "Reservoir",
        "entity": "http://www.wikidata.org/entity/Q32020561",
        "country_qid": "Q252"
      }
    },
    {
      "type": "Feature",
      "geometry": {
        "type": "Point",
        "coordinates": [
          116.406666666,
          -8.679444444
        ]
      },
      "properties": {
        "label": "Embung Pasekar",
        "type": "Reservoir",
        "entity": "http://www.wikidata.org/entity/Q32020602",
        "country_qid": "Q252"
      }
    },
    {
      "type": "Feature",
      "geometry": {
        "type": "Point",
        "coordinates": [
          116.488333333,
          -8.713055555
        ]
      },
      "properties": {
        "label": "Embung Kondak",
        "type": "Reservoir",
        "entity": "http://www.wikidata.org/entity/Q32020509",
        "country_qid": "Q252"
      }
    },
    {
      "type": "Feature",
      "geometry": {
        "type": "Point",
        "coordinates": [
          116.375833333,
          -8.639722222
        ]
      },
      "properties": {
        "label": "Embung Karung",
        "type": "Reservoir",
        "entity": "http://www.wikidata.org/entity/Q32020487",
        "country_qid": "Q252"
      }
    },
    {
      "type": "Feature",
      "geometry": {
        "type": "Point",
        "coordinates": [
          112.556111111,
          -8.187222222
        ]
      },
      "properties": {
        "label": "Sengguruh Dam",
        "type": "Reservoir",
        "entity": "http://www.wikidata.org/entity/Q32694958",
        "country_qid": "Q252"
      }
    },
    {
      "type": "Feature",
      "geometry": {
        "type": "Point",
        "coordinates": [
          111.263333333,
          -6.808333333
        ]
      },
      "properties": {
        "label": "Embung Jatihadi",
        "type": "Reservoir",
        "entity": "http://www.wikidata.org/entity/Q32020425",
        "country_qid": "Q252"
      }
    },
    {
      "type": "Feature",
      "geometry": {
        "type": "Point",
        "coordinates": [
          116.462777777,
          -8.743333333
        ]
      },
      "properties": {
        "label": "Embung Dalam",
        "type": "Reservoir",
        "entity": "http://www.wikidata.org/entity/Q32020368",
        "country_qid": "Q252"
      }
    },
    {
      "type": "Feature",
      "geometry": {
        "type": "Point",
        "coordinates": [
          123.4725,
          -10.175833333
        ]
      },
      "properties": {
        "label": "Cekdam Kauan Dua",
        "type": "Reservoir",
        "entity": "http://www.wikidata.org/entity/Q31919375",
        "country_qid": "Q252"
      }
    },
    {
      "type": "Feature",
      "geometry": {
        "type": "Point",
        "coordinates": [
          116.394722222,
          -8.672777777
        ]
      },
      "properties": {
        "label": "Embung Setambir",
        "type": "Reservoir",
        "entity": "http://www.wikidata.org/entity/Q32020703",
        "country_qid": "Q252"
      }
    },
    {
      "type": "Feature",
      "geometry": {
        "type": "Point",
        "coordinates": [
          105.9625,
          -6.615277777
        ]
      },
      "properties": {
        "label": "Leuwi Gong",
        "type": "Reservoir",
        "entity": "http://www.wikidata.org/entity/Q32093143",
        "country_qid": "Q252"
      }
    },
    {
      "type": "Feature",
      "geometry": {
        "type": "Point",
        "coordinates": [
          116.426111111,
          -8.684166666
        ]
      },
      "properties": {
        "label": "Embung Raja",
        "type": "Reservoir",
        "entity": "http://www.wikidata.org/entity/Q32020647",
        "country_qid": "Q252"
      }
    },
    {
      "type": "Feature",
      "geometry": {
        "type": "Point",
        "coordinates": [
          116.3775,
          -8.667777777
        ]
      },
      "properties": {
        "label": "Embung Petorok",
        "type": "Reservoir",
        "entity": "http://www.wikidata.org/entity/Q32020627",
        "country_qid": "Q252"
      }
    },
    {
      "type": "Feature",
      "geometry": {
        "type": "Point",
        "coordinates": [
          105.790555555,
          -6.749166666
        ]
      },
      "properties": {
        "label": "Bendung Cibaliung",
        "type": "Reservoir",
        "entity": "http://www.wikidata.org/entity/Q31884900",
        "country_qid": "Q252"
      }
    },
    {
      "type": "Feature",
      "geometry": {
        "type": "Point",
        "coordinates": [
          108.43,
          -7.196111111
        ]
      },
      "properties": {
        "label": "Situ Lyang",
        "type": "Reservoir",
        "entity": "http://www.wikidata.org/entity/Q32240595",
        "country_qid": "Q252"
      }
    },
    {
      "type": "Feature",
      "geometry": {
        "type": "Point",
        "coordinates": [
          116.388611111,
          -8.684722222
        ]
      },
      "properties": {
        "label": "Embung Kuang",
        "type": "Reservoir",
        "entity": "http://www.wikidata.org/entity/Q32020515",
        "country_qid": "Q252"
      }
    },
    {
      "type": "Feature",
      "geometry": {
        "type": "Point",
        "coordinates": [
          116.401944444,
          -8.683611111
        ]
      },
      "properties": {
        "label": "Embung Jebak",
        "type": "Reservoir",
        "entity": "http://www.wikidata.org/entity/Q32020430",
        "country_qid": "Q252"
      }
    },
    {
      "type": "Feature",
      "geometry": {
        "type": "Point",
        "coordinates": [
          116.478333333,
          -8.720277777
        ]
      },
      "properties": {
        "label": "Embung Bagektungke",
        "type": "Reservoir",
        "entity": "http://www.wikidata.org/entity/Q32020314",
        "country_qid": "Q252"
      }
    },
    {
      "type": "Feature",
      "geometry": {
        "type": "Point",
        "coordinates": [
          123.403611111,
          -10.246111111
        ]
      },
      "properties": {
        "label": "Cekdam Tasiana",
        "type": "Reservoir",
        "entity": "http://www.wikidata.org/entity/Q31919497",
        "country_qid": "Q252"
      }
    },
    {
      "type": "Feature",
      "geometry": {
        "type": "Point",
        "coordinates": [
          121.755277777,
          -10.582777777
        ]
      },
      "properties": {
        "label": "Lobo Pedana",
        "type": "Reservoir",
        "entity": "http://www.wikidata.org/entity/Q32095365",
        "country_qid": "Q252"
      }
    },
    {
      "type": "Feature",
      "geometry": {
        "type": "Point",
        "coordinates": [
          104.009722222,
          1.111388888
        ]
      },
      "properties": {
        "label": "Waduk Ladi",
        "type": "Reservoir",
        "entity": "http://www.wikidata.org/entity/Q32694811",
        "country_qid": "Q252"
      }
    },
    {
      "type": "Feature",
      "geometry": {
        "type": "Point",
        "coordinates": [
          116.404166666,
          -8.731111111
        ]
      },
      "properties": {
        "label": "Embung Jongkor",
        "type": "Reservoir",
        "entity": "http://www.wikidata.org/entity/Q32020469",
        "country_qid": "Q252"
      }
    },
    {
      "type": "Feature",
      "geometry": {
        "type": "Point",
        "coordinates": [
          119.466944444,
          -9.680833333
        ]
      },
      "properties": {
        "label": "Bendungan Lahikaninu",
        "type": "Reservoir",
        "entity": "http://www.wikidata.org/entity/Q32375110",
        "country_qid": "Q252"
      }
    },
    {
      "type": "Feature",
      "geometry": {
        "type": "Point",
        "coordinates": [
          116.452222222,
          -8.685277777
        ]
      },
      "properties": {
        "label": "Embung Linglokoloh",
        "type": "Reservoir",
        "entity": "http://www.wikidata.org/entity/Q32020531",
        "country_qid": "Q252"
      }
    },
    {
      "type": "Feature",
      "geometry": {
        "type": "Point",
        "coordinates": [
          118.294166666,
          -8.491388888
        ]
      },
      "properties": {
        "label": "Embung Dasanbaru",
        "type": "Reservoir",
        "entity": "http://www.wikidata.org/entity/Q32475681",
        "country_qid": "Q252"
      }
    },
    {
      "type": "Feature",
      "geometry": {
        "type": "Point",
        "coordinates": [
          123.643333333,
          -10.264444444
        ]
      },
      "properties": {
        "label": "Embung Fatukiu",
        "type": "Reservoir",
        "entity": "http://www.wikidata.org/entity/Q32475692",
        "country_qid": "Q252"
      }
    },
    {
      "type": "Feature",
      "geometry": {
        "type": "Point",
        "coordinates": [
          116.400833333,
          -8.672222222
        ]
      },
      "properties": {
        "label": "Embung Kandong",
        "type": "Reservoir",
        "entity": "http://www.wikidata.org/entity/Q32020479",
        "country_qid": "Q252"
      }
    },
    {
      "type": "Feature",
      "geometry": {
        "type": "Point",
        "coordinates": [
          116.429444444,
          -8.694166666
        ]
      },
      "properties": {
        "label": "Embung Kenyalu",
        "type": "Reservoir",
        "entity": "http://www.wikidata.org/entity/Q32475742",
        "country_qid": "Q252"
      }
    },
    {
      "type": "Feature",
      "geometry": {
        "type": "Point",
        "coordinates": [
          117.7575,
          -8.816388888
        ]
      },
      "properties": {
        "label": "Embung Selante",
        "type": "Reservoir",
        "entity": "http://www.wikidata.org/entity/Q32020696",
        "country_qid": "Q252"
      }
    },
    {
      "type": "Feature",
      "geometry": {
        "type": "Point",
        "coordinates": [
          116.387777777,
          -8.7075
        ]
      },
      "properties": {
        "label": "Embung Tasikasi",
        "type": "Reservoir",
        "entity": "http://www.wikidata.org/entity/Q32020738",
        "country_qid": "Q252"
      }
    },
    {
      "type": "Feature",
      "geometry": {
        "type": "Point",
        "coordinates": [
          121.821666666,
          -8.712222222
        ]
      },
      "properties": {
        "label": "Bendung Liameo",
        "type": "Reservoir",
        "entity": "http://www.wikidata.org/entity/Q31885085",
        "country_qid": "Q252"
      }
    },
    {
      "type": "Feature",
      "geometry": {
        "type": "Point",
        "coordinates": [
          116.384722222,
          -8.677222222
        ]
      },
      "properties": {
        "label": "Embung Suntiang",
        "type": "Reservoir",
        "entity": "http://www.wikidata.org/entity/Q32020724",
        "country_qid": "Q252"
      }
    },
    {
      "type": "Feature",
      "geometry": {
        "type": "Point",
        "coordinates": [
          123.797222222,
          -10.11
        ]
      },
      "properties": {
        "label": "Cekdam Satu",
        "type": "Reservoir",
        "entity": "http://www.wikidata.org/entity/Q32406213",
        "country_qid": "Q252"
      }
    },
    {
      "type": "Feature",
      "geometry": {
        "type": "Point",
        "coordinates": [
          111.801111111,
          -8.02
        ]
      },
      "properties": {
        "label": "Waduk Wonorejo",
        "type": "Reservoir",
        "entity": "http://www.wikidata.org/entity/Q32695050",
        "country_qid": "Q252"
      }
    },
    {
      "type": "Feature",
      "geometry": {
        "type": "Point",
        "coordinates": [
          123.466666666,
          -10.181944444
        ]
      },
      "properties": {
        "label": "Cekdam Batuasu",
        "type": "Reservoir",
        "entity": "http://www.wikidata.org/entity/Q32405971",
        "country_qid": "Q252"
      }
    },
    {
      "type": "Feature",
      "geometry": {
        "type": "Point",
        "coordinates": [
          116.480277777,
          -8.710833333
        ]
      },
      "properties": {
        "label": "Embung Toyang",
        "type": "Reservoir",
        "entity": "http://www.wikidata.org/entity/Q32020744",
        "country_qid": "Q252"
      }
    },
    {
      "type": "Feature",
      "geometry": {
        "type": "Point",
        "coordinates": [
          116.433055555,
          -8.696388888
        ]
      },
      "properties": {
        "label": "Embung Jeropoto",
        "type": "Reservoir",
        "entity": "http://www.wikidata.org/entity/Q32020459",
        "country_qid": "Q252"
      }
    },
    {
      "type": "Feature",
      "geometry": {
        "type": "Point",
        "coordinates": [
          123.845833333,
          -10.136666666
        ]
      },
      "properties": {
        "label": "Cekdam Fatuteta",
        "type": "Reservoir",
        "entity": "http://www.wikidata.org/entity/Q31919347",
        "country_qid": "Q252"
      }
    },
    {
      "type": "Feature",
      "geometry": {
        "type": "Point",
        "coordinates": [
          123.792777777,
          -10.111666666
        ]
      },
      "properties": {
        "label": "Cekdam Dua",
        "type": "Reservoir",
        "entity": "http://www.wikidata.org/entity/Q31919342",
        "country_qid": "Q252"
      }
    },
    {
      "type": "Feature",
      "geometry": {
        "type": "Point",
        "coordinates": [
          116.435555555,
          -8.699722222
        ]
      },
      "properties": {
        "label": "Embung Bengak",
        "type": "Reservoir",
        "entity": "http://www.wikidata.org/entity/Q32020334",
        "country_qid": "Q252"
      }
    },
    {
      "type": "Feature",
      "geometry": {
        "type": "Point",
        "coordinates": [
          123.784166666,
          -10.111388888
        ]
      },
      "properties": {
        "label": "Cekdam Tiga",
        "type": "Reservoir",
        "entity": "http://www.wikidata.org/entity/Q31919501",
        "country_qid": "Q252"
      }
    },
    {
      "type": "Feature",
      "geometry": {
        "type": "Point",
        "coordinates": [
          116.378333333,
          -8.635833333
        ]
      },
      "properties": {
        "label": "Embung Yagok",
        "type": "Reservoir",
        "entity": "http://www.wikidata.org/entity/Q32020754",
        "country_qid": "Q252"
      }
    },
    {
      "type": "Feature",
      "geometry": {
        "type": "Point",
        "coordinates": [
          121.759166666,
          -10.6
        ]
      },
      "properties": {
        "label": "Lobo Wadue",
        "type": "Reservoir",
        "entity": "http://www.wikidata.org/entity/Q32095383",
        "country_qid": "Q252"
      }
    },
    {
      "type": "Feature",
      "geometry": {
        "type": "Point",
        "coordinates": [
          121.750555555,
          -10.568611111
        ]
      },
      "properties": {
        "label": "Lobo Dja",
        "type": "Reservoir",
        "entity": "http://www.wikidata.org/entity/Q32095311",
        "country_qid": "Q252"
      }
    },
    {
      "type": "Feature",
      "geometry": {
        "type": "Point",
        "coordinates": [
          116.412777777,
          -8.6925
        ]
      },
      "properties": {
        "label": "Embung Gerimat",
        "type": "Reservoir",
        "entity": "http://www.wikidata.org/entity/Q32020405",
        "country_qid": "Q252"
      }
    },
    {
      "type": "Feature",
      "geometry": {
        "type": "Point",
        "coordinates": [
          121.860277777,
          -10.506666666
        ]
      },
      "properties": {
        "label": "Lobo Hangaloe",
        "type": "Reservoir",
        "entity": "http://www.wikidata.org/entity/Q32095318",
        "country_qid": "Q252"
      }
    },
    {
      "type": "Feature",
      "geometry": {
        "type": "Point",
        "coordinates": [
          123.472222222,
          -10.173611111
        ]
      },
      "properties": {
        "label": "Cekdam Kauan Satu",
        "type": "Reservoir",
        "entity": "http://www.wikidata.org/entity/Q32406094",
        "country_qid": "Q252"
      }
    },
    {
      "type": "Feature",
      "geometry": {
        "type": "Point",
        "coordinates": [
          111.321944444,
          -6.784166666
        ]
      },
      "properties": {
        "label": "Waduk Banyukuwung",
        "type": "Reservoir",
        "entity": "http://www.wikidata.org/entity/Q32694631",
        "country_qid": "Q252"
      }
    },
    {
      "type": "Feature",
      "geometry": {
        "type": "Point",
        "coordinates": [
          123.8225,
          -10.186111111
        ]
      },
      "properties": {
        "label": "Cekdam Oetaruk",
        "type": "Reservoir",
        "entity": "http://www.wikidata.org/entity/Q31919425",
        "country_qid": "Q252"
      }
    },
    {
      "type": "Feature",
      "geometry": {
        "type": "Point",
        "coordinates": [
          116.44,
          -8.7025
        ]
      },
      "properties": {
        "label": "Embung Repok",
        "type": "Reservoir",
        "entity": "http://www.wikidata.org/entity/Q32020659",
        "country_qid": "Q252"
      }
    },
    {
      "type": "Feature",
      "geometry": {
        "type": "Point",
        "coordinates": [
          111.268888888,
          -6.713888888
        ]
      },
      "properties": {
        "label": "Embung Dresi Kulon",
        "type": "Reservoir",
        "entity": "http://www.wikidata.org/entity/Q32020386",
        "country_qid": "Q252"
      }
    },
    {
      "type": "Feature",
      "geometry": {
        "type": "Point",
        "coordinates": [
          111.250555555,
          -6.803055555
        ]
      },
      "properties": {
        "label": "Waduk Bajangan",
        "type": "Reservoir",
        "entity": "http://www.wikidata.org/entity/Q32694619",
        "country_qid": "Q252"
      }
    },
    {
      "type": "Feature",
      "geometry": {
        "type": "Point",
        "coordinates": [
          123.409722222,
          -10.175555555
        ]
      },
      "properties": {
        "label": "Cekdam Bolantami",
        "type": "Reservoir",
        "entity": "http://www.wikidata.org/entity/Q31919303",
        "country_qid": "Q252"
      }
    },
    {
      "type": "Feature",
      "geometry": {
        "type": "Point",
        "coordinates": [
          111.273611111,
          -6.731111111
        ]
      },
      "properties": {
        "label": "Embung Sambiyan",
        "type": "Reservoir",
        "entity": "http://www.wikidata.org/entity/Q32020683",
        "country_qid": "Q252"
      }
    },
    {
      "type": "Feature",
      "geometry": {
        "type": "Point",
        "coordinates": [
          116.425277777,
          -8.674722222
        ]
      },
      "properties": {
        "label": "Embung Lonce",
        "type": "Reservoir",
        "entity": "http://www.wikidata.org/entity/Q32020537",
        "country_qid": "Q252"
      }
    },
    {
      "type": "Feature",
      "geometry": {
        "type": "Point",
        "coordinates": [
          116.413055555,
          -8.715277777
        ]
      },
      "properties": {
        "label": "Embung Jembe",
        "type": "Reservoir",
        "entity": "http://www.wikidata.org/entity/Q32020438",
        "country_qid": "Q252"
      }
    },
    {
      "type": "Feature",
      "geometry": {
        "type": "Point",
        "coordinates": [
          123.388888888,
          -10.228055555
        ]
      },
      "properties": {
        "label": "Cekdam Uingaldat",
        "type": "Reservoir",
        "entity": "http://www.wikidata.org/entity/Q31919511",
        "country_qid": "Q252"
      }
    },
    {
      "type": "Feature",
      "geometry": {
        "type": "Point",
        "coordinates": [
          106.915451492,
          -6.31082726
        ]
      },
      "properties": {
        "label": "Cipayung Reservoir",
        "type": "Reservoir",
        "entity": "http://www.wikidata.org/entity/Q60523546",
        "country_qid": "Q252"
      }
    },
    {
      "type": "Feature",
      "geometry": {
        "type": "Point",
        "coordinates": [
          109.786388888,
          -7.575833333
        ]
      },
      "properties": {
        "label": "Wadaslintang Reservoir",
        "type": "Reservoir",
        "entity": "http://www.wikidata.org/entity/Q12523804",
        "country_qid": "Q252"
      }
    },
    {
      "type": "Feature",
      "geometry": {
        "type": "Point",
        "coordinates": [
          108.807777777,
          -7.036388888
        ]
      },
      "properties": {
        "label": "Malahayu Reservoir",
        "type": "Reservoir",
        "entity": "http://www.wikidata.org/entity/Q40445",
        "country_qid": "Q252"
      }
    },
    {
      "type": "Feature",
      "geometry": {
        "type": "Point",
        "coordinates": [
          109.2046,
          -7.0081
        ]
      },
      "properties": {
        "label": "Waduk Cacaban",
        "type": "Reservoir",
        "entity": "http://www.wikidata.org/entity/Q11133631",
        "country_qid": "Q252"
      }
    },
    {
      "type": "Feature",
      "geometry": {
        "type": "Point",
        "coordinates": [
          106.143352985,
          -6.053809834
        ]
      },
      "properties": {
        "label": "Danau Tasikardi",
        "type": "Reservoir",
        "entity": "http://www.wikidata.org/entity/Q12480830",
        "country_qid": "Q252"
      }
    },
    {
      "type": "Feature",
      "geometry": {
        "type": "Point",
        "coordinates": [
          111.868888888,
          -7.3675
        ]
      },
      "properties": {
        "label": "Waduk Pacal",
        "type": "Reservoir",
        "entity": "http://www.wikidata.org/entity/Q12523799",
        "country_qid": "Q252"
      }
    },
    {
      "type": "Feature",
      "geometry": {
        "type": "Point",
        "coordinates": [
          110.899444444,
          -7.905277777
        ]
      },
      "properties": {
        "label": "Gajah Mungkur Reservoir",
        "type": "Reservoir",
        "entity": "http://www.wikidata.org/entity/Q12523795",
        "country_qid": "Q252"
      }
    },
    {
      "type": "Feature",
      "geometry": {
        "type": "Point",
        "coordinates": [
          114.809873093,
          -3.451842204
        ]
      },
      "properties": {
        "label": "Sidodadi dam",
        "type": "Reservoir",
        "entity": "http://www.wikidata.org/entity/Q133867454",
        "country_qid": "Q252"
      }
    },
    {
      "type": "Feature",
      "geometry": {
        "type": "Point",
        "coordinates": [
          108.702447148,
          -7.063758959
        ]
      },
      "properties": {
        "label": "Q109431043",
        "type": "Reservoir",
        "entity": "http://www.wikidata.org/entity/Q109431043",
        "country_qid": "Q252"
      }
    },
    {
      "type": "Feature",
      "geometry": {
        "type": "Point",
        "coordinates": [
          111.463333333,
          -6.905555555
        ]
      },
      "properties": {
        "label": "Q49703620",
        "type": "Reservoir",
        "entity": "http://www.wikidata.org/entity/Q49703620",
        "country_qid": "Q252"
      }
    },
    {
      "type": "Feature",
      "geometry": {
        "type": "Point",
        "coordinates": [
          110.725,
          -7.506388888
        ]
      },
      "properties": {
        "label": "Waduk Cengklik",
        "type": "Reservoir",
        "entity": "http://www.wikidata.org/entity/Q24992788",
        "country_qid": "Q252"
      }
    },
    {
      "type": "Feature",
      "geometry": {
        "type": "Point",
        "coordinates": [
          111.795277777,
          -7.538333333
        ]
      },
      "properties": {
        "label": "Bening Dam",
        "type": "Reservoir",
        "entity": "http://www.wikidata.org/entity/Q12523806",
        "country_qid": "Q252"
      }
    },
    {
      "type": "Feature",
      "geometry": {
        "type": "Point",
        "coordinates": [
          107.966666666,
          -6.683333333
        ]
      },
      "properties": {
        "label": "Waduk Cipanas",
        "type": "Reservoir",
        "entity": "http://www.wikidata.org/entity/Q24989988",
        "country_qid": "Q252"
      }
    },
    {
      "type": "Feature",
      "geometry": {
        "type": "Point",
        "coordinates": [
          102.179493,
          -3.140726
        ]
      },
      "properties": {
        "label": "Lake Picung",
        "type": "Reservoir",
        "entity": "http://www.wikidata.org/entity/Q12480819",
        "country_qid": "Q252"
      }
    },
    {
      "type": "Feature",
      "geometry": {
        "type": "Point",
        "coordinates": [
          108.408888888,
          -7.013055555
        ]
      },
      "properties": {
        "label": "Waduk Darma",
        "type": "Reservoir",
        "entity": "http://www.wikidata.org/entity/Q12523794",
        "country_qid": "Q252"
      }
    },
    {
      "type": "Feature",
      "geometry": {
        "type": "Point",
        "coordinates": [
          110.877222222,
          -7.689166666
        ]
      },
      "properties": {
        "label": "Waduk Mulur",
        "type": "Reservoir",
        "entity": "http://www.wikidata.org/entity/Q25022315",
        "country_qid": "Q252"
      }
    },
    {
      "type": "Feature",
      "geometry": {
        "type": "Point",
        "coordinates": [
          112.26806,
          -7.20556
        ]
      },
      "properties": {
        "label": "Gondang Dam (Lamongan)",
        "type": "Reservoir",
        "entity": "http://www.wikidata.org/entity/Q19744940",
        "country_qid": "Q252"
      }
    },
    {
      "type": "Feature",
      "geometry": {
        "type": "Point",
        "coordinates": [
          107.329444444,
          -6.535277777
        ]
      },
      "properties": {
        "label": "Jatiluhur Reservoir",
        "type": "Reservoir",
        "entity": "http://www.wikidata.org/entity/Q1765511",
        "country_qid": "Q252"
      }
    },
    {
      "type": "Feature",
      "geometry": {
        "type": "Point",
        "coordinates": [
          114.8565818,
          -3.774156277
        ]
      },
      "properties": {
        "label": "Q133893401",
        "type": "Reservoir",
        "entity": "http://www.wikidata.org/entity/Q133893401",
        "country_qid": "Q252"
      }
    },
    {
      "type": "Feature",
      "geometry": {
        "type": "Point",
        "coordinates": [
          110.937777777,
          -7.614166666
        ]
      },
      "properties": {
        "label": "Waduk Lalung",
        "type": "Reservoir",
        "entity": "http://www.wikidata.org/entity/Q25022326",
        "country_qid": "Q252"
      }
    },
    {
      "type": "Feature",
      "geometry": {
        "type": "Point",
        "coordinates": [
          115.0718,
          -3.5264
        ]
      },
      "properties": {
        "label": "Riam Kanan Reservoir",
        "type": "Reservoir",
        "entity": "http://www.wikidata.org/entity/Q12508568",
        "country_qid": "Q252"
      }
    },
    {
      "type": "Feature",
      "geometry": {
        "type": "Point",
        "coordinates": [
          110.396485239,
          -7.861977292
        ]
      },
      "properties": {
        "label": "Embung Bedukan",
        "type": "Reservoir",
        "entity": "http://www.wikidata.org/entity/Q97523658",
        "country_qid": "Q252"
      }
    },
    {
      "type": "Feature",
      "geometry": {
        "type": "Point",
        "coordinates": [
          107.296388888,
          -6.731111111
        ]
      },
      "properties": {
        "label": "Waduk Cirata",
        "type": "Reservoir",
        "entity": "http://www.wikidata.org/entity/Q12523793",
        "country_qid": "Q252"
      }
    },
    {
      "type": "Feature",
      "geometry": {
        "type": "Point",
        "coordinates": [
          110.82,
          -7.27278
        ]
      },
      "properties": {
        "label": "Kedungombo Lake",
        "type": "Reservoir",
        "entity": "http://www.wikidata.org/entity/Q13098325",
        "country_qid": "Q252"
      }
    },
    {
      "type": "Feature",
      "geometry": {
        "type": "Point",
        "coordinates": [
          112.480277777,
          -8.183611111
        ]
      },
      "properties": {
        "label": "Sutami Reservoir",
        "type": "Reservoir",
        "entity": "http://www.wikidata.org/entity/Q19744941",
        "country_qid": "Q252"
      }
    },
    {
      "type": "Feature",
      "geometry": {
        "type": "Point",
        "coordinates": [
          111.694722222,
          -7.485555555
        ]
      },
      "properties": {
        "label": "Lake Notopuro",
        "type": "Reservoir",
        "entity": "http://www.wikidata.org/entity/Q12523798",
        "country_qid": "Q252"
      }
    },
    {
      "type": "Feature",
      "geometry": {
        "type": "Point",
        "coordinates": [
          116.19756,
          -3.29979
        ]
      },
      "properties": {
        "label": "Gunung Ulin Dam",
        "type": "Reservoir",
        "entity": "http://www.wikidata.org/entity/Q132142775",
        "country_qid": "Q252"
      }
    },
    {
      "type": "Feature",
      "geometry": {
        "type": "Point",
        "coordinates": [
          110.989444444,
          -7.590555555
        ]
      },
      "properties": {
        "label": "Waduk Tirtomarto",
        "type": "Reservoir",
        "entity": "http://www.wikidata.org/entity/Q25022322",
        "country_qid": "Q252"
      }
    }
  ]
}