{
  "type": "FeatureCollection",
  "features": [
    {
      "type": "Feature",
      "geometry": {
        "type": "Point",
        "coordinates": [
          35.1375,
          31.194444444
        ]
      },
      "properties": {
        "label": "Ma'agurat Rova‘",
        "type": "Reservoir",
        "entity": "http://www.wikidata.org/entity/Q34904721",
        "country_qid": "Q801"
      }
    },
    {
      "type": "Feature",
      "geometry": {
        "type": "Point",
        "coordinates": [
          34.56667,
          31.43333
        ]
      },
      "properties": {
        "label": "Berekhat Tequma",
        "type": "Reservoir",
        "entity": "http://www.wikidata.org/entity/Q34877581",
        "country_qid": "Q801"
      }
    },
    {
      "type": "Feature",
      "geometry": {
        "type": "Point",
        "coordinates": [
          35.58333,
          32.63333
        ]
      },
      "properties": {
        "label": "Agan Naharayim",
        "type": "Reservoir",
        "entity": "http://www.wikidata.org/entity/Q34868546",
        "country_qid": "Q801"
      }
    },
    {
      "type": "Feature",
      "geometry": {
        "type": "Point",
        "coordinates": [
          35.412222222,
          32.851111111
        ]
      },
      "properties": {
        "label": "Ma'agar Ẕalmon",
        "type": "Reservoir",
        "entity": "http://www.wikidata.org/entity/Q34904698",
        "country_qid": "Q801"
      }
    },
    {
      "type": "Feature",
      "geometry": {
        "type": "Point",
        "coordinates": [
          35.1541067,
          31.7830686
        ]
      },
      "properties": {
        "label": "Ma'agar Bet Zayit",
        "type": "Reservoir",
        "entity": "http://www.wikidata.org/entity/Q12034819",
        "country_qid": "Q801"
      }
    },
    {
      "type": "Feature",
      "geometry": {
        "type": "Point",
        "coordinates": [
          35.056388888,
          32.443611111
        ]
      },
      "properties": {
        "label": "Ma'agar Meẕer",
        "type": "Reservoir",
        "entity": "http://www.wikidata.org/entity/Q34904665",
        "country_qid": "Q801"
      }
    },
    {
      "type": "Feature",
      "geometry": {
        "type": "Point",
        "coordinates": [
          35.30156111,
          32.70671111
        ]
      },
      "properties": {
        "label": "Mary's Well",
        "type": "Reservoir",
        "entity": "http://www.wikidata.org/entity/Q1606462",
        "country_qid": "Q801"
      }
    },
    {
      "type": "Feature",
      "geometry": {
        "type": "Point",
        "coordinates": [
          35.235833333,
          31.781388888
        ]
      },
      "properties": {
        "label": "Pool of Bethesda",
        "type": "Reservoir",
        "entity": "http://www.wikidata.org/entity/Q831297",
        "country_qid": "Q801"
      }
    },
    {
      "type": "Feature",
      "geometry": {
        "type": "Point",
        "coordinates": [
          35.3,
          33.0
        ]
      },
      "properties": {
        "label": "Berekhat Suḥmātā",
        "type": "Reservoir",
        "entity": "http://www.wikidata.org/entity/Q34877568",
        "country_qid": "Q801"
      }
    },
    {
      "type": "Feature",
      "geometry": {
        "type": "Point",
        "coordinates": [
          34.76644444,
          32.04722222
        ]
      },
      "properties": {
        "label": "Sabil Abu Nabbut",
        "type": "Reservoir",
        "entity": "http://www.wikidata.org/entity/Q7396095",
        "country_qid": "Q801"
      }
    },
    {
      "type": "Feature",
      "geometry": {
        "type": "Point",
        "coordinates": [
          34.69523,
          31.60613
        ]
      },
      "properties": {
        "label": "Ma'agar Zohar",
        "type": "Reservoir",
        "entity": "http://www.wikidata.org/entity/Q34904688",
        "country_qid": "Q801"
      }
    },
    {
      "type": "Feature",
      "geometry": {
        "type": "Point",
        "coordinates": [
          34.870954,
          31.931692
        ]
      },
      "properties": {
        "label": "Pool of the Arches",
        "type": "Reservoir",
        "entity": "http://www.wikidata.org/entity/Q6898636",
        "country_qid": "Q801"
      }
    },
    {
      "type": "Feature",
      "geometry": {
        "type": "Point",
        "coordinates": [
          35.16981944,
          31.68899167
        ]
      },
      "properties": {
        "label": "Solomon's Pools",
        "type": "Reservoir",
        "entity": "http://www.wikidata.org/entity/Q2916617",
        "country_qid": "Q801"
      }
    },
    {
      "type": "Feature",
      "geometry": {
        "type": "Point",
        "coordinates": [
          35.224648266,
          31.767570355
        ]
      },
      "properties": {
        "label": "Wauchope Water trough",
        "type": "Reservoir",
        "entity": "http://www.wikidata.org/entity/Q111315915",
        "country_qid": "Q801"
      }
    },
    {
      "type": "Feature",
      "geometry": {
        "type": "Point",
        "coordinates": [
          35.4119444,
          32.8511111
        ]
      },
      "properties": {
        "label": "Q12034820",
        "type": "Reservoir",
        "entity": "http://www.wikidata.org/entity/Q12034820",
        "country_qid": "Q801"
      }
    },
    {
      "type": "Feature",
      "geometry": {
        "type": "Point",
        "coordinates": [
          34.4758853,
          30.738403
        ]
      },
      "properties": {
        "label": "Sabha Cistern",
        "type": "Reservoir",
        "entity": "http://www.wikidata.org/entity/Q29510927",
        "country_qid": "Q801"
      }
    },
    {
      "type": "Feature",
      "geometry": {
        "type": "Point",
        "coordinates": [
          35.24749,
          31.76007
        ]
      },
      "properties": {
        "label": "Pool of Siloam",
        "type": "Reservoir",
        "entity": "http://www.wikidata.org/entity/Q1483483",
        "country_qid": "Q801"
      }
    },
    {
      "type": "Feature",
      "geometry": {
        "type": "Point",
        "coordinates": [
          35.49145,
          32.92081
        ]
      },
      "properties": {
        "label": "Ein Kachal",
        "type": "Reservoir",
        "entity": "http://www.wikidata.org/entity/Q97214208",
        "country_qid": "Q801"
      }
    },
    {
      "type": "Feature",
      "geometry": {
        "type": "Point",
        "coordinates": [
          35.22910833,
          31.777175
        ]
      },
      "properties": {
        "label": "Hezekiah's Pool",
        "type": "Reservoir",
        "entity": "http://www.wikidata.org/entity/Q5749987",
        "country_qid": "Q801"
      }
    },
    {
      "type": "Feature",
      "geometry": {
        "type": "Point",
        "coordinates": [
          34.5159856,
          31.6005132
        ]
      },
      "properties": {
        "label": "Q127701414",
        "type": "Reservoir",
        "entity": "http://www.wikidata.org/entity/Q127701414",
        "country_qid": "Q801"
      }
    },
    {
      "type": "Feature",
      "geometry": {
        "type": "Point",
        "coordinates": [
          35.01734,
          31.2565
        ]
      },
      "properties": {
        "label": "Ma'agurat Mar‘it",
        "type": "Reservoir",
        "entity": "http://www.wikidata.org/entity/Q34904709",
        "country_qid": "Q801"
      }
    },
    {
      "type": "Feature",
      "geometry": {
        "type": "Point",
        "coordinates": [
          34.954193222,
          32.572743251
        ]
      },
      "properties": {
        "label": "Binyamin's Pool",
        "type": "Reservoir",
        "entity": "http://www.wikidata.org/entity/Q6629060",
        "country_qid": "Q801"
      }
    },
    {
      "type": "Feature",
      "geometry": {
        "type": "Point",
        "coordinates": [
          34.565036,
          31.518798
        ]
      },
      "properties": {
        "label": "Nir Am Reservoir",
        "type": "Reservoir",
        "entity": "http://www.wikidata.org/entity/Q63247910",
        "country_qid": "Q801"
      }
    },
    {
      "type": "Feature",
      "geometry": {
        "type": "Point",
        "coordinates": [
          34.8975,
          30.988472222
        ]
      },
      "properties": {
        "label": "Yeruham lake",
        "type": "Reservoir",
        "entity": "http://www.wikidata.org/entity/Q31197449",
        "country_qid": "Q801"
      }
    },
    {
      "type": "Feature",
      "geometry": {
        "type": "Point",
        "coordinates": [
          34.99526381,
          32.82296691
        ]
      },
      "properties": {
        "label": "Dagon House, Haifa",
        "type": "Reservoir",
        "entity": "http://www.wikidata.org/entity/Q12409236",
        "country_qid": "Q801"
      }
    },
    {
      "type": "Feature",
      "geometry": {
        "type": "Point",
        "coordinates": [
          35.2058333,
          32.6388889
        ]
      },
      "properties": {
        "label": "Q12034823",
        "type": "Reservoir",
        "entity": "http://www.wikidata.org/entity/Q12034823",
        "country_qid": "Q801"
      }
    },
    {
      "type": "Feature",
      "geometry": {
        "type": "Point",
        "coordinates": [
          34.5138889,
          31.6
        ]
      },
      "properties": {
        "label": "Shikma Reservoir",
        "type": "Reservoir",
        "entity": "http://www.wikidata.org/entity/Q34904677",
        "country_qid": "Q801"
      }
    },
    {
      "type": "Feature",
      "geometry": {
        "type": "Point",
        "coordinates": [
          35.4586111,
          33.0172222
        ]
      },
      "properties": {
        "label": "Ma'agar Dalton",
        "type": "Reservoir",
        "entity": "http://www.wikidata.org/entity/Q12034821",
        "country_qid": "Q801"
      }
    },
    {
      "type": "Feature",
      "geometry": {
        "type": "Point",
        "coordinates": [
          35.490833333,
          33.030555555
        ]
      },
      "properties": {
        "label": "Brekhat Qash",
        "type": "Reservoir",
        "entity": "http://www.wikidata.org/entity/Q34878696",
        "country_qid": "Q801"
      }
    },
    {
      "type": "Feature",
      "geometry": {
        "type": "Point",
        "coordinates": [
          35.070677777,
          32.922186111
        ]
      },
      "properties": {
        "label": "Building 18013-30",
        "type": "Reservoir",
        "entity": "http://www.wikidata.org/entity/Q105925037",
        "country_qid": "Q801"
      }
    },
    {
      "type": "Feature",
      "geometry": {
        "type": "Point",
        "coordinates": [
          35.22626,
          31.77214
        ]
      },
      "properties": {
        "label": "Sultan's Pool",
        "type": "Reservoir",
        "entity": "http://www.wikidata.org/entity/Q7636576",
        "country_qid": "Q801"
      }
    },
    {
      "type": "Feature",
      "geometry": {
        "type": "Point",
        "coordinates": [
          35.01,
          32.3619444
        ]
      },
      "properties": {
        "label": "Q12034822",
        "type": "Reservoir",
        "entity": "http://www.wikidata.org/entity/Q12034822",
        "country_qid": "Q801"
      }
    },
    {
      "type": "Feature",
      "geometry": {
        "type": "Point",
        "coordinates": [
          35.254166666,
          32.774444444
        ]
      },
      "properties": {
        "label": "Ma'agar Bet Netofa",
        "type": "Reservoir",
        "entity": "http://www.wikidata.org/entity/Q12034818",
        "country_qid": "Q801"
      }
    },
    {
      "type": "Feature",
      "geometry": {
        "type": "Point",
        "coordinates": [
          34.755,
          32.05501111
        ]
      },
      "properties": {
        "label": "Sebil Abu Nabut B",
        "type": "Reservoir",
        "entity": "http://www.wikidata.org/entity/Q6732607",
        "country_qid": "Q801"
      }
    },
    {
      "type": "Feature",
      "geometry": {
        "type": "Point",
        "coordinates": [
          35.466666666,
          33.033333333
        ]
      },
      "properties": {
        "label": "Berekhat Joiag",
        "type": "Reservoir",
        "entity": "http://www.wikidata.org/entity/Q34877544",
        "country_qid": "Q801"
      }
    },
    {
      "type": "Feature",
      "geometry": {
        "type": "Point",
        "coordinates": [
          35.466666666,
          33.033333333
        ]
      },
      "properties": {
        "label": "Berekhat Shaẖar",
        "type": "Reservoir",
        "entity": "http://www.wikidata.org/entity/Q34877556",
        "country_qid": "Q801"
      }
    },
    {
      "type": "Feature",
      "geometry": {
        "type": "Point",
        "coordinates": [
          34.60888889,
          30.51333333
        ]
      },
      "properties": {
        "label": "Lotz Cisterns",
        "type": "Reservoir",
        "entity": "http://www.wikidata.org/entity/Q12404416",
        "country_qid": "Q801"
      }
    }
  ]
}