{
  "type": "FeatureCollection",
  "features": [
    {
      "type": "Feature",
      "geometry": {
        "type": "Point",
        "coordinates": [
          -4.644963,
          40.574136
        ]
      },
      "properties": {
        "label": "Q5830410",
        "type": "Reservoir",
        "entity": "http://www.wikidata.org/entity/Q5830410",
        "country_qid": "Q29"
      }
    },
    {
      "type": "Feature",
      "geometry": {
        "type": "Point",
        "coordinates": [
          -2.526425,
          41.833594444
        ]
      },
      "properties": {
        "label": "Q5830424",
        "type": "Reservoir",
        "entity": "http://www.wikidata.org/entity/Q5830424",
        "country_qid": "Q29"
      }
    },
    {
      "type": "Feature",
      "geometry": {
        "type": "Point",
        "coordinates": [
          -5.30227778,
          37.97722222
        ]
      },
      "properties": {
        "label": "Bembézar Reservoir",
        "type": "Reservoir",
        "entity": "http://www.wikidata.org/entity/Q5369433",
        "country_qid": "Q29"
      }
    },
    {
      "type": "Feature",
      "geometry": {
        "type": "Point",
        "coordinates": [
          -5.05055556,
          37.84555556
        ]
      },
      "properties": {
        "label": "La Breña Reservoir",
        "type": "Reservoir",
        "entity": "http://www.wikidata.org/entity/Q5369448",
        "country_qid": "Q29"
      }
    },
    {
      "type": "Feature",
      "geometry": {
        "type": "Point",
        "coordinates": [
          -0.320808333,
          40.026505555
        ]
      },
      "properties": {
        "label": "Q5816027",
        "type": "Reservoir",
        "entity": "http://www.wikidata.org/entity/Q5816027",
        "country_qid": "Q29"
      }
    },
    {
      "type": "Feature",
      "geometry": {
        "type": "Point",
        "coordinates": [
          -4.79305556,
          38.02333333
        ]
      },
      "properties": {
        "label": "Guadanuño Reservoir",
        "type": "Reservoir",
        "entity": "http://www.wikidata.org/entity/Q5369444",
        "country_qid": "Q29"
      }
    },
    {
      "type": "Feature",
      "geometry": {
        "type": "Point",
        "coordinates": [
          -5.71055556,
          36.80972222
        ]
      },
      "properties": {
        "label": "Bornos Reservoir",
        "type": "Reservoir",
        "entity": "http://www.wikidata.org/entity/Q5369434",
        "country_qid": "Q29"
      }
    },
    {
      "type": "Feature",
      "geometry": {
        "type": "Point",
        "coordinates": [
          -5.686669444,
          40.303261111
        ]
      },
      "properties": {
        "label": "Laguna del Duque",
        "type": "Reservoir",
        "entity": "http://www.wikidata.org/entity/Q5830444",
        "country_qid": "Q29"
      }
    },
    {
      "type": "Feature",
      "geometry": {
        "type": "Point",
        "coordinates": [
          -4.05117,
          40.59119
        ]
      },
      "properties": {
        "label": "embalse de Los Arroyos",
        "type": "Reservoir",
        "entity": "http://www.wikidata.org/entity/Q5830521",
        "country_qid": "Q29"
      }
    },
    {
      "type": "Feature",
      "geometry": {
        "type": "Point",
        "coordinates": [
          -2.505363912,
          42.444002387
        ]
      },
      "properties": {
        "label": "La Grajera Reservoir",
        "type": "Reservoir",
        "entity": "http://www.wikidata.org/entity/Q5830504",
        "country_qid": "Q29"
      }
    },
    {
      "type": "Feature",
      "geometry": {
        "type": "Point",
        "coordinates": [
          -2.47333333,
          41.70861111
        ]
      },
      "properties": {
        "label": "Q5830525",
        "type": "Reservoir",
        "entity": "http://www.wikidata.org/entity/Q5830525",
        "country_qid": "Q29"
      }
    },
    {
      "type": "Feature",
      "geometry": {
        "type": "Point",
        "coordinates": [
          -5.49333333,
          40.89305556
        ]
      },
      "properties": {
        "label": "Villagonzalo Reservoir",
        "type": "Reservoir",
        "entity": "http://www.wikidata.org/entity/Q5678462",
        "country_qid": "Q29"
      }
    },
    {
      "type": "Feature",
      "geometry": {
        "type": "Point",
        "coordinates": [
          -5.46833333,
          36.31861111
        ]
      },
      "properties": {
        "label": "Guadarranque Reservoir",
        "type": "Reservoir",
        "entity": "http://www.wikidata.org/entity/Q5369445",
        "country_qid": "Q29"
      }
    },
    {
      "type": "Feature",
      "geometry": {
        "type": "Point",
        "coordinates": [
          -1.08722222,
          38.09361111
        ]
      },
      "properties": {
        "label": "Santomera Reservoir",
        "type": "Reservoir",
        "entity": "http://www.wikidata.org/entity/Q5476272",
        "country_qid": "Q29"
      }
    },
    {
      "type": "Feature",
      "geometry": {
        "type": "Point",
        "coordinates": [
          -6.04943,
          37.5671
        ]
      },
      "properties": {
        "label": "Embalse del Gergal",
        "type": "Reservoir",
        "entity": "http://www.wikidata.org/entity/Q5830448",
        "country_qid": "Q29"
      }
    },
    {
      "type": "Feature",
      "geometry": {
        "type": "Point",
        "coordinates": [
          -5.64276667,
          36.15520278
        ]
      },
      "properties": {
        "label": "Almodóvar Reservoir",
        "type": "Reservoir",
        "entity": "http://www.wikidata.org/entity/Q5369429",
        "country_qid": "Q29"
      }
    },
    {
      "type": "Feature",
      "geometry": {
        "type": "Point",
        "coordinates": [
          -3.899244444,
          40.574138888
        ]
      },
      "properties": {
        "label": "Gabriel Enríquez de la Orden reservoir",
        "type": "Reservoir",
        "entity": "http://www.wikidata.org/entity/Q5830481",
        "country_qid": "Q29"
      }
    },
    {
      "type": "Feature",
      "geometry": {
        "type": "Point",
        "coordinates": [
          -2.161111111,
          36.984166666
        ]
      },
      "properties": {
        "label": "Isabel II Reservoir",
        "type": "Reservoir",
        "entity": "http://www.wikidata.org/entity/Q5830489",
        "country_qid": "Q29"
      }
    },
    {
      "type": "Feature",
      "geometry": {
        "type": "Point",
        "coordinates": [
          -0.224722222,
          40.1
        ]
      },
      "properties": {
        "label": "Alcora Reservoir",
        "type": "Reservoir",
        "entity": "http://www.wikidata.org/entity/Q5830395",
        "country_qid": "Q29"
      }
    },
    {
      "type": "Feature",
      "geometry": {
        "type": "Point",
        "coordinates": [
          -2.78888889,
          37.80583333
        ]
      },
      "properties": {
        "label": "El Portillo Reservoir",
        "type": "Reservoir",
        "entity": "http://www.wikidata.org/entity/Q5369441",
        "country_qid": "Q29"
      }
    },
    {
      "type": "Feature",
      "geometry": {
        "type": "Point",
        "coordinates": [
          -1.876,
          38.508983333
        ]
      },
      "properties": {
        "label": "Talave Reservoir",
        "type": "Reservoir",
        "entity": "http://www.wikidata.org/entity/Q5830460",
        "country_qid": "Q29"
      }
    },
    {
      "type": "Feature",
      "geometry": {
        "type": "Point",
        "coordinates": [
          -4.33444444,
          38.09805556
        ]
      },
      "properties": {
        "label": "Martín Gonzalo Reservoir",
        "type": "Reservoir",
        "entity": "http://www.wikidata.org/entity/Q5369449",
        "country_qid": "Q29"
      }
    },
    {
      "type": "Feature",
      "geometry": {
        "type": "Point",
        "coordinates": [
          -6.45,
          37.90916667
        ]
      },
      "properties": {
        "label": "Aracena Reservoir",
        "type": "Reservoir",
        "entity": "http://www.wikidata.org/entity/Q5830407",
        "country_qid": "Q29"
      }
    },
    {
      "type": "Feature",
      "geometry": {
        "type": "Point",
        "coordinates": [
          -0.802258333,
          38.502888888
        ]
      },
      "properties": {
        "label": "Elda Dam",
        "type": "Reservoir",
        "entity": "http://www.wikidata.org/entity/Q5830467",
        "country_qid": "Q29"
      }
    },
    {
      "type": "Feature",
      "geometry": {
        "type": "Point",
        "coordinates": [
          -0.791666666,
          38.258333333
        ]
      },
      "properties": {
        "label": "Q5830437",
        "type": "Reservoir",
        "entity": "http://www.wikidata.org/entity/Q5830437",
        "country_qid": "Q29"
      }
    },
    {
      "type": "Feature",
      "geometry": {
        "type": "Point",
        "coordinates": [
          -4.709846,
          40.67159
        ]
      },
      "properties": {
        "label": "Fuentes Claras reservoir",
        "type": "Reservoir",
        "entity": "http://www.wikidata.org/entity/Q5830478",
        "country_qid": "Q29"
      }
    },
    {
      "type": "Feature",
      "geometry": {
        "type": "Point",
        "coordinates": [
          -1.8043,
          41.2512
        ]
      },
      "properties": {
        "label": "Reservoir of La Tranquera",
        "type": "Reservoir",
        "entity": "http://www.wikidata.org/entity/Q5830513",
        "country_qid": "Q29"
      }
    },
    {
      "type": "Feature",
      "geometry": {
        "type": "Point",
        "coordinates": [
          -4.166667,
          36.870833
        ]
      },
      "properties": {
        "label": "Reservoir La Viñuela",
        "type": "Reservoir",
        "entity": "http://www.wikidata.org/entity/Q5830515",
        "country_qid": "Q29"
      }
    },
    {
      "type": "Feature",
      "geometry": {
        "type": "Point",
        "coordinates": [
          -3.491743304,
          36.861093269
        ]
      },
      "properties": {
        "label": "Rules reservoir",
        "type": "Reservoir",
        "entity": "http://www.wikidata.org/entity/Q5369455",
        "country_qid": "Q29"
      }
    },
    {
      "type": "Feature",
      "geometry": {
        "type": "Point",
        "coordinates": [
          -4.792527777,
          36.930919444
        ]
      },
      "properties": {
        "label": "Gaitanejo Reservoir",
        "type": "Reservoir",
        "entity": "http://www.wikidata.org/entity/Q5487545",
        "country_qid": "Q29"
      }
    },
    {
      "type": "Feature",
      "geometry": {
        "type": "Point",
        "coordinates": [
          -5.35388889,
          37.84361111
        ]
      },
      "properties": {
        "label": "Retortillo Reservoir",
        "type": "Reservoir",
        "entity": "http://www.wikidata.org/entity/Q5369454",
        "country_qid": "Q29"
      }
    },
    {
      "type": "Feature",
      "geometry": {
        "type": "Point",
        "coordinates": [
          -4.492205555,
          36.8068
        ]
      },
      "properties": {
        "label": "Casasola reservoir",
        "type": "Reservoir",
        "entity": "http://www.wikidata.org/entity/Q5830430",
        "country_qid": "Q29"
      }
    },
    {
      "type": "Feature",
      "geometry": {
        "type": "Point",
        "coordinates": [
          -1.966144444,
          37.805908333
        ]
      },
      "properties": {
        "label": "Q5490023",
        "type": "Reservoir",
        "entity": "http://www.wikidata.org/entity/Q5490023",
        "country_qid": "Q29"
      }
    },
    {
      "type": "Feature",
      "geometry": {
        "type": "Point",
        "coordinates": [
          -4.43213,
          36.759386
        ]
      },
      "properties": {
        "label": "Embalse de El Limonero",
        "type": "Reservoir",
        "entity": "http://www.wikidata.org/entity/Q5830452",
        "country_qid": "Q29"
      }
    },
    {
      "type": "Feature",
      "geometry": {
        "type": "Point",
        "coordinates": [
          -3.19916667,
          41.02611111
        ]
      },
      "properties": {
        "label": "Q5715181",
        "type": "Reservoir",
        "entity": "http://www.wikidata.org/entity/Q5715181",
        "country_qid": "Q29"
      }
    },
    {
      "type": "Feature",
      "geometry": {
        "type": "Point",
        "coordinates": [
          -1.057573953,
          39.233992922
        ]
      },
      "properties": {
        "label": "Q5830469",
        "type": "Reservoir",
        "entity": "http://www.wikidata.org/entity/Q5830469",
        "country_qid": "Q29"
      }
    },
    {
      "type": "Feature",
      "geometry": {
        "type": "Point",
        "coordinates": [
          -3.27,
          37.31
        ]
      },
      "properties": {
        "label": "Francisco Abellán Reservoir",
        "type": "Reservoir",
        "entity": "http://www.wikidata.org/entity/Q5369442",
        "country_qid": "Q29"
      }
    },
    {
      "type": "Feature",
      "geometry": {
        "type": "Point",
        "coordinates": [
          -5.24944444,
          38.27277778
        ]
      },
      "properties": {
        "label": "Sierra Boyera Reservoir",
        "type": "Reservoir",
        "entity": "http://www.wikidata.org/entity/Q5369459",
        "country_qid": "Q29"
      }
    },
    {
      "type": "Feature",
      "geometry": {
        "type": "Point",
        "coordinates": [
          -2.181944444,
          41.388333333
        ]
      },
      "properties": {
        "label": "Monteagudo reservoir",
        "type": "Reservoir",
        "entity": "http://www.wikidata.org/entity/Q5830532",
        "country_qid": "Q29"
      }
    },
    {
      "type": "Feature",
      "geometry": {
        "type": "Point",
        "coordinates": [
          -4.000555555,
          43.085555555
        ]
      },
      "properties": {
        "label": "Alsa Torina reservoir",
        "type": "Reservoir",
        "entity": "http://www.wikidata.org/entity/Q5830405",
        "country_qid": "Q29"
      }
    },
    {
      "type": "Feature",
      "geometry": {
        "type": "Point",
        "coordinates": [
          -3.43416667,
          37.20722222
        ]
      },
      "properties": {
        "label": "Quéntar Reservoir",
        "type": "Reservoir",
        "entity": "http://www.wikidata.org/entity/Q5369453",
        "country_qid": "Q29"
      }
    },
    {
      "type": "Feature",
      "geometry": {
        "type": "Point",
        "coordinates": [
          -5.71444444,
          36.38194444
        ]
      },
      "properties": {
        "label": "Barbate Reservoir",
        "type": "Reservoir",
        "entity": "http://www.wikidata.org/entity/Q5369432",
        "country_qid": "Q29"
      }
    },
    {
      "type": "Feature",
      "geometry": {
        "type": "Point",
        "coordinates": [
          -6.42916667,
          43.29277778
        ]
      },
      "properties": {
        "label": "Embalse de La Florida",
        "type": "Reservoir",
        "entity": "http://www.wikidata.org/entity/Q5830502",
        "country_qid": "Q29"
      }
    },
    {
      "type": "Feature",
      "geometry": {
        "type": "Point",
        "coordinates": [
          -4.9632,
          36.5579
        ]
      },
      "properties": {
        "label": "Embalse de la Concepción",
        "type": "Reservoir",
        "entity": "http://www.wikidata.org/entity/Q5830497",
        "country_qid": "Q29"
      }
    },
    {
      "type": "Feature",
      "geometry": {
        "type": "Point",
        "coordinates": [
          -2.618522222,
          40.844491666
        ]
      },
      "properties": {
        "label": "Reservoir La Tajera",
        "type": "Reservoir",
        "entity": "http://www.wikidata.org/entity/Q5830511",
        "country_qid": "Q29"
      }
    },
    {
      "type": "Feature",
      "geometry": {
        "type": "Point",
        "coordinates": [
          -5.390080555,
          39.393252777
        ]
      },
      "properties": {
        "label": "Q5830428",
        "type": "Reservoir",
        "entity": "http://www.wikidata.org/entity/Q5830428",
        "country_qid": "Q29"
      }
    },
    {
      "type": "Feature",
      "geometry": {
        "type": "Point",
        "coordinates": [
          -2.9575,
          40.27555556
        ]
      },
      "properties": {
        "label": "Faltos",
        "type": "Reservoir",
        "entity": "http://www.wikidata.org/entity/Q5672943",
        "country_qid": "Q29"
      }
    },
    {
      "type": "Feature",
      "geometry": {
        "type": "Point",
        "coordinates": [
          -0.678472222,
          40.211555555
        ]
      },
      "properties": {
        "label": "Balagueras Reservoir",
        "type": "Reservoir",
        "entity": "http://www.wikidata.org/entity/Q5662237",
        "country_qid": "Q29"
      }
    },
    {
      "type": "Feature",
      "geometry": {
        "type": "Point",
        "coordinates": [
          -3.56111111,
          40.95027778
        ]
      },
      "properties": {
        "label": "El Villar Reservoir",
        "type": "Reservoir",
        "entity": "http://www.wikidata.org/entity/Q5830463",
        "country_qid": "Q29"
      }
    },
    {
      "type": "Feature",
      "geometry": {
        "type": "Point",
        "coordinates": [
          -1.9775,
          40.65111111
        ]
      },
      "properties": {
        "label": "Q5830493",
        "type": "Reservoir",
        "entity": "http://www.wikidata.org/entity/Q5830493",
        "country_qid": "Q29"
      }
    },
    {
      "type": "Feature",
      "geometry": {
        "type": "Point",
        "coordinates": [
          -4.0612576,
          43.2491159
        ]
      },
      "properties": {
        "label": "Q5830523",
        "type": "Reservoir",
        "entity": "http://www.wikidata.org/entity/Q5830523",
        "country_qid": "Q29"
      }
    },
    {
      "type": "Feature",
      "geometry": {
        "type": "Point",
        "coordinates": [
          -4.34555556,
          37.28
        ]
      },
      "properties": {
        "label": "Iznájar Reservoir",
        "type": "Reservoir",
        "entity": "http://www.wikidata.org/entity/Q5369447",
        "country_qid": "Q29"
      }
    },
    {
      "type": "Feature",
      "geometry": {
        "type": "Point",
        "coordinates": [
          -5.055191666,
          40.748352777
        ]
      },
      "properties": {
        "label": "Q5830454",
        "type": "Reservoir",
        "entity": "http://www.wikidata.org/entity/Q5830454",
        "country_qid": "Q29"
      }
    },
    {
      "type": "Feature",
      "geometry": {
        "type": "Point",
        "coordinates": [
          -4.0072,
          40.7184
        ]
      },
      "properties": {
        "label": "Embalse de Navacerrada",
        "type": "Reservoir",
        "entity": "http://www.wikidata.org/entity/Q5369450",
        "country_qid": "Q29"
      }
    },
    {
      "type": "Feature",
      "geometry": {
        "type": "Point",
        "coordinates": [
          -5.881138888,
          37.746627777
        ]
      },
      "properties": {
        "label": "Q5830530",
        "type": "Reservoir",
        "entity": "http://www.wikidata.org/entity/Q5830530",
        "country_qid": "Q29"
      }
    },
    {
      "type": "Feature",
      "geometry": {
        "type": "Point",
        "coordinates": [
          -4.5775,
          40.423611111
        ]
      },
      "properties": {
        "label": "El Burguillo Reservoir",
        "type": "Reservoir",
        "entity": "http://www.wikidata.org/entity/Q5830442",
        "country_qid": "Q29"
      }
    },
    {
      "type": "Feature",
      "geometry": {
        "type": "Point",
        "coordinates": [
          -3.79251,
          40.565407
        ]
      },
      "properties": {
        "label": "El Pardo Reservoir",
        "type": "Reservoir",
        "entity": "http://www.wikidata.org/entity/Q5830456",
        "country_qid": "Q29"
      }
    },
    {
      "type": "Feature",
      "geometry": {
        "type": "Point",
        "coordinates": [
          -0.47834722,
          38.93921111
        ]
      },
      "properties": {
        "label": "Embassament de Bellús",
        "type": "Reservoir",
        "entity": "http://www.wikidata.org/entity/Q5670515",
        "country_qid": "Q29"
      }
    },
    {
      "type": "Feature",
      "geometry": {
        "type": "Point",
        "coordinates": [
          -6.50888889,
          37.66694444
        ]
      },
      "properties": {
        "label": "Q5549571",
        "type": "Reservoir",
        "entity": "http://www.wikidata.org/entity/Q5549571",
        "country_qid": "Q29"
      }
    },
    {
      "type": "Feature",
      "geometry": {
        "type": "Point",
        "coordinates": [
          -5.91666667,
          43.295
        ]
      },
      "properties": {
        "label": "Alfilorios reservoir",
        "type": "Reservoir",
        "entity": "http://www.wikidata.org/entity/Q5830399",
        "country_qid": "Q29"
      }
    },
    {
      "type": "Feature",
      "geometry": {
        "type": "Point",
        "coordinates": [
          -4.61861111,
          37.96444444
        ]
      },
      "properties": {
        "label": "San Rafael de Navallana Reservoir",
        "type": "Reservoir",
        "entity": "http://www.wikidata.org/entity/Q5369457",
        "country_qid": "Q29"
      }
    },
    {
      "type": "Feature",
      "geometry": {
        "type": "Point",
        "coordinates": [
          -4.09872,
          40.46387
        ]
      },
      "properties": {
        "label": "Cerro Alarcón reservoir",
        "type": "Reservoir",
        "entity": "http://www.wikidata.org/entity/Q5830434",
        "country_qid": "Q29"
      }
    },
    {
      "type": "Feature",
      "geometry": {
        "type": "Point",
        "coordinates": [
          -1.15333333,
          38.8725
        ]
      },
      "properties": {
        "label": "Almansa Reservoir",
        "type": "Reservoir",
        "entity": "http://www.wikidata.org/entity/Q5830401",
        "country_qid": "Q29"
      }
    },
    {
      "type": "Feature",
      "geometry": {
        "type": "Point",
        "coordinates": [
          -3.88527778,
          41.33722222
        ]
      },
      "properties": {
        "label": "Burgomillodo Reservoir",
        "type": "Reservoir",
        "entity": "http://www.wikidata.org/entity/Q5830416",
        "country_qid": "Q29"
      }
    },
    {
      "type": "Feature",
      "geometry": {
        "type": "Point",
        "coordinates": [
          -1.904583333,
          37.333547222
        ]
      },
      "properties": {
        "label": "Cuevas del Almanzora Reservoir",
        "type": "Reservoir",
        "entity": "http://www.wikidata.org/entity/Q5830436",
        "country_qid": "Q29"
      }
    },
    {
      "type": "Feature",
      "geometry": {
        "type": "Point",
        "coordinates": [
          -3.96416667,
          41.42833333
        ]
      },
      "properties": {
        "label": "Q5576859",
        "type": "Reservoir",
        "entity": "http://www.wikidata.org/entity/Q5576859",
        "country_qid": "Q29"
      }
    },
    {
      "type": "Feature",
      "geometry": {
        "type": "Point",
        "coordinates": [
          -3.535277777,
          41.509166666
        ]
      },
      "properties": {
        "label": "Pantano de Linares",
        "type": "Reservoir",
        "entity": "http://www.wikidata.org/entity/Q5830519",
        "country_qid": "Q29"
      }
    },
    {
      "type": "Feature",
      "geometry": {
        "type": "Point",
        "coordinates": [
          -6.55361111,
          42.58805556
        ]
      },
      "properties": {
        "label": "Bárcena Reservoir",
        "type": "Reservoir",
        "entity": "http://www.wikidata.org/entity/Q5815472",
        "country_qid": "Q29"
      }
    },
    {
      "type": "Feature",
      "geometry": {
        "type": "Point",
        "coordinates": [
          -0.33363056,
          39.93636389
        ]
      },
      "properties": {
        "label": "Q5554646",
        "type": "Reservoir",
        "entity": "http://www.wikidata.org/entity/Q5554646",
        "country_qid": "Q29"
      }
    },
    {
      "type": "Feature",
      "geometry": {
        "type": "Point",
        "coordinates": [
          -4.08055556,
          41.74388889
        ]
      },
      "properties": {
        "label": "Embalse de Encinas de Esgueva",
        "type": "Reservoir",
        "entity": "http://www.wikidata.org/entity/Q5830471",
        "country_qid": "Q29"
      }
    },
    {
      "type": "Feature",
      "geometry": {
        "type": "Point",
        "coordinates": [
          -6.107463888,
          37.712516666
        ]
      },
      "properties": {
        "label": "Q5830417",
        "type": "Reservoir",
        "entity": "http://www.wikidata.org/entity/Q5830417",
        "country_qid": "Q29"
      }
    },
    {
      "type": "Feature",
      "geometry": {
        "type": "Point",
        "coordinates": [
          -4.388824,
          43.132278
        ]
      },
      "properties": {
        "label": "La Cohilla Reservoir",
        "type": "Reservoir",
        "entity": "http://www.wikidata.org/entity/Q5830495",
        "country_qid": "Q29"
      }
    },
    {
      "type": "Feature",
      "geometry": {
        "type": "Point",
        "coordinates": [
          -3.72088889,
          37.40353889
        ]
      },
      "properties": {
        "label": "Colomera Reservoir",
        "type": "Reservoir",
        "entity": "http://www.wikidata.org/entity/Q5369438",
        "country_qid": "Q29"
      }
    },
    {
      "type": "Feature",
      "geometry": {
        "type": "Point",
        "coordinates": [
          -3.677588888,
          39.62575
        ]
      },
      "properties": {
        "label": "Q5830475",
        "type": "Reservoir",
        "entity": "http://www.wikidata.org/entity/Q5830475",
        "country_qid": "Q29"
      }
    },
    {
      "type": "Feature",
      "geometry": {
        "type": "Point",
        "coordinates": [
          -2.916544444,
          41.059452777
        ]
      },
      "properties": {
        "label": "Pálmaces Reservoir",
        "type": "Reservoir",
        "entity": "http://www.wikidata.org/entity/Q5658823",
        "country_qid": "Q29"
      }
    },
    {
      "type": "Feature",
      "geometry": {
        "type": "Point",
        "coordinates": [
          -0.164166666,
          40.030277777
        ]
      },
      "properties": {
        "label": "Maria Cristina Reservoir",
        "type": "Reservoir",
        "entity": "http://www.wikidata.org/entity/Q5830527",
        "country_qid": "Q29"
      }
    },
    {
      "type": "Feature",
      "geometry": {
        "type": "Point",
        "coordinates": [
          -3.31782778,
          43.30531944
        ]
      },
      "properties": {
        "label": "Q5830450",
        "type": "Reservoir",
        "entity": "http://www.wikidata.org/entity/Q5830450",
        "country_qid": "Q29"
      }
    },
    {
      "type": "Feature",
      "geometry": {
        "type": "Point",
        "coordinates": [
          -5.485,
          37.74833333
        ]
      },
      "properties": {
        "label": "Q5796781",
        "type": "Reservoir",
        "entity": "http://www.wikidata.org/entity/Q5796781",
        "country_qid": "Q29"
      }
    },
    {
      "type": "Feature",
      "geometry": {
        "type": "Point",
        "coordinates": [
          -2.67287778,
          42.17391944
        ]
      },
      "properties": {
        "label": "González-Lacasa Reservoir",
        "type": "Reservoir",
        "entity": "http://www.wikidata.org/entity/Q5830377",
        "country_qid": "Q29"
      }
    },
    {
      "type": "Feature",
      "geometry": {
        "type": "Point",
        "coordinates": [
          -3.243627777,
          42.043125
        ]
      },
      "properties": {
        "label": "Castrovido Dam",
        "type": "Reservoir",
        "entity": "http://www.wikidata.org/entity/Q5830432",
        "country_qid": "Q29"
      }
    },
    {
      "type": "Feature",
      "geometry": {
        "type": "Point",
        "coordinates": [
          -4.68916667,
          38.06805556
        ]
      },
      "properties": {
        "label": "Guadalmellato Reservoir",
        "type": "Reservoir",
        "entity": "http://www.wikidata.org/entity/Q5369443",
        "country_qid": "Q29"
      }
    },
    {
      "type": "Feature",
      "geometry": {
        "type": "Point",
        "coordinates": [
          -6.762777777,
          42.503055555
        ]
      },
      "properties": {
        "label": "Campañana Reservoir",
        "type": "Reservoir",
        "entity": "http://www.wikidata.org/entity/Q5830421",
        "country_qid": "Q29"
      }
    },
    {
      "type": "Feature",
      "geometry": {
        "type": "Point",
        "coordinates": [
          -5.780677777,
          40.343588888
        ]
      },
      "properties": {
        "label": "Navamuño Reservoir",
        "type": "Reservoir",
        "entity": "http://www.wikidata.org/entity/Q5830534",
        "country_qid": "Q29"
      }
    },
    {
      "type": "Feature",
      "geometry": {
        "type": "Point",
        "coordinates": [
          -3.19444444,
          40.935
        ]
      },
      "properties": {
        "label": "Beleña Reservoir",
        "type": "Reservoir",
        "entity": "http://www.wikidata.org/entity/Q5830412",
        "country_qid": "Q29"
      }
    },
    {
      "type": "Feature",
      "geometry": {
        "type": "Point",
        "coordinates": [
          -5.75949722,
          36.30315833
        ]
      },
      "properties": {
        "label": "Celemín Reservoir",
        "type": "Reservoir",
        "entity": "http://www.wikidata.org/entity/Q5369436",
        "country_qid": "Q29"
      }
    },
    {
      "type": "Feature",
      "geometry": {
        "type": "Point",
        "coordinates": [
          -0.32080833,
          40.02650556
        ]
      },
      "properties": {
        "label": "Q5488795",
        "type": "Reservoir",
        "entity": "http://www.wikidata.org/entity/Q5488795",
        "country_qid": "Q29"
      }
    },
    {
      "type": "Feature",
      "geometry": {
        "type": "Point",
        "coordinates": [
          -5.96305556,
          43.36833333
        ]
      },
      "properties": {
        "label": "Q5830446",
        "type": "Reservoir",
        "entity": "http://www.wikidata.org/entity/Q5830446",
        "country_qid": "Q29"
      }
    },
    {
      "type": "Feature",
      "geometry": {
        "type": "Point",
        "coordinates": [
          -3.024758333,
          41.017369444
        ]
      },
      "properties": {
        "label": "Alcorlo Reservoir",
        "type": "Reservoir",
        "entity": "http://www.wikidata.org/entity/Q5830397",
        "country_qid": "Q29"
      }
    },
    {
      "type": "Feature",
      "geometry": {
        "type": "Point",
        "coordinates": [
          -3.00583333,
          40.20416667
        ]
      },
      "properties": {
        "label": "Estremera Reservoir",
        "type": "Reservoir",
        "entity": "http://www.wikidata.org/entity/Q5830473",
        "country_qid": "Q29"
      }
    },
    {
      "type": "Feature",
      "geometry": {
        "type": "Point",
        "coordinates": [
          -5.41358,
          38.91268
        ]
      },
      "properties": {
        "label": "La Serena Reservoir",
        "type": "Reservoir",
        "entity": "http://www.wikidata.org/entity/Q3373806",
        "country_qid": "Q29"
      }
    },
    {
      "type": "Feature",
      "geometry": {
        "type": "Point",
        "coordinates": [
          -5.871583333,
          42.869944444
        ]
      },
      "properties": {
        "label": "Reservoir of Barrios de Luna",
        "type": "Reservoir",
        "entity": "http://www.wikidata.org/entity/Q3373938",
        "country_qid": "Q29"
      }
    },
    {
      "type": "Feature",
      "geometry": {
        "type": "Point",
        "coordinates": [
          0.193588888,
          42.339688888
        ]
      },
      "properties": {
        "label": "Mediano Reservoir",
        "type": "Reservoir",
        "entity": "http://www.wikidata.org/entity/Q3215482",
        "country_qid": "Q29"
      }
    },
    {
      "type": "Feature",
      "geometry": {
        "type": "Point",
        "coordinates": [
          -1.368332626,
          42.811038014
        ]
      },
      "properties": {
        "label": "Q3380147",
        "type": "Reservoir",
        "entity": "http://www.wikidata.org/entity/Q3380147",
        "country_qid": "Q29"
      }
    },
    {
      "type": "Feature",
      "geometry": {
        "type": "Point",
        "coordinates": [
          -2.616538672,
          42.929057547
        ]
      },
      "properties": {
        "label": "Reservoir of Ullíbarri-Gamboa",
        "type": "Reservoir",
        "entity": "http://www.wikidata.org/entity/Q3380139",
        "country_qid": "Q29"
      }
    },
    {
      "type": "Feature",
      "geometry": {
        "type": "Point",
        "coordinates": [
          -2.78333,
          38.13333
        ]
      },
      "properties": {
        "label": "Embalse de El Tranco de Beas",
        "type": "Reservoir",
        "entity": "http://www.wikidata.org/entity/Q2837200",
        "country_qid": "Q29"
      }
    },
    {
      "type": "Feature",
      "geometry": {
        "type": "Point",
        "coordinates": [
          0.746308333,
          42.339730555
        ]
      },
      "properties": {
        "label": "Escales Reservoir",
        "type": "Reservoir",
        "entity": "http://www.wikidata.org/entity/Q2843621",
        "country_qid": "Q29"
      }
    },
    {
      "type": "Feature",
      "geometry": {
        "type": "Point",
        "coordinates": [
          -3.28583333,
          43.16027778
        ]
      },
      "properties": {
        "label": "Ordunte reservoir",
        "type": "Reservoir",
        "entity": "http://www.wikidata.org/entity/Q3380130",
        "country_qid": "Q29"
      }
    },
    {
      "type": "Feature",
      "geometry": {
        "type": "Point",
        "coordinates": [
          -0.55972222,
          40.09444444
        ]
      },
      "properties": {
        "label": "Arenós Reservoir",
        "type": "Reservoir",
        "entity": "http://www.wikidata.org/entity/Q3376336",
        "country_qid": "Q29"
      }
    },
    {
      "type": "Feature",
      "geometry": {
        "type": "Point",
        "coordinates": [
          1.00494,
          42.5818
        ]
      },
      "properties": {
        "label": "Saint Maurice Lake",
        "type": "Reservoir",
        "entity": "http://www.wikidata.org/entity/Q3574248",
        "country_qid": "Q29"
      }
    },
    {
      "type": "Feature",
      "geometry": {
        "type": "Point",
        "coordinates": [
          -6.26888889,
          38.78527778
        ]
      },
      "properties": {
        "label": "Alange Reservoir",
        "type": "Reservoir",
        "entity": "http://www.wikidata.org/entity/Q3379753",
        "country_qid": "Q29"
      }
    },
    {
      "type": "Feature",
      "geometry": {
        "type": "Point",
        "coordinates": [
          -4.69833333,
          40.72388889
        ]
      },
      "properties": {
        "label": "Embalse del Castro de las Cogotas",
        "type": "Reservoir",
        "entity": "http://www.wikidata.org/entity/Q2841616",
        "country_qid": "Q29"
      }
    },
    {
      "type": "Feature",
      "geometry": {
        "type": "Point",
        "coordinates": [
          -6.127966666,
          40.247986111
        ]
      },
      "properties": {
        "label": "Gabriel y Galán Reservoir",
        "type": "Reservoir",
        "entity": "http://www.wikidata.org/entity/Q3379742",
        "country_qid": "Q29"
      }
    },
    {
      "type": "Feature",
      "geometry": {
        "type": "Point",
        "coordinates": [
          -3.659563888,
          40.976491666
        ]
      },
      "properties": {
        "label": "Riosequillo Reservoir",
        "type": "Reservoir",
        "entity": "http://www.wikidata.org/entity/Q2834413",
        "country_qid": "Q29"
      }
    },
    {
      "type": "Feature",
      "geometry": {
        "type": "Point",
        "coordinates": [
          -0.7241231,
          38.320969181
        ]
      },
      "properties": {
        "label": "Embalse de Embarcaderos",
        "type": "Reservoir",
        "entity": "http://www.wikidata.org/entity/Q3376618",
        "country_qid": "Q29"
      }
    },
    {
      "type": "Feature",
      "geometry": {
        "type": "Point",
        "coordinates": [
          -0.318636,
          42.758359
        ]
      },
      "properties": {
        "label": "Lanuza Reservoir",
        "type": "Reservoir",
        "entity": "http://www.wikidata.org/entity/Q3377773",
        "country_qid": "Q29"
      }
    },
    {
      "type": "Feature",
      "geometry": {
        "type": "Point",
        "coordinates": [
          -0.233333333,
          40.016666666
        ]
      },
      "properties": {
        "label": "Embalse de Sichar",
        "type": "Reservoir",
        "entity": "http://www.wikidata.org/entity/Q3373943",
        "country_qid": "Q29"
      }
    },
    {
      "type": "Feature",
      "geometry": {
        "type": "Point",
        "coordinates": [
          -2.73333333,
          40.51666667
        ]
      },
      "properties": {
        "label": "Mar de Castilla",
        "type": "Reservoir",
        "entity": "http://www.wikidata.org/entity/Q2235351",
        "country_qid": "Q29"
      }
    },
    {
      "type": "Feature",
      "geometry": {
        "type": "Point",
        "coordinates": [
          -5.735277777,
          36.652222222
        ]
      },
      "properties": {
        "label": "Guadalcacín Reservoir",
        "type": "Reservoir",
        "entity": "http://www.wikidata.org/entity/Q3374044",
        "country_qid": "Q29"
      }
    },
    {
      "type": "Feature",
      "geometry": {
        "type": "Point",
        "coordinates": [
          -0.313916,
          42.700796
        ]
      },
      "properties": {
        "label": "Búbal reservoir",
        "type": "Reservoir",
        "entity": "http://www.wikidata.org/entity/Q3377802",
        "country_qid": "Q29"
      }
    },
    {
      "type": "Feature",
      "geometry": {
        "type": "Point",
        "coordinates": [
          -5.6016561,
          39.7875303
        ]
      },
      "properties": {
        "label": "Valdecañas reservoir",
        "type": "Reservoir",
        "entity": "http://www.wikidata.org/entity/Q3379578",
        "country_qid": "Q29"
      }
    },
    {
      "type": "Feature",
      "geometry": {
        "type": "Point",
        "coordinates": [
          0.432664,
          41.2434
        ]
      },
      "properties": {
        "label": "Ribarroja Reservoir",
        "type": "Reservoir",
        "entity": "http://www.wikidata.org/entity/Q2050030",
        "country_qid": "Q29"
      }
    },
    {
      "type": "Feature",
      "geometry": {
        "type": "Point",
        "coordinates": [
          -3.828736111,
          40.725258333
        ]
      },
      "properties": {
        "label": "Santillana reservoir",
        "type": "Reservoir",
        "entity": "http://www.wikidata.org/entity/Q3373807",
        "country_qid": "Q29"
      }
    },
    {
      "type": "Feature",
      "geometry": {
        "type": "Point",
        "coordinates": [
          -5.7,
          39.81666667
        ]
      },
      "properties": {
        "label": "Arrocampo Reservoir",
        "type": "Reservoir",
        "entity": "http://www.wikidata.org/entity/Q3075812",
        "country_qid": "Q29"
      }
    },
    {
      "type": "Feature",
      "geometry": {
        "type": "Point",
        "coordinates": [
          -6.04138889,
          40.05694444
        ]
      },
      "properties": {
        "label": "Q3809380",
        "type": "Reservoir",
        "entity": "http://www.wikidata.org/entity/Q3809380",
        "country_qid": "Q29"
      }
    },
    {
      "type": "Feature",
      "geometry": {
        "type": "Point",
        "coordinates": [
          -1.825833333,
          37.737777777
        ]
      },
      "properties": {
        "label": "Puentes dam",
        "type": "Reservoir",
        "entity": "http://www.wikidata.org/entity/Q2391001",
        "country_qid": "Q29"
      }
    },
    {
      "type": "Feature",
      "geometry": {
        "type": "Point",
        "coordinates": [
          -6.30277778,
          43.32194444
        ]
      },
      "properties": {
        "label": "La Barca Dam",
        "type": "Reservoir",
        "entity": "http://www.wikidata.org/entity/Q3381178",
        "country_qid": "Q29"
      }
    },
    {
      "type": "Feature",
      "geometry": {
        "type": "Point",
        "coordinates": [
          -0.200544444,
          38.684652777
        ]
      },
      "properties": {
        "label": "Guadalest Reservoir",
        "type": "Reservoir",
        "entity": "http://www.wikidata.org/entity/Q3373919",
        "country_qid": "Q29"
      }
    },
    {
      "type": "Feature",
      "geometry": {
        "type": "Point",
        "coordinates": [
          -3.061863667,
          42.502157724
        ]
      },
      "properties": {
        "label": "Q2893285",
        "type": "Reservoir",
        "entity": "http://www.wikidata.org/entity/Q2893285",
        "country_qid": "Q29"
      }
    },
    {
      "type": "Feature",
      "geometry": {
        "type": "Point",
        "coordinates": [
          -7.7125,
          42.628888888
        ]
      },
      "properties": {
        "label": "Belesar reservoir",
        "type": "Reservoir",
        "entity": "http://www.wikidata.org/entity/Q3375700",
        "country_qid": "Q29"
      }
    },
    {
      "type": "Feature",
      "geometry": {
        "type": "Point",
        "coordinates": [
          -2.88777778,
          37.57222222
        ]
      },
      "properties": {
        "label": "Negratín Reservoir",
        "type": "Reservoir",
        "entity": "http://www.wikidata.org/entity/Q3752128",
        "country_qid": "Q29"
      }
    },
    {
      "type": "Feature",
      "geometry": {
        "type": "Point",
        "coordinates": [
          -3.55222222,
          36.92138889
        ]
      },
      "properties": {
        "label": "Béznar Reservoir",
        "type": "Reservoir",
        "entity": "http://www.wikidata.org/entity/Q3374703",
        "country_qid": "Q29"
      }
    },
    {
      "type": "Feature",
      "geometry": {
        "type": "Point",
        "coordinates": [
          -2.200515114,
          39.628899535
        ]
      },
      "properties": {
        "label": "Alarcón Reservoir",
        "type": "Reservoir",
        "entity": "http://www.wikidata.org/entity/Q3206248",
        "country_qid": "Q29"
      }
    },
    {
      "type": "Feature",
      "geometry": {
        "type": "Point",
        "coordinates": [
          -5.546691129,
          36.665491844
        ]
      },
      "properties": {
        "label": "Los Hurones Reservoir",
        "type": "Reservoir",
        "entity": "http://www.wikidata.org/entity/Q3374719",
        "country_qid": "Q29"
      }
    },
    {
      "type": "Feature",
      "geometry": {
        "type": "Point",
        "coordinates": [
          -1.504,
          39.544
        ]
      },
      "properties": {
        "label": "Embalse de Contreras",
        "type": "Reservoir",
        "entity": "http://www.wikidata.org/entity/Q3362150",
        "country_qid": "Q29"
      }
    },
    {
      "type": "Feature",
      "geometry": {
        "type": "Point",
        "coordinates": [
          -3.15527778,
          42.75944444
        ]
      },
      "properties": {
        "label": "Q3380095",
        "type": "Reservoir",
        "entity": "http://www.wikidata.org/entity/Q3380095",
        "country_qid": "Q29"
      }
    },
    {
      "type": "Feature",
      "geometry": {
        "type": "Point",
        "coordinates": [
          -2.64694444,
          37.86555556
        ]
      },
      "properties": {
        "label": "San Clemente Reservoir",
        "type": "Reservoir",
        "entity": "http://www.wikidata.org/entity/Q3374037",
        "country_qid": "Q29"
      }
    },
    {
      "type": "Feature",
      "geometry": {
        "type": "Point",
        "coordinates": [
          -0.355,
          38.815
        ]
      },
      "properties": {
        "label": "Embassament de Beniarrés",
        "type": "Reservoir",
        "entity": "http://www.wikidata.org/entity/Q3373949",
        "country_qid": "Q29"
      }
    },
    {
      "type": "Feature",
      "geometry": {
        "type": "Point",
        "coordinates": [
          0.232806,
          42.16413
        ]
      },
      "properties": {
        "label": "El Grado Reservoir",
        "type": "Reservoir",
        "entity": "http://www.wikidata.org/entity/Q3377792",
        "country_qid": "Q29"
      }
    },
    {
      "type": "Feature",
      "geometry": {
        "type": "Point",
        "coordinates": [
          1.193775,
          41.94037222
        ]
      },
      "properties": {
        "label": "Pantà de Rialb",
        "type": "Reservoir",
        "entity": "http://www.wikidata.org/entity/Q3376319",
        "country_qid": "Q29"
      }
    },
    {
      "type": "Feature",
      "geometry": {
        "type": "Point",
        "coordinates": [
          -3.02527778,
          36.8825
        ]
      },
      "properties": {
        "label": "Benínar Reservoir",
        "type": "Reservoir",
        "entity": "http://www.wikidata.org/entity/Q3375816",
        "country_qid": "Q29"
      }
    },
    {
      "type": "Feature",
      "geometry": {
        "type": "Point",
        "coordinates": [
          0.913803,
          41.2497
        ]
      },
      "properties": {
        "label": "Siurana reservoir",
        "type": "Reservoir",
        "entity": "http://www.wikidata.org/entity/Q3376614",
        "country_qid": "Q29"
      }
    },
    {
      "type": "Feature",
      "geometry": {
        "type": "Point",
        "coordinates": [
          -6.884722222,
          39.73
        ]
      },
      "properties": {
        "label": "Alcántara Reservoir",
        "type": "Reservoir",
        "entity": "http://www.wikidata.org/entity/Q1567490",
        "country_qid": "Q29"
      }
    },
    {
      "type": "Feature",
      "geometry": {
        "type": "Point",
        "coordinates": [
          -0.28972222,
          42.81333333
        ]
      },
      "properties": {
        "label": "Respomuso Reservoir",
        "type": "Reservoir",
        "entity": "http://www.wikidata.org/entity/Q3427764",
        "country_qid": "Q29"
      }
    },
    {
      "type": "Feature",
      "geometry": {
        "type": "Point",
        "coordinates": [
          0.58026667,
          41.88270833
        ]
      },
      "properties": {
        "label": "Pantà de Santa Anna",
        "type": "Reservoir",
        "entity": "http://www.wikidata.org/entity/Q3376327",
        "country_qid": "Q29"
      }
    },
    {
      "type": "Feature",
      "geometry": {
        "type": "Point",
        "coordinates": [
          -6.781666666,
          42.180555555
        ]
      },
      "properties": {
        "label": "Vega de Tera Reservoir",
        "type": "Reservoir",
        "entity": "http://www.wikidata.org/entity/Q3375680",
        "country_qid": "Q29"
      }
    },
    {
      "type": "Feature",
      "geometry": {
        "type": "Point",
        "coordinates": [
          -4.307327777,
          42.808105555
        ]
      },
      "properties": {
        "label": "Aguilar Reservoir",
        "type": "Reservoir",
        "entity": "http://www.wikidata.org/entity/Q11681437",
        "country_qid": "Q29"
      }
    },
    {
      "type": "Feature",
      "geometry": {
        "type": "Point",
        "coordinates": [
          -0.10416667,
          38.78640556
        ]
      },
      "properties": {
        "label": "Presa d'Isbert",
        "type": "Reservoir",
        "entity": "http://www.wikidata.org/entity/Q11942684",
        "country_qid": "Q29"
      }
    },
    {
      "type": "Feature",
      "geometry": {
        "type": "Point",
        "coordinates": [
          -3.649177777,
          40.772641666
        ]
      },
      "properties": {
        "label": "Embalse de El Vellón",
        "type": "Reservoir",
        "entity": "http://www.wikidata.org/entity/Q11681440",
        "country_qid": "Q29"
      }
    },
    {
      "type": "Feature",
      "geometry": {
        "type": "Point",
        "coordinates": [
          0.50963333,
          41.490425
        ]
      },
      "properties": {
        "label": "Utxesa reservoir",
        "type": "Reservoir",
        "entity": "http://www.wikidata.org/entity/Q11940020",
        "country_qid": "Q29"
      }
    },
    {
      "type": "Feature",
      "geometry": {
        "type": "Point",
        "coordinates": [
          1.302179,
          42.710234
        ]
      },
      "properties": {
        "label": "Certascan Lake",
        "type": "Reservoir",
        "entity": "http://www.wikidata.org/entity/Q11920872",
        "country_qid": "Q29"
      }
    },
    {
      "type": "Feature",
      "geometry": {
        "type": "Point",
        "coordinates": [
          1.08886944,
          42.65400278
        ]
      },
      "properties": {
        "label": "Pantà de Borén",
        "type": "Reservoir",
        "entity": "http://www.wikidata.org/entity/Q11940021",
        "country_qid": "Q29"
      }
    },
    {
      "type": "Feature",
      "geometry": {
        "type": "Point",
        "coordinates": [
          -8.60742,
          42.6047
        ]
      },
      "properties": {
        "label": "Q12387825",
        "type": "Reservoir",
        "entity": "http://www.wikidata.org/entity/Q12387825",
        "country_qid": "Q29"
      }
    },
    {
      "type": "Feature",
      "geometry": {
        "type": "Point",
        "coordinates": [
          -7.078466666,
          42.403811111
        ]
      },
      "properties": {
        "label": "Santiago Reservoir",
        "type": "Reservoir",
        "entity": "http://www.wikidata.org/entity/Q12387828",
        "country_qid": "Q29"
      }
    },
    {
      "type": "Feature",
      "geometry": {
        "type": "Point",
        "coordinates": [
          0.54718056,
          41.233075
        ]
      },
      "properties": {
        "label": "Reservoir of Flix",
        "type": "Reservoir",
        "entity": "http://www.wikidata.org/entity/Q11940028",
        "country_qid": "Q29"
      }
    },
    {
      "type": "Feature",
      "geometry": {
        "type": "Point",
        "coordinates": [
          -2.236944444,
          42.918333333
        ]
      },
      "properties": {
        "label": "Q12268624",
        "type": "Reservoir",
        "entity": "http://www.wikidata.org/entity/Q12268624",
        "country_qid": "Q29"
      }
    },
    {
      "type": "Feature",
      "geometry": {
        "type": "Point",
        "coordinates": [
          -1.09885278,
          39.72694167
        ]
      },
      "properties": {
        "label": "Embalse de Benagéber",
        "type": "Reservoir",
        "entity": "http://www.wikidata.org/entity/Q11681438",
        "country_qid": "Q29"
      }
    },
    {
      "type": "Feature",
      "geometry": {
        "type": "Point",
        "coordinates": [
          1.01822222,
          42.26333333
        ]
      },
      "properties": {
        "label": "Presa de Sossís",
        "type": "Reservoir",
        "entity": "http://www.wikidata.org/entity/Q11942686",
        "country_qid": "Q29"
      }
    },
    {
      "type": "Feature",
      "geometry": {
        "type": "Point",
        "coordinates": [
          1.58285,
          42.0998
        ]
      },
      "properties": {
        "label": "Llosa del Cavall",
        "type": "Reservoir",
        "entity": "http://www.wikidata.org/entity/Q11940037",
        "country_qid": "Q29"
      }
    },
    {
      "type": "Feature",
      "geometry": {
        "type": "Point",
        "coordinates": [
          -0.67960739,
          42.11439661
        ]
      },
      "properties": {
        "label": "reservoir of La Sotonera",
        "type": "Reservoir",
        "entity": "http://www.wikidata.org/entity/Q12221153",
        "country_qid": "Q29"
      }
    },
    {
      "type": "Feature",
      "geometry": {
        "type": "Point",
        "coordinates": [
          0.785052,
          41.446783
        ]
      },
      "properties": {
        "label": "Embassament de l'Albagés",
        "type": "Reservoir",
        "entity": "http://www.wikidata.org/entity/Q11919118",
        "country_qid": "Q29"
      }
    },
    {
      "type": "Feature",
      "geometry": {
        "type": "Point",
        "coordinates": [
          -2.4784746,
          43.0228154
        ]
      },
      "properties": {
        "label": "Urkulu reservoir",
        "type": "Reservoir",
        "entity": "http://www.wikidata.org/entity/Q12268686",
        "country_qid": "Q29"
      }
    },
    {
      "type": "Feature",
      "geometry": {
        "type": "Point",
        "coordinates": [
          1.2359,
          42.6734
        ]
      },
      "properties": {
        "label": "Pantà de Graus",
        "type": "Reservoir",
        "entity": "http://www.wikidata.org/entity/Q11940027",
        "country_qid": "Q29"
      }
    },
    {
      "type": "Feature",
      "geometry": {
        "type": "Point",
        "coordinates": [
          0.760375,
          42.58803889
        ]
      },
      "properties": {
        "label": "Baserca reservoir",
        "type": "Reservoir",
        "entity": "http://www.wikidata.org/entity/Q11940022",
        "country_qid": "Q29"
      }
    },
    {
      "type": "Feature",
      "geometry": {
        "type": "Point",
        "coordinates": [
          0.886862,
          41.90806
        ]
      },
      "properties": {
        "label": "Pantà de Camarasa",
        "type": "Reservoir",
        "entity": "http://www.wikidata.org/entity/Q11940026",
        "country_qid": "Q29"
      }
    },
    {
      "type": "Feature",
      "geometry": {
        "type": "Point",
        "coordinates": [
          -1.208888888,
          40.363333333
        ]
      },
      "properties": {
        "label": "Arquillo de San Blas reservoir",
        "type": "Reservoir",
        "entity": "http://www.wikidata.org/entity/Q11681446",
        "country_qid": "Q29"
      }
    },
    {
      "type": "Feature",
      "geometry": {
        "type": "Point",
        "coordinates": [
          2.09777778,
          41.41486111
        ]
      },
      "properties": {
        "label": "Pantà de Vallvidrera",
        "type": "Reservoir",
        "entity": "http://www.wikidata.org/entity/Q11681444",
        "country_qid": "Q29"
      }
    },
    {
      "type": "Feature",
      "geometry": {
        "type": "Point",
        "coordinates": [
          -1.78983,
          43.21568
        ]
      },
      "properties": {
        "label": "Q12254224",
        "type": "Reservoir",
        "entity": "http://www.wikidata.org/entity/Q12254224",
        "country_qid": "Q29"
      }
    },
    {
      "type": "Feature",
      "geometry": {
        "type": "Point",
        "coordinates": [
          0.856305,
          42.589937
        ]
      },
      "properties": {
        "label": "Estany de Cavallers",
        "type": "Reservoir",
        "entity": "http://www.wikidata.org/entity/Q11940025",
        "country_qid": "Q29"
      }
    },
    {
      "type": "Feature",
      "geometry": {
        "type": "Point",
        "coordinates": [
          -3.33673437,
          42.252982866
        ]
      },
      "properties": {
        "label": "Arlanzón Dam",
        "type": "Reservoir",
        "entity": "http://www.wikidata.org/entity/Q11681445",
        "country_qid": "Q29"
      }
    },
    {
      "type": "Feature",
      "geometry": {
        "type": "Point",
        "coordinates": [
          1.65116,
          41.2556
        ]
      },
      "properties": {
        "label": "Pantà de Foix",
        "type": "Reservoir",
        "entity": "http://www.wikidata.org/entity/Q11697617",
        "country_qid": "Q29"
      }
    },
    {
      "type": "Feature",
      "geometry": {
        "type": "Point",
        "coordinates": [
          2.470194444,
          41.768305555
        ]
      },
      "properties": {
        "label": "Santa Fe Reservoir",
        "type": "Reservoir",
        "entity": "http://www.wikidata.org/entity/Q11940034",
        "country_qid": "Q29"
      }
    },
    {
      "type": "Feature",
      "geometry": {
        "type": "Point",
        "coordinates": [
          0.84011,
          41.85908
        ]
      },
      "properties": {
        "label": "Sant Llorenç de Montgai reservoir",
        "type": "Reservoir",
        "entity": "http://www.wikidata.org/entity/Q11940032",
        "country_qid": "Q29"
      }
    },
    {
      "type": "Feature",
      "geometry": {
        "type": "Point",
        "coordinates": [
          1.84388889,
          41.74833333
        ]
      },
      "properties": {
        "label": "Parc de l'Agulla",
        "type": "Reservoir",
        "entity": "http://www.wikidata.org/entity/Q11697875",
        "country_qid": "Q29"
      }
    },
    {
      "type": "Feature",
      "geometry": {
        "type": "Point",
        "coordinates": [
          -4.52888889,
          42.86666667
        ]
      },
      "properties": {
        "label": "Reservoir of Ruesga",
        "type": "Reservoir",
        "entity": "http://www.wikidata.org/entity/Q11681439",
        "country_qid": "Q29"
      }
    },
    {
      "type": "Feature",
      "geometry": {
        "type": "Point",
        "coordinates": [
          -2.50953913,
          43.16131543
        ]
      },
      "properties": {
        "label": "Aixola Reservoir",
        "type": "Reservoir",
        "entity": "http://www.wikidata.org/entity/Q11700359",
        "country_qid": "Q29"
      }
    },
    {
      "type": "Feature",
      "geometry": {
        "type": "Point",
        "coordinates": [
          -1.7617008,
          43.2632913
        ]
      },
      "properties": {
        "label": "Q12266842",
        "type": "Reservoir",
        "entity": "http://www.wikidata.org/entity/Q12266842",
        "country_qid": "Q29"
      }
    },
    {
      "type": "Feature",
      "geometry": {
        "type": "Point",
        "coordinates": [
          -5.53777778,
          38.98583333
        ]
      },
      "properties": {
        "label": "embalse de Orellana",
        "type": "Reservoir",
        "entity": "http://www.wikidata.org/entity/Q11681443",
        "country_qid": "Q29"
      }
    },
    {
      "type": "Feature",
      "geometry": {
        "type": "Point",
        "coordinates": [
          -0.357322,
          42.743046
        ]
      },
      "properties": {
        "label": "Escarra Reservoir",
        "type": "Reservoir",
        "entity": "http://www.wikidata.org/entity/Q13048933",
        "country_qid": "Q29"
      }
    },
    {
      "type": "Feature",
      "geometry": {
        "type": "Point",
        "coordinates": [
          2.30582,
          41.8308
        ]
      },
      "properties": {
        "label": "Seva reservoir",
        "type": "Reservoir",
        "entity": "http://www.wikidata.org/entity/Q11940033",
        "country_qid": "Q29"
      }
    },
    {
      "type": "Feature",
      "geometry": {
        "type": "Point",
        "coordinates": [
          2.99111944,
          42.07685
        ]
      },
      "properties": {
        "label": "Resclosa de Colomers",
        "type": "Reservoir",
        "entity": "http://www.wikidata.org/entity/Q11945295",
        "country_qid": "Q29"
      }
    },
    {
      "type": "Feature",
      "geometry": {
        "type": "Point",
        "coordinates": [
          2.01738861,
          41.76775639
        ]
      },
      "properties": {
        "label": "Resclosa del Pla de Cardona",
        "type": "Reservoir",
        "entity": "http://www.wikidata.org/entity/Q11945298",
        "country_qid": "Q29"
      }
    },
    {
      "type": "Feature",
      "geometry": {
        "type": "Point",
        "coordinates": [
          2.00892,
          41.7701
        ]
      },
      "properties": {
        "label": "Resclosa dels Campassos",
        "type": "Reservoir",
        "entity": "http://www.wikidata.org/entity/Q11945299",
        "country_qid": "Q29"
      }
    },
    {
      "type": "Feature",
      "geometry": {
        "type": "Point",
        "coordinates": [
          -4.221152777,
          40.618672222
        ]
      },
      "properties": {
        "label": "La Aceña reservoir",
        "type": "Reservoir",
        "entity": "http://www.wikidata.org/entity/Q11681441",
        "country_qid": "Q29"
      }
    },
    {
      "type": "Feature",
      "geometry": {
        "type": "Point",
        "coordinates": [
          -1.73018,
          43.1508
        ]
      },
      "properties": {
        "label": "Arritzulegi reservoir",
        "type": "Reservoir",
        "entity": "http://www.wikidata.org/entity/Q12263379",
        "country_qid": "Q29"
      }
    },
    {
      "type": "Feature",
      "geometry": {
        "type": "Point",
        "coordinates": [
          -0.328145,
          42.792128
        ]
      },
      "properties": {
        "label": "La Sarra reservoir",
        "type": "Reservoir",
        "entity": "http://www.wikidata.org/entity/Q13048936",
        "country_qid": "Q29"
      }
    },
    {
      "type": "Feature",
      "geometry": {
        "type": "Point",
        "coordinates": [
          -3.48416667,
          36.87638889
        ]
      },
      "properties": {
        "label": "Rules Reservoir",
        "type": "Reservoir",
        "entity": "http://www.wikidata.org/entity/Q11998598",
        "country_qid": "Q29"
      }
    },
    {
      "type": "Feature",
      "geometry": {
        "type": "Point",
        "coordinates": [
          3.12515278,
          42.42582222
        ]
      },
      "properties": {
        "label": "Pantà de Portbou",
        "type": "Reservoir",
        "entity": "http://www.wikidata.org/entity/Q11940031",
        "country_qid": "Q29"
      }
    },
    {
      "type": "Feature",
      "geometry": {
        "type": "Point",
        "coordinates": [
          -2.225027777,
          43.126388888
        ]
      },
      "properties": {
        "label": "Q12259336",
        "type": "Reservoir",
        "entity": "http://www.wikidata.org/entity/Q12259336",
        "country_qid": "Q29"
      }
    },
    {
      "type": "Feature",
      "geometry": {
        "type": "Point",
        "coordinates": [
          0.75255278,
          42.44775833
        ]
      },
      "properties": {
        "label": "Pantà de Llesp",
        "type": "Reservoir",
        "entity": "http://www.wikidata.org/entity/Q11940029",
        "country_qid": "Q29"
      }
    },
    {
      "type": "Feature",
      "geometry": {
        "type": "Point",
        "coordinates": [
          -7.173288888,
          42.390469444
        ]
      },
      "properties": {
        "label": "Saint Martin Reservoir",
        "type": "Reservoir",
        "entity": "http://www.wikidata.org/entity/Q12387827",
        "country_qid": "Q29"
      }
    },
    {
      "type": "Feature",
      "geometry": {
        "type": "Point",
        "coordinates": [
          -1.875277777,
          43.231944444
        ]
      },
      "properties": {
        "label": "Añarbe urtegia",
        "type": "Reservoir",
        "entity": "http://www.wikidata.org/entity/Q12254610",
        "country_qid": "Q29"
      }
    },
    {
      "type": "Feature",
      "geometry": {
        "type": "Point",
        "coordinates": [
          -7.724,
          42.465425
        ]
      },
      "properties": {
        "label": "Os Peares reservoir",
        "type": "Reservoir",
        "entity": "http://www.wikidata.org/entity/Q11986800",
        "country_qid": "Q29"
      }
    },
    {
      "type": "Feature",
      "geometry": {
        "type": "Point",
        "coordinates": [
          -8.085040092,
          43.615898132
        ]
      },
      "properties": {
        "label": "Q12387826",
        "type": "Reservoir",
        "entity": "http://www.wikidata.org/entity/Q12387826",
        "country_qid": "Q29"
      }
    },
    {
      "type": "Feature",
      "geometry": {
        "type": "Point",
        "coordinates": [
          -1.946983333,
          42.719327777
        ]
      },
      "properties": {
        "label": "Alloz reservoir",
        "type": "Reservoir",
        "entity": "http://www.wikidata.org/entity/Q12253209",
        "country_qid": "Q29"
      }
    },
    {
      "type": "Feature",
      "geometry": {
        "type": "Point",
        "coordinates": [
          1.14229,
          42.5759
        ]
      },
      "properties": {
        "label": "Pantà de la Torrassa",
        "type": "Reservoir",
        "entity": "http://www.wikidata.org/entity/Q11940038",
        "country_qid": "Q29"
      }
    },
    {
      "type": "Feature",
      "geometry": {
        "type": "Point",
        "coordinates": [
          -2.113428,
          42.977431
        ]
      },
      "properties": {
        "label": "Lareo reservoir",
        "type": "Reservoir",
        "entity": "http://www.wikidata.org/entity/Q12261898",
        "country_qid": "Q29"
      }
    },
    {
      "type": "Feature",
      "geometry": {
        "type": "Point",
        "coordinates": [
          2.34201944,
          41.719975
        ]
      },
      "properties": {
        "label": "Pantà de Vallfornès",
        "type": "Reservoir",
        "entity": "http://www.wikidata.org/entity/Q11940035",
        "country_qid": "Q29"
      }
    },
    {
      "type": "Feature",
      "geometry": {
        "type": "Point",
        "coordinates": [
          -1.51416667,
          42.97583333
        ]
      },
      "properties": {
        "label": "Embalse de Eugui",
        "type": "Reservoir",
        "entity": "http://www.wikidata.org/entity/Q12257397",
        "country_qid": "Q29"
      }
    },
    {
      "type": "Feature",
      "geometry": {
        "type": "Point",
        "coordinates": [
          1.87835,
          42.12193333
        ]
      },
      "properties": {
        "label": "Pantà de la Baells",
        "type": "Reservoir",
        "entity": "http://www.wikidata.org/entity/Q11940039",
        "country_qid": "Q29"
      }
    },
    {
      "type": "Feature",
      "geometry": {
        "type": "Point",
        "coordinates": [
          -2.12472222,
          43.07944444
        ]
      },
      "properties": {
        "label": "Q12259384",
        "type": "Reservoir",
        "entity": "http://www.wikidata.org/entity/Q12259384",
        "country_qid": "Q29"
      }
    },
    {
      "type": "Feature",
      "geometry": {
        "type": "Point",
        "coordinates": [
          2.11139,
          41.4514
        ]
      },
      "properties": {
        "label": "Pantà de Can Borrell",
        "type": "Reservoir",
        "entity": "http://www.wikidata.org/entity/Q11940024",
        "country_qid": "Q29"
      }
    },
    {
      "type": "Feature",
      "geometry": {
        "type": "Point",
        "coordinates": [
          0.99148889,
          42.50036389
        ]
      },
      "properties": {
        "label": "Pantà de Sallente",
        "type": "Reservoir",
        "entity": "http://www.wikidata.org/entity/Q11940030",
        "country_qid": "Q29"
      }
    },
    {
      "type": "Feature",
      "geometry": {
        "type": "Point",
        "coordinates": [
          0.98503056,
          42.59898611
        ]
      },
      "properties": {
        "label": "Estany Gran d'Amitges",
        "type": "Reservoir",
        "entity": "http://www.wikidata.org/entity/Q11920851",
        "country_qid": "Q29"
      }
    },
    {
      "type": "Feature",
      "geometry": {
        "type": "Point",
        "coordinates": [
          2.02931944,
          41.770175
        ]
      },
      "properties": {
        "label": "Resclosa de Pumanyà",
        "type": "Reservoir",
        "entity": "http://www.wikidata.org/entity/Q11945294",
        "country_qid": "Q29"
      }
    },
    {
      "type": "Feature",
      "geometry": {
        "type": "Point",
        "coordinates": [
          -0.927805555,
          39.237722222
        ]
      },
      "properties": {
        "label": "Cortes-La Muela Reservoir",
        "type": "Reservoir",
        "entity": "http://www.wikidata.org/entity/Q11681442",
        "country_qid": "Q29"
      }
    },
    {
      "type": "Feature",
      "geometry": {
        "type": "Point",
        "coordinates": [
          -0.898383,
          39.2733
        ]
      },
      "properties": {
        "label": "El Naranjero Dam",
        "type": "Reservoir",
        "entity": "http://www.wikidata.org/entity/Q6429116",
        "country_qid": "Q29"
      }
    },
    {
      "type": "Feature",
      "geometry": {
        "type": "Point",
        "coordinates": [
          -2.730788888,
          40.519655555
        ]
      },
      "properties": {
        "label": "Entrepeñas Reservoir",
        "type": "Reservoir",
        "entity": "http://www.wikidata.org/entity/Q8775330",
        "country_qid": "Q29"
      }
    },
    {
      "type": "Feature",
      "geometry": {
        "type": "Point",
        "coordinates": [
          -3.45166667,
          40.91305556
        ]
      },
      "properties": {
        "label": "Azud de La Parra",
        "type": "Reservoir",
        "entity": "http://www.wikidata.org/entity/Q16489315",
        "country_qid": "Q29"
      }
    },
    {
      "type": "Feature",
      "geometry": {
        "type": "Point",
        "coordinates": [
          -3.800238888,
          40.937175
        ]
      },
      "properties": {
        "label": "Pinilla Reservoir",
        "type": "Reservoir",
        "entity": "http://www.wikidata.org/entity/Q8775372",
        "country_qid": "Q29"
      }
    },
    {
      "type": "Feature",
      "geometry": {
        "type": "Point",
        "coordinates": [
          -5.782665031,
          36.769587575
        ]
      },
      "properties": {
        "label": "Cola del Embalse de Arcos",
        "type": "Reservoir",
        "entity": "http://www.wikidata.org/entity/Q6061043",
        "country_qid": "Q29"
      }
    },
    {
      "type": "Feature",
      "geometry": {
        "type": "Point",
        "coordinates": [
          -0.265130555,
          38.535172222
        ]
      },
      "properties": {
        "label": "Embalse del Amadorio",
        "type": "Reservoir",
        "entity": "http://www.wikidata.org/entity/Q5830599",
        "country_qid": "Q29"
      }
    },
    {
      "type": "Feature",
      "geometry": {
        "type": "Point",
        "coordinates": [
          -4.322694444,
          40.549205555
        ]
      },
      "properties": {
        "label": "Q5830555",
        "type": "Reservoir",
        "entity": "http://www.wikidata.org/entity/Q5830555",
        "country_qid": "Q29"
      }
    },
    {
      "type": "Feature",
      "geometry": {
        "type": "Point",
        "coordinates": [
          -0.524569,
          39.8897
        ]
      },
      "properties": {
        "label": "Embalse del Regajo",
        "type": "Reservoir",
        "entity": "http://www.wikidata.org/entity/Q18006197",
        "country_qid": "Q29"
      }
    },
    {
      "type": "Feature",
      "geometry": {
        "type": "Point",
        "coordinates": [
          -4.464138888,
          40.681833333
        ]
      },
      "properties": {
        "label": "Embalse de Serones",
        "type": "Reservoir",
        "entity": "http://www.wikidata.org/entity/Q5830570",
        "country_qid": "Q29"
      }
    },
    {
      "type": "Feature",
      "geometry": {
        "type": "Point",
        "coordinates": [
          -6.27944444,
          37.79777778
        ]
      },
      "properties": {
        "label": "Zufre Reservoir",
        "type": "Reservoir",
        "entity": "http://www.wikidata.org/entity/Q5830593",
        "country_qid": "Q29"
      }
    },
    {
      "type": "Feature",
      "geometry": {
        "type": "Point",
        "coordinates": [
          0.61222222,
          41.97861111
        ]
      },
      "properties": {
        "label": "Canelles Reservoir",
        "type": "Reservoir",
        "entity": "http://www.wikidata.org/entity/Q1033116",
        "country_qid": "Q29"
      }
    },
    {
      "type": "Feature",
      "geometry": {
        "type": "Point",
        "coordinates": [
          -6.433972222,
          42.836333333
        ]
      },
      "properties": {
        "label": "Q8775362",
        "type": "Reservoir",
        "entity": "http://www.wikidata.org/entity/Q8775362",
        "country_qid": "Q29"
      }
    },
    {
      "type": "Feature",
      "geometry": {
        "type": "Point",
        "coordinates": [
          -5.280475,
          42.945044444
        ]
      },
      "properties": {
        "label": "Reservoir of Porma",
        "type": "Reservoir",
        "entity": "http://www.wikidata.org/entity/Q8775421",
        "country_qid": "Q29"
      }
    },
    {
      "type": "Feature",
      "geometry": {
        "type": "Point",
        "coordinates": [
          0.22642136,
          40.68324158
        ]
      },
      "properties": {
        "label": "Ulldecona Reservoir",
        "type": "Reservoir",
        "entity": "http://www.wikidata.org/entity/Q202052",
        "country_qid": "Q29"
      }
    },
    {
      "type": "Feature",
      "geometry": {
        "type": "Point",
        "coordinates": [
          -5.27333333,
          41.40388889
        ]
      },
      "properties": {
        "label": "Q5830562",
        "type": "Reservoir",
        "entity": "http://www.wikidata.org/entity/Q5830562",
        "country_qid": "Q29"
      }
    },
    {
      "type": "Feature",
      "geometry": {
        "type": "Point",
        "coordinates": [
          -3.299166666,
          41.004722222
        ]
      },
      "properties": {
        "label": "El Vado Reservoir",
        "type": "Reservoir",
        "entity": "http://www.wikidata.org/entity/Q8775322",
        "country_qid": "Q29"
      }
    },
    {
      "type": "Feature",
      "geometry": {
        "type": "Point",
        "coordinates": [
          2.07623,
          41.7372
        ]
      },
      "properties": {
        "label": "Pantà del Marcet",
        "type": "Reservoir",
        "entity": "http://www.wikidata.org/entity/Q18005397",
        "country_qid": "Q29"
      }
    },
    {
      "type": "Feature",
      "geometry": {
        "type": "Point",
        "coordinates": [
          0.997896,
          42.509298
        ]
      },
      "properties": {
        "label": "Cadbella Lakes",
        "type": "Reservoir",
        "entity": "http://www.wikidata.org/entity/Q17603303",
        "country_qid": "Q29"
      }
    },
    {
      "type": "Feature",
      "geometry": {
        "type": "Point",
        "coordinates": [
          -1.7408091,
          38.165942959
        ]
      },
      "properties": {
        "label": "Q5830602",
        "type": "Reservoir",
        "entity": "http://www.wikidata.org/entity/Q5830602",
        "country_qid": "Q29"
      }
    },
    {
      "type": "Feature",
      "geometry": {
        "type": "Point",
        "coordinates": [
          1.84198,
          42.0295
        ]
      },
      "properties": {
        "label": "Pantà de Casserres",
        "type": "Reservoir",
        "entity": "http://www.wikidata.org/entity/Q17595758",
        "country_qid": "Q29"
      }
    },
    {
      "type": "Feature",
      "geometry": {
        "type": "Point",
        "coordinates": [
          2.60118889,
          41.98443056
        ]
      },
      "properties": {
        "label": "Pantà del Pasteral",
        "type": "Reservoir",
        "entity": "http://www.wikidata.org/entity/Q7131955",
        "country_qid": "Q29"
      }
    },
    {
      "type": "Feature",
      "geometry": {
        "type": "Point",
        "coordinates": [
          -15.66694444,
          27.90555556
        ]
      },
      "properties": {
        "label": "Presa de Soria",
        "type": "Reservoir",
        "entity": "http://www.wikidata.org/entity/Q8775388",
        "country_qid": "Q29"
      }
    },
    {
      "type": "Feature",
      "geometry": {
        "type": "Point",
        "coordinates": [
          -4.092933333,
          40.861597222
        ]
      },
      "properties": {
        "label": "reservoir of Puente Alta",
        "type": "Reservoir",
        "entity": "http://www.wikidata.org/entity/Q5830550",
        "country_qid": "Q29"
      }
    },
    {
      "type": "Feature",
      "geometry": {
        "type": "Point",
        "coordinates": [
          -0.86694444,
          39.34472222
        ]
      },
      "properties": {
        "label": "Forata Reservoir",
        "type": "Reservoir",
        "entity": "http://www.wikidata.org/entity/Q8775337",
        "country_qid": "Q29"
      }
    },
    {
      "type": "Feature",
      "geometry": {
        "type": "Point",
        "coordinates": [
          -0.820763888,
          40.254027777
        ]
      },
      "properties": {
        "label": "Embalse Valbona Valbona",
        "type": "Reservoir",
        "entity": "http://www.wikidata.org/entity/Q5830579",
        "country_qid": "Q29"
      }
    },
    {
      "type": "Feature",
      "geometry": {
        "type": "Point",
        "coordinates": [
          -2.897,
          41.3456
        ]
      },
      "properties": {
        "label": "Q8775407",
        "type": "Reservoir",
        "entity": "http://www.wikidata.org/entity/Q8775407",
        "country_qid": "Q29"
      }
    },
    {
      "type": "Feature",
      "geometry": {
        "type": "Point",
        "coordinates": [
          -1.31861111,
          41.81388889
        ]
      },
      "properties": {
        "label": "La Loteta reservoir",
        "type": "Reservoir",
        "entity": "http://www.wikidata.org/entity/Q16561603",
        "country_qid": "Q29"
      }
    },
    {
      "type": "Feature",
      "geometry": {
        "type": "Point",
        "coordinates": [
          -1.429386111,
          41.468338888
        ]
      },
      "properties": {
        "label": "Mularroya reservoir",
        "type": "Reservoir",
        "entity": "http://www.wikidata.org/entity/Q9055113",
        "country_qid": "Q29"
      }
    },
    {
      "type": "Feature",
      "geometry": {
        "type": "Point",
        "coordinates": [
          2.15308,
          42.3938
        ]
      },
      "properties": {
        "label": "Embassament de Núria",
        "type": "Reservoir",
        "entity": "http://www.wikidata.org/entity/Q18005156",
        "country_qid": "Q29"
      }
    },
    {
      "type": "Feature",
      "geometry": {
        "type": "Point",
        "coordinates": [
          -5.559272222,
          40.512825
        ]
      },
      "properties": {
        "label": "San Fernando reservoir",
        "type": "Reservoir",
        "entity": "http://www.wikidata.org/entity/Q6085368",
        "country_qid": "Q29"
      }
    },
    {
      "type": "Feature",
      "geometry": {
        "type": "Point",
        "coordinates": [
          2.0716,
          41.9966
        ]
      },
      "properties": {
        "label": "Pantà de la Gavarresa",
        "type": "Reservoir",
        "entity": "http://www.wikidata.org/entity/Q18005394",
        "country_qid": "Q29"
      }
    },
    {
      "type": "Feature",
      "geometry": {
        "type": "Point",
        "coordinates": [
          0.736747,
          41.2297
        ]
      },
      "properties": {
        "label": "Pantà de la Vilella Baixa",
        "type": "Reservoir",
        "entity": "http://www.wikidata.org/entity/Q18005396",
        "country_qid": "Q29"
      }
    },
    {
      "type": "Feature",
      "geometry": {
        "type": "Point",
        "coordinates": [
          -5.95,
          38.0
        ]
      },
      "properties": {
        "label": "Embalse de El Pintado",
        "type": "Reservoir",
        "entity": "http://www.wikidata.org/entity/Q6059841",
        "country_qid": "Q29"
      }
    },
    {
      "type": "Feature",
      "geometry": {
        "type": "Point",
        "coordinates": [
          -4.04694444,
          40.53638889
        ]
      },
      "properties": {
        "label": "Valmayor Reservoir",
        "type": "Reservoir",
        "entity": "http://www.wikidata.org/entity/Q8775397",
        "country_qid": "Q29"
      }
    },
    {
      "type": "Feature",
      "geometry": {
        "type": "Point",
        "coordinates": [
          2.52722,
          41.9792
        ]
      },
      "properties": {
        "label": "Susqueda Reservoir",
        "type": "Reservoir",
        "entity": "http://www.wikidata.org/entity/Q7131953",
        "country_qid": "Q29"
      }
    },
    {
      "type": "Feature",
      "geometry": {
        "type": "Point",
        "coordinates": [
          -5.87833,
          43.5467
        ]
      },
      "properties": {
        "label": "Embalse de Trasona",
        "type": "Reservoir",
        "entity": "http://www.wikidata.org/entity/Q4266782",
        "country_qid": "Q29"
      }
    },
    {
      "type": "Feature",
      "geometry": {
        "type": "Point",
        "coordinates": [
          -5.310516666,
          40.100133333
        ]
      },
      "properties": {
        "label": "Rosarito Reservoir",
        "type": "Reservoir",
        "entity": "http://www.wikidata.org/entity/Q10929672",
        "country_qid": "Q29"
      }
    },
    {
      "type": "Feature",
      "geometry": {
        "type": "Point",
        "coordinates": [
          -0.66,
          39.14555556
        ]
      },
      "properties": {
        "label": "Tous Reservoir",
        "type": "Reservoir",
        "entity": "http://www.wikidata.org/entity/Q382374",
        "country_qid": "Q29"
      }
    },
    {
      "type": "Feature",
      "geometry": {
        "type": "Point",
        "coordinates": [
          0.149002777,
          41.395025
        ]
      },
      "properties": {
        "label": "Reservoir of Mequinenza",
        "type": "Reservoir",
        "entity": "http://www.wikidata.org/entity/Q1334951",
        "country_qid": "Q29"
      }
    },
    {
      "type": "Feature",
      "geometry": {
        "type": "Point",
        "coordinates": [
          -7.268658333,
          37.376763888
        ]
      },
      "properties": {
        "label": "Q5830613",
        "type": "Reservoir",
        "entity": "http://www.wikidata.org/entity/Q5830613",
        "country_qid": "Q29"
      }
    },
    {
      "type": "Feature",
      "geometry": {
        "type": "Point",
        "coordinates": [
          -4.49916667,
          42.91638889
        ]
      },
      "properties": {
        "label": "Requejada Reservoir",
        "type": "Reservoir",
        "entity": "http://www.wikidata.org/entity/Q8775378",
        "country_qid": "Q29"
      }
    },
    {
      "type": "Feature",
      "geometry": {
        "type": "Point",
        "coordinates": [
          -5.855093294,
          43.561817548
        ]
      },
      "properties": {
        "label": "Q6429131",
        "type": "Reservoir",
        "entity": "http://www.wikidata.org/entity/Q6429131",
        "country_qid": "Q29"
      }
    },
    {
      "type": "Feature",
      "geometry": {
        "type": "Point",
        "coordinates": [
          -4.122062,
          40.669149
        ]
      },
      "properties": {
        "label": "La Jarosa Reservoir",
        "type": "Reservoir",
        "entity": "http://www.wikidata.org/entity/Q1329216",
        "country_qid": "Q29"
      }
    },
    {
      "type": "Feature",
      "geometry": {
        "type": "Point",
        "coordinates": [
          1.296422222,
          42.098969444
        ]
      },
      "properties": {
        "label": "Oliana Reservoir",
        "type": "Reservoir",
        "entity": "http://www.wikidata.org/entity/Q18005390",
        "country_qid": "Q29"
      }
    },
    {
      "type": "Feature",
      "geometry": {
        "type": "Point",
        "coordinates": [
          -0.56468996,
          38.503096774
        ]
      },
      "properties": {
        "label": "Tibi Reservoir",
        "type": "Reservoir",
        "entity": "http://www.wikidata.org/entity/Q201592",
        "country_qid": "Q29"
      }
    },
    {
      "type": "Feature",
      "geometry": {
        "type": "Point",
        "coordinates": [
          -5.965838292,
          43.378743245
        ]
      },
      "properties": {
        "label": "Q5830548",
        "type": "Reservoir",
        "entity": "http://www.wikidata.org/entity/Q5830548",
        "country_qid": "Q29"
      }
    },
    {
      "type": "Feature",
      "geometry": {
        "type": "Point",
        "coordinates": [
          -8.297763888,
          43.282333333
        ]
      },
      "properties": {
        "label": "Encoro de Abegondo-Cecebre",
        "type": "Reservoir",
        "entity": "http://www.wikidata.org/entity/Q8775277",
        "country_qid": "Q29"
      }
    },
    {
      "type": "Feature",
      "geometry": {
        "type": "Point",
        "coordinates": [
          -2.61,
          42.08611111
        ]
      },
      "properties": {
        "label": "Pajares Reservoir",
        "type": "Reservoir",
        "entity": "http://www.wikidata.org/entity/Q8775368",
        "country_qid": "Q29"
      }
    },
    {
      "type": "Feature",
      "geometry": {
        "type": "Point",
        "coordinates": [
          1.25128,
          42.637
        ]
      },
      "properties": {
        "label": "Pantà de Tavascan",
        "type": "Reservoir",
        "entity": "http://www.wikidata.org/entity/Q18008289",
        "country_qid": "Q29"
      }
    },
    {
      "type": "Feature",
      "geometry": {
        "type": "Point",
        "coordinates": [
          -6.563108333,
          37.437477777
        ]
      },
      "properties": {
        "label": "Embalse de Corumbel Bajo",
        "type": "Reservoir",
        "entity": "http://www.wikidata.org/entity/Q5830610",
        "country_qid": "Q29"
      }
    },
    {
      "type": "Feature",
      "geometry": {
        "type": "Point",
        "coordinates": [
          2.788897,
          39.784036
        ]
      },
      "properties": {
        "label": "Cúber",
        "type": "Reservoir",
        "entity": "http://www.wikidata.org/entity/Q8353256",
        "country_qid": "Q29"
      }
    },
    {
      "type": "Feature",
      "geometry": {
        "type": "Point",
        "coordinates": [
          2.11411,
          42.0553
        ]
      },
      "properties": {
        "label": "Pantà de la Fusta",
        "type": "Reservoir",
        "entity": "http://www.wikidata.org/entity/Q17605267",
        "country_qid": "Q29"
      }
    },
    {
      "type": "Feature",
      "geometry": {
        "type": "Point",
        "coordinates": [
          -6.275,
          41.99305556
        ]
      },
      "properties": {
        "label": "Valparaíso Dam",
        "type": "Reservoir",
        "entity": "http://www.wikidata.org/entity/Q8775401",
        "country_qid": "Q29"
      }
    },
    {
      "type": "Feature",
      "geometry": {
        "type": "Point",
        "coordinates": [
          -4.509372222,
          40.425108333
        ]
      },
      "properties": {
        "label": "Charco del Cura Reservoir",
        "type": "Reservoir",
        "entity": "http://www.wikidata.org/entity/Q5830608",
        "country_qid": "Q29"
      }
    },
    {
      "type": "Feature",
      "geometry": {
        "type": "Point",
        "coordinates": [
          -6.72861111,
          43.47833333
        ]
      },
      "properties": {
        "label": "Arbón dam",
        "type": "Reservoir",
        "entity": "http://www.wikidata.org/entity/Q966940",
        "country_qid": "Q29"
      }
    },
    {
      "type": "Feature",
      "geometry": {
        "type": "Point",
        "coordinates": [
          -2.705243562,
          40.330085612
        ]
      },
      "properties": {
        "label": "Buendía Reservoir",
        "type": "Reservoir",
        "entity": "http://www.wikidata.org/entity/Q8775297",
        "country_qid": "Q29"
      }
    },
    {
      "type": "Feature",
      "geometry": {
        "type": "Point",
        "coordinates": [
          -5.765861111,
          42.927805555
        ]
      },
      "properties": {
        "label": "Casares Reservoir",
        "type": "Reservoir",
        "entity": "http://www.wikidata.org/entity/Q5830604",
        "country_qid": "Q29"
      }
    },
    {
      "type": "Feature",
      "geometry": {
        "type": "Point",
        "coordinates": [
          -4.23677222,
          37.64488889
        ]
      },
      "properties": {
        "label": "Vadomojón reservoir",
        "type": "Reservoir",
        "entity": "http://www.wikidata.org/entity/Q5830576",
        "country_qid": "Q29"
      }
    },
    {
      "type": "Feature",
      "geometry": {
        "type": "Point",
        "coordinates": [
          1.60519444,
          41.96291667
        ]
      },
      "properties": {
        "label": "Pantà de Sant Ponç",
        "type": "Reservoir",
        "entity": "http://www.wikidata.org/entity/Q8775385",
        "country_qid": "Q29"
      }
    },
    {
      "type": "Feature",
      "geometry": {
        "type": "Point",
        "coordinates": [
          2.384291666,
          41.974197222
        ]
      },
      "properties": {
        "label": "Pantà de Sau",
        "type": "Reservoir",
        "entity": "http://www.wikidata.org/entity/Q1140094",
        "country_qid": "Q29"
      }
    },
    {
      "type": "Feature",
      "geometry": {
        "type": "Point",
        "coordinates": [
          -2.91166667,
          42.15805556
        ]
      },
      "properties": {
        "label": "Q8775359",
        "type": "Reservoir",
        "entity": "http://www.wikidata.org/entity/Q8775359",
        "country_qid": "Q29"
      }
    },
    {
      "type": "Feature",
      "geometry": {
        "type": "Point",
        "coordinates": [
          2.83333333,
          42.34083333
        ]
      },
      "properties": {
        "label": "Pantà de Darnius",
        "type": "Reservoir",
        "entity": "http://www.wikidata.org/entity/Q7131952",
        "country_qid": "Q29"
      }
    },
    {
      "type": "Feature",
      "geometry": {
        "type": "Point",
        "coordinates": [
          0.751617,
          41.0988
        ]
      },
      "properties": {
        "label": "Pantà dels Guiamets",
        "type": "Reservoir",
        "entity": "http://www.wikidata.org/entity/Q17606257",
        "country_qid": "Q29"
      }
    },
    {
      "type": "Feature",
      "geometry": {
        "type": "Point",
        "coordinates": [
          2.02434,
          41.7807
        ]
      },
      "properties": {
        "label": "Resclosa de la Coma",
        "type": "Reservoir",
        "entity": "http://www.wikidata.org/entity/Q18006224",
        "country_qid": "Q29"
      }
    },
    {
      "type": "Feature",
      "geometry": {
        "type": "Point",
        "coordinates": [
          -2.436733333,
          41.582125
        ]
      },
      "properties": {
        "label": "Q5830585",
        "type": "Reservoir",
        "entity": "http://www.wikidata.org/entity/Q5830585",
        "country_qid": "Q29"
      }
    },
    {
      "type": "Feature",
      "geometry": {
        "type": "Point",
        "coordinates": [
          3.1155,
          42.0392
        ]
      },
      "properties": {
        "label": "Resclosa d'Ullà",
        "type": "Reservoir",
        "entity": "http://www.wikidata.org/entity/Q18006220",
        "country_qid": "Q29"
      }
    },
    {
      "type": "Feature",
      "geometry": {
        "type": "Point",
        "coordinates": [
          0.88886,
          42.06943
        ]
      },
      "properties": {
        "label": "Pantà dels Terradets",
        "type": "Reservoir",
        "entity": "http://www.wikidata.org/entity/Q18005399",
        "country_qid": "Q29"
      }
    },
    {
      "type": "Feature",
      "geometry": {
        "type": "Point",
        "coordinates": [
          -4.253425,
          39.36840556
        ]
      },
      "properties": {
        "label": "Torre de Abraham Reservoir",
        "type": "Reservoir",
        "entity": "http://www.wikidata.org/entity/Q16561613",
        "country_qid": "Q29"
      }
    },
    {
      "type": "Feature",
      "geometry": {
        "type": "Point",
        "coordinates": [
          -5.0775,
          41.75472222
        ]
      },
      "properties": {
        "label": "Embalse de la Santa Espina",
        "type": "Reservoir",
        "entity": "http://www.wikidata.org/entity/Q5830617",
        "country_qid": "Q29"
      }
    },
    {
      "type": "Feature",
      "geometry": {
        "type": "Point",
        "coordinates": [
          -5.444927777,
          38.929827777
        ]
      },
      "properties": {
        "label": "Zújar Reservoir",
        "type": "Reservoir",
        "entity": "http://www.wikidata.org/entity/Q8775426",
        "country_qid": "Q29"
      }
    },
    {
      "type": "Feature",
      "geometry": {
        "type": "Point",
        "coordinates": [
          -4.339986111,
          40.384261111
        ]
      },
      "properties": {
        "label": "San Juan Reservoir",
        "type": "Reservoir",
        "entity": "http://www.wikidata.org/entity/Q5830564",
        "country_qid": "Q29"
      }
    },
    {
      "type": "Feature",
      "geometry": {
        "type": "Point",
        "coordinates": [
          -3.541547222,
          40.900986111
        ]
      },
      "properties": {
        "label": "El Atazar Reservoir",
        "type": "Reservoir",
        "entity": "http://www.wikidata.org/entity/Q513846",
        "country_qid": "Q29"
      }
    },
    {
      "type": "Feature",
      "geometry": {
        "type": "Point",
        "coordinates": [
          -5.08333333,
          42.93472222
        ]
      },
      "properties": {
        "label": "Riaño Reservoir",
        "type": "Reservoir",
        "entity": "http://www.wikidata.org/entity/Q8775382",
        "country_qid": "Q29"
      }
    },
    {
      "type": "Feature",
      "geometry": {
        "type": "Point",
        "coordinates": [
          -6.830221,
          42.11573
        ]
      },
      "properties": {
        "label": "Q5830552",
        "type": "Reservoir",
        "entity": "http://www.wikidata.org/entity/Q5830552",
        "country_qid": "Q29"
      }
    },
    {
      "type": "Feature",
      "geometry": {
        "type": "Point",
        "coordinates": [
          -0.27833333,
          42.24111111
        ]
      },
      "properties": {
        "label": "Vadiello Reservoir",
        "type": "Reservoir",
        "entity": "http://www.wikidata.org/entity/Q16561617",
        "country_qid": "Q29"
      }
    },
    {
      "type": "Feature",
      "geometry": {
        "type": "Point",
        "coordinates": [
          -0.877,
          38.0313
        ]
      },
      "properties": {
        "label": "Embalse de La Pedrera",
        "type": "Reservoir",
        "entity": "http://www.wikidata.org/entity/Q8775353",
        "country_qid": "Q29"
      }
    },
    {
      "type": "Feature",
      "geometry": {
        "type": "Point",
        "coordinates": [
          1.49316,
          41.5568
        ]
      },
      "properties": {
        "label": "Pantà de Sant Martí de Tous",
        "type": "Reservoir",
        "entity": "http://www.wikidata.org/entity/Q18007033",
        "country_qid": "Q29"
      }
    },
    {
      "type": "Feature",
      "geometry": {
        "type": "Point",
        "coordinates": [
          -6.927288,
          43.091104
        ]
      },
      "properties": {
        "label": "Q8775392",
        "type": "Reservoir",
        "entity": "http://www.wikidata.org/entity/Q8775392",
        "country_qid": "Q29"
      }
    },
    {
      "type": "Feature",
      "geometry": {
        "type": "Point",
        "coordinates": [
          -2.78388889,
          41.07638889
        ]
      },
      "properties": {
        "label": "El Atance reservoir",
        "type": "Reservoir",
        "entity": "http://www.wikidata.org/entity/Q6429110",
        "country_qid": "Q29"
      }
    },
    {
      "type": "Feature",
      "geometry": {
        "type": "Point",
        "coordinates": [
          2.02318,
          41.7592
        ]
      },
      "properties": {
        "label": "Resclosa de Saladic",
        "type": "Reservoir",
        "entity": "http://www.wikidata.org/entity/Q18006226",
        "country_qid": "Q29"
      }
    },
    {
      "type": "Feature",
      "geometry": {
        "type": "Point",
        "coordinates": [
          -2.46,
          38.175
        ]
      },
      "properties": {
        "label": "embalse de la Novia",
        "type": "Reservoir",
        "entity": "http://www.wikidata.org/entity/Q16485680",
        "country_qid": "Q29"
      }
    },
    {
      "type": "Feature",
      "geometry": {
        "type": "Point",
        "coordinates": [
          -6.070166666,
          42.65025
        ]
      },
      "properties": {
        "label": "Villameca Reservoir",
        "type": "Reservoir",
        "entity": "http://www.wikidata.org/entity/Q5830589",
        "country_qid": "Q29"
      }
    },
    {
      "type": "Feature",
      "geometry": {
        "type": "Point",
        "coordinates": [
          -3.975830555,
          42.996938888
        ]
      },
      "properties": {
        "label": "Ebro Reservoir",
        "type": "Reservoir",
        "entity": "http://www.wikidata.org/entity/Q8775418",
        "country_qid": "Q29"
      }
    },
    {
      "type": "Feature",
      "geometry": {
        "type": "Point",
        "coordinates": [
          -7.52111111,
          37.55861111
        ]
      },
      "properties": {
        "label": "Chança dam",
        "type": "Reservoir",
        "entity": "http://www.wikidata.org/entity/Q8775414",
        "country_qid": "Q29"
      }
    },