{
  "type": "FeatureCollection",
  "features": [
    {
      "type": "Feature",
      "geometry": {
        "type": "Point",
        "coordinates": [
          -72.0889,
          43.6006
        ]
      },
      "properties": {
        "label": "Crystal Lake",
        "type": "Reservoir",
        "entity": "http://www.wikidata.org/entity/Q5191242",
        "country_qid": "Q30"
      }
    },
    {
      "type": "Feature",
      "geometry": {
        "type": "Point",
        "coordinates": [
          -111.526944444,
          40.406666666
        ]
      },
      "properties": {
        "label": "Deer Creek Reservoir",
        "type": "Reservoir",
        "entity": "http://www.wikidata.org/entity/Q5250715",
        "country_qid": "Q30"
      }
    },
    {
      "type": "Feature",
      "geometry": {
        "type": "Point",
        "coordinates": [
          -91.529722222,
          41.724444444
        ]
      },
      "properties": {
        "label": "Coralville Lake",
        "type": "Reservoir",
        "entity": "http://www.wikidata.org/entity/Q5169623",
        "country_qid": "Q30"
      }
    },
    {
      "type": "Feature",
      "geometry": {
        "type": "Point",
        "coordinates": [
          -112.1307032,
          35.2109165
        ]
      },
      "properties": {
        "label": "Dogtown Reservoir",
        "type": "Reservoir",
        "entity": "http://www.wikidata.org/entity/Q5288485",
        "country_qid": "Q30"
      }
    },
    {
      "type": "Feature",
      "geometry": {
        "type": "Point",
        "coordinates": [
          -111.399388888,
          35.004222222
        ]
      },
      "properties": {
        "label": "Coconino Reservoir",
        "type": "Reservoir",
        "entity": "http://www.wikidata.org/entity/Q5139812",
        "country_qid": "Q30"
      }
    },
    {
      "type": "Feature",
      "geometry": {
        "type": "Point",
        "coordinates": [
          -73.6299,
          41.3837
        ]
      },
      "properties": {
        "label": "Diverting Reservoir",
        "type": "Reservoir",
        "entity": "http://www.wikidata.org/entity/Q5283980",
        "country_qid": "Q30"
      }
    },
    {
      "type": "Feature",
      "geometry": {
        "type": "Point",
        "coordinates": [
          -121.801,
          43.7806
        ]
      },
      "properties": {
        "label": "Crane Prairie Reservoir",
        "type": "Reservoir",
        "entity": "http://www.wikidata.org/entity/Q5182044",
        "country_qid": "Q30"
      }
    },
    {
      "type": "Feature",
      "geometry": {
        "type": "Point",
        "coordinates": [
          -75.4364,
          43.2894
        ]
      },
      "properties": {
        "label": "Delta Lake",
        "type": "Reservoir",
        "entity": "http://www.wikidata.org/entity/Q5254678",
        "country_qid": "Q30"
      }
    },
    {
      "type": "Feature",
      "geometry": {
        "type": "Point",
        "coordinates": [
          -82.6067,
          40.6983
        ]
      },
      "properties": {
        "label": "Clear Fork Reservoir",
        "type": "Reservoir",
        "entity": "http://www.wikidata.org/entity/Q5130718",
        "country_qid": "Q30"
      }
    },
    {
      "type": "Feature",
      "geometry": {
        "type": "Point",
        "coordinates": [
          -93.8447,
          32.5022
        ]
      },
      "properties": {
        "label": "Cross Lake",
        "type": "Reservoir",
        "entity": "http://www.wikidata.org/entity/Q5188337",
        "country_qid": "Q30"
      }
    },
    {
      "type": "Feature",
      "geometry": {
        "type": "Point",
        "coordinates": [
          -83.2295,
          36.7431
        ]
      },
      "properties": {
        "label": "Cranks Creek Lake",
        "type": "Reservoir",
        "entity": "http://www.wikidata.org/entity/Q5182193",
        "country_qid": "Q30"
      }
    },
    {
      "type": "Feature",
      "geometry": {
        "type": "Point",
        "coordinates": [
          -88.8765,
          40.1389
        ]
      },
      "properties": {
        "label": "Clinton Lake",
        "type": "Reservoir",
        "entity": "http://www.wikidata.org/entity/Q5134179",
        "country_qid": "Q30"
      }
    },
    {
      "type": "Feature",
      "geometry": {
        "type": "Point",
        "coordinates": [
          -83.538888888,
          35.961111111
        ]
      },
      "properties": {
        "label": "Douglas Lake",
        "type": "Reservoir",
        "entity": "http://www.wikidata.org/entity/Q5301712",
        "country_qid": "Q30"
      }
    },
    {
      "type": "Feature",
      "geometry": {
        "type": "Point",
        "coordinates": [
          -106.0551,
          39.6074
        ]
      },
      "properties": {
        "label": "Dillon Reservoir",
        "type": "Reservoir",
        "entity": "http://www.wikidata.org/entity/Q5276944",
        "country_qid": "Q30"
      }
    },
    {
      "type": "Feature",
      "geometry": {
        "type": "Point",
        "coordinates": [
          -122.304,
          41.9794
        ]
      },
      "properties": {
        "label": "Copco Lake",
        "type": "Reservoir",
        "entity": "http://www.wikidata.org/entity/Q5168323",
        "country_qid": "Q30"
      }
    },
    {
      "type": "Feature",
      "geometry": {
        "type": "Point",
        "coordinates": [
          -82.727777777,
          37.735555555
        ]
      },
      "properties": {
        "label": "Dewey Lake",
        "type": "Reservoir",
        "entity": "http://www.wikidata.org/entity/Q5268189",
        "country_qid": "Q30"
      }
    },
    {
      "type": "Feature",
      "geometry": {
        "type": "Point",
        "coordinates": [
          -90.7765627,
          37.1430661
        ]
      },
      "properties": {
        "label": "Clearwater Lake",
        "type": "Reservoir",
        "entity": "http://www.wikidata.org/entity/Q5130942",
        "country_qid": "Q30"
      }
    },
    {
      "type": "Feature",
      "geometry": {
        "type": "Point",
        "coordinates": [
          -104.231,
          35.38
        ]
      },
      "properties": {
        "label": "Conchas Lake",
        "type": "Reservoir",
        "entity": "http://www.wikidata.org/entity/Q5158618",
        "country_qid": "Q30"
      }
    },
    {
      "type": "Feature",
      "geometry": {
        "type": "Point",
        "coordinates": [
          -95.366,
          38.9115
        ]
      },
      "properties": {
        "label": "Clinton Lake",
        "type": "Reservoir",
        "entity": "http://www.wikidata.org/entity/Q5134177",
        "country_qid": "Q30"
      }
    },
    {
      "type": "Feature",
      "geometry": {
        "type": "Point",
        "coordinates": [
          -73.6329,
          41.2543
        ]
      },
      "properties": {
        "label": "Cross River Reservoir",
        "type": "Reservoir",
        "entity": "http://www.wikidata.org/entity/Q5188396",
        "country_qid": "Q30"
      }
    },
    {
      "type": "Feature",
      "geometry": {
        "type": "Point",
        "coordinates": [
          -122.954444444,
          43.786666666
        ]
      },
      "properties": {
        "label": "Dorena Reservoir",
        "type": "Reservoir",
        "entity": "http://www.wikidata.org/entity/Q5297719",
        "country_qid": "Q30"
      }
    },
    {
      "type": "Feature",
      "geometry": {
        "type": "Point",
        "coordinates": [
          -121.5568,
          37.8299
        ]
      },
      "properties": {
        "label": "Clifton Court Forebay",
        "type": "Reservoir",
        "entity": "http://www.wikidata.org/entity/Q5133197",
        "country_qid": "Q30"
      }
    },
    {
      "type": "Feature",
      "geometry": {
        "type": "Point",
        "coordinates": [
          -121.55,
          37.118
        ]
      },
      "properties": {
        "label": "Coyote Lake",
        "type": "Reservoir",
        "entity": "http://www.wikidata.org/entity/Q5180069",
        "country_qid": "Q30"
      }
    },
    {
      "type": "Feature",
      "geometry": {
        "type": "Point",
        "coordinates": [
          -122.806666666,
          43.923611111
        ]
      },
      "properties": {
        "label": "Dexter Reservoir",
        "type": "Reservoir",
        "entity": "http://www.wikidata.org/entity/Q5268437",
        "country_qid": "Q30"
      }
    },
    {
      "type": "Feature",
      "geometry": {
        "type": "Point",
        "coordinates": [
          -79.510833333,
          40.711111111
        ]
      },
      "properties": {
        "label": "Crooked Creek Lake Recreation Area",
        "type": "Reservoir",
        "entity": "http://www.wikidata.org/entity/Q5187796",
        "country_qid": "Q30"
      }
    },
    {
      "type": "Feature",
      "geometry": {
        "type": "Point",
        "coordinates": [
          -96.8525,
          40.765833333
        ]
      },
      "properties": {
        "label": "Conestoga Lake",
        "type": "Reservoir",
        "entity": "http://www.wikidata.org/entity/Q5159529",
        "country_qid": "Q30"
      }
    },
    {
      "type": "Feature",
      "geometry": {
        "type": "Point",
        "coordinates": [
          -71.846388888,
          43.059166666
        ]
      },
      "properties": {
        "label": "Deering Reservoir",
        "type": "Reservoir",
        "entity": "http://www.wikidata.org/entity/Q5250968",
        "country_qid": "Q30"
      }
    },
    {
      "type": "Feature",
      "geometry": {
        "type": "Point",
        "coordinates": [
          -87.274166666,
          30.468333333
        ]
      },
      "properties": {
        "label": "Crescent Lake",
        "type": "Reservoir",
        "entity": "http://www.wikidata.org/entity/Q5184388",
        "country_qid": "Q30"
      }
    },
    {
      "type": "Feature",
      "geometry": {
        "type": "Point",
        "coordinates": [
          -75.2914,
          40.0308
        ]
      },
      "properties": {
        "label": "Dove Lake",
        "type": "Reservoir",
        "entity": "http://www.wikidata.org/entity/Q5302402",
        "country_qid": "Q30"
      }
    },
    {
      "type": "Feature",
      "geometry": {
        "type": "Point",
        "coordinates": [
          -121.146,
          41.86
        ]
      },
      "properties": {
        "label": "Clear Lake Reservoir",
        "type": "Reservoir",
        "entity": "http://www.wikidata.org/entity/Q5130751",
        "country_qid": "Q30"
      }
    },
    {
      "type": "Feature",
      "geometry": {
        "type": "Point",
        "coordinates": [
          -93.111388888,
          34.214722222
        ]
      },
      "properties": {
        "label": "DeGray Lake",
        "type": "Reservoir",
        "entity": "http://www.wikidata.org/entity/Q5243909",
        "country_qid": "Q30"
      }
    },
    {
      "type": "Feature",
      "geometry": {
        "type": "Point",
        "coordinates": [
          -109.8462003,
          32.8153857
        ]
      },
      "properties": {
        "label": "Cluff Ranch Ponds",
        "type": "Reservoir",
        "entity": "http://www.wikidata.org/entity/Q5136593",
        "country_qid": "Q30"
      }
    },
    {
      "type": "Feature",
      "geometry": {
        "type": "Point",
        "coordinates": [
          -85.943888888,
          36.29
        ]
      },
      "properties": {
        "label": "Cordell Hull Lake",
        "type": "Reservoir",
        "entity": "http://www.wikidata.org/entity/Q5169941",
        "country_qid": "Q30"
      }
    },
    {
      "type": "Feature",
      "geometry": {
        "type": "Point",
        "coordinates": [
          -89.0926,
          37.6259
        ]
      },
      "properties": {
        "label": "Devils Kitchen Lake",
        "type": "Reservoir",
        "entity": "http://www.wikidata.org/entity/Q5267416",
        "country_qid": "Q30"
      }
    },
    {
      "type": "Feature",
      "geometry": {
        "type": "Point",
        "coordinates": [
          -115.646,
          44.294
        ]
      },
      "properties": {
        "label": "Deadwood Reservoir",
        "type": "Reservoir",
        "entity": "http://www.wikidata.org/entity/Q5245752",
        "country_qid": "Q30"
      }
    },
    {
      "type": "Feature",
      "geometry": {
        "type": "Point",
        "coordinates": [
          -78.526666666,
          40.954166666
        ]
      },
      "properties": {
        "label": "Curwensville Lake",
        "type": "Reservoir",
        "entity": "http://www.wikidata.org/entity/Q5196127",
        "country_qid": "Q30"
      }
    },
    {
      "type": "Feature",
      "geometry": {
        "type": "Point",
        "coordinates": [
          -93.792,
          41.517
        ]
      },
      "properties": {
        "label": "Dale Maffitt Reservoir",
        "type": "Reservoir",
        "entity": "http://www.wikidata.org/entity/Q5210537",
        "country_qid": "Q30"
      }
    },
    {
      "type": "Feature",
      "geometry": {
        "type": "Point",
        "coordinates": [
          -122.238888888,
          44.117222222
        ]
      },
      "properties": {
        "label": "Cougar Reservoir",
        "type": "Reservoir",
        "entity": "http://www.wikidata.org/entity/Q5176048",
        "country_qid": "Q30"
      }
    },
    {
      "type": "Feature",
      "geometry": {
        "type": "Point",
        "coordinates": [
          -88.491,
          33.5341
        ]
      },
      "properties": {
        "label": "Columbus Lake",
        "type": "Reservoir",
        "entity": "http://www.wikidata.org/entity/Q5150069",
        "country_qid": "Q30"
      }
    },
    {
      "type": "Feature",
      "geometry": {
        "type": "Point",
        "coordinates": [
          -94.389,
          34.1135
        ]
      },
      "properties": {
        "label": "DeQueen Lake",
        "type": "Reservoir",
        "entity": "http://www.wikidata.org/entity/Q5244050",
        "country_qid": "Q30"
      }
    },
    {
      "type": "Feature",
      "geometry": {
        "type": "Point",
        "coordinates": [
          -73.9825,
          40.753333333
        ]
      },
      "properties": {
        "label": "Croton Distributing Reservoir",
        "type": "Reservoir",
        "entity": "http://www.wikidata.org/entity/Q5188981",
        "country_qid": "Q30"
      }
    },
    {
      "type": "Feature",
      "geometry": {
        "type": "Point",
        "coordinates": [
          -77.1104507,
          38.9423207
        ]
      },
      "properties": {
        "label": "Dalecarlia Reservoir",
        "type": "Reservoir",
        "entity": "http://www.wikidata.org/entity/Q5210724",
        "country_qid": "Q30"
      }
    },
    {
      "type": "Feature",
      "geometry": {
        "type": "Point",
        "coordinates": [
          -80.6593262,
          37.0373452
        ]
      },
      "properties": {
        "label": "Claytor Lake",
        "type": "Reservoir",
        "entity": "http://www.wikidata.org/entity/Q5130389",
        "country_qid": "Q30"
      }
    },
    {
      "type": "Feature",
      "geometry": {
        "type": "Point",
        "coordinates": [
          -112.0475,
          41.836666666
        ]
      },
      "properties": {
        "label": "Cutler Reservoir",
        "type": "Reservoir",
        "entity": "http://www.wikidata.org/entity/Q5196880",
        "country_qid": "Q30"
      }
    },
    {
      "type": "Feature",
      "geometry": {
        "type": "Point",
        "coordinates": [
          -120.138,
          40.9682
        ]
      },
      "properties": {
        "label": "Dodge Reservoir",
        "type": "Reservoir",
        "entity": "http://www.wikidata.org/entity/Q5287884",
        "country_qid": "Q30"
      }
    },
    {
      "type": "Feature",
      "geometry": {
        "type": "Point",
        "coordinates": [
          -71.3985,
          41.9897
        ]
      },
      "properties": {
        "label": "Diamond Hill Reservoir",
        "type": "Reservoir",
        "entity": "http://www.wikidata.org/entity/Q5270827",
        "country_qid": "Q30"
      }
    },
    {
      "type": "Feature",
      "geometry": {
        "type": "Point",
        "coordinates": [
          -89.1053,
          37.7252
        ]
      },
      "properties": {
        "label": "Crab Orchard Lake",
        "type": "Reservoir",
        "entity": "http://www.wikidata.org/entity/Q5180225",
        "country_qid": "Q30"
      }
    },
    {
      "type": "Feature",
      "geometry": {
        "type": "Point",
        "coordinates": [
          -110.641246,
          34.9729732
        ]
      },
      "properties": {
        "label": "Clear Creek Reservoir",
        "type": "Reservoir",
        "entity": "http://www.wikidata.org/entity/Q5130687",
        "country_qid": "Q30"
      }
    },
    {
      "type": "Feature",
      "geometry": {
        "type": "Point",
        "coordinates": [
          -81.2180826,
          40.2381142
        ]
      },
      "properties": {
        "label": "Clendening Lake",
        "type": "Reservoir",
        "entity": "http://www.wikidata.org/entity/Q5131604",
        "country_qid": "Q30"
      }
    },
    {
      "type": "Feature",
      "geometry": {
        "type": "Point",
        "coordinates": [
          -77.571666666,
          43.138611111
        ]
      },
      "properties": {
        "label": "Cobbs Hill Reservoir",
        "type": "Reservoir",
        "entity": "http://www.wikidata.org/entity/Q5138837",
        "country_qid": "Q30"
      }
    },
    {
      "type": "Feature",
      "geometry": {
        "type": "Point",
        "coordinates": [
          -123.282,
          43.38
        ]
      },
      "properties": {
        "label": "Cooper Creek Reservoir",
        "type": "Reservoir",
        "entity": "http://www.wikidata.org/entity/Q5167759",
        "country_qid": "Q30"
      }
    },
    {
      "type": "Feature",
      "geometry": {
        "type": "Point",
        "coordinates": [
          -107.581,
          38.4812
        ]
      },
      "properties": {
        "label": "Crystal Reservoir",
        "type": "Reservoir",
        "entity": "http://www.wikidata.org/entity/Q5191332",
        "country_qid": "Q30"
      }
    },
    {
      "type": "Feature",
      "geometry": {
        "type": "Point",
        "coordinates": [
          -94.0977,
          34.1652
        ]
      },
      "properties": {
        "label": "Dierks Lake",
        "type": "Reservoir",
        "entity": "http://www.wikidata.org/entity/Q5274987",
        "country_qid": "Q30"
      }
    },
    {
      "type": "Feature",
      "geometry": {
        "type": "Point",
        "coordinates": [
          -85.4516343,
          36.5367284
        ]
      },
      "properties": {
        "label": "Dale Hollow Reservoir",
        "type": "Reservoir",
        "entity": "http://www.wikidata.org/entity/Q5210483",
        "country_qid": "Q30"
      }
    },
    {
      "type": "Feature",
      "geometry": {
        "type": "Point",
        "coordinates": [
          -72.5884,
          41.3432
        ]
      },
      "properties": {
        "label": "Deer Lake",
        "type": "Reservoir",
        "entity": "http://www.wikidata.org/entity/Q5250779",
        "country_qid": "Q30"
      }
    },
    {
      "type": "Feature",
      "geometry": {
        "type": "Point",
        "coordinates": [
          -73.6693,
          41.372
        ]
      },
      "properties": {
        "label": "Croton Falls Reservoir",
        "type": "Reservoir",
        "entity": "http://www.wikidata.org/entity/Q5188984",
        "country_qid": "Q30"
      }
    },
    {
      "type": "Feature",
      "geometry": {
        "type": "Point",
        "coordinates": [
          -97.170333333,
          28.727166666
        ]
      },
      "properties": {
        "label": "Coleto Creek Reservoir",
        "type": "Reservoir",
        "entity": "http://www.wikidata.org/entity/Q5144681",
        "country_qid": "Q30"
      }
    },
    {
      "type": "Feature",
      "geometry": {
        "type": "Point",
        "coordinates": [
          -83.8997966,
          39.3858681
        ]
      },
      "properties": {
        "label": "Cowan Lake",
        "type": "Reservoir",
        "entity": "http://www.wikidata.org/entity/Q5179443",
        "country_qid": "Q30"
      }
    },
    {
      "type": "Feature",
      "geometry": {
        "type": "Point",
        "coordinates": [
          -71.9865535,
          44.3337716
        ]
      },
      "properties": {
        "label": "Comerford Reservoir",
        "type": "Reservoir",
        "entity": "http://www.wikidata.org/entity/Q5151532",
        "country_qid": "Q30"
      }
    },
    {
      "type": "Feature",
      "geometry": {
        "type": "Point",
        "coordinates": [
          -83.9754935,
          34.6750331
        ]
      },
      "properties": {
        "label": "Dockery Lake Recreation Area",
        "type": "Reservoir",
        "entity": "http://www.wikidata.org/entity/Q5287217",
        "country_qid": "Q30"
      }
    },
    {
      "type": "Feature",
      "geometry": {
        "type": "Point",
        "coordinates": [
          -107.809,
          37.569
        ]
      },
      "properties": {
        "label": "Electra Lake",
        "type": "Reservoir",
        "entity": "http://www.wikidata.org/entity/Q5357242",
        "country_qid": "Q30"
      }
    },
    {
      "type": "Feature",
      "geometry": {
        "type": "Point",
        "coordinates": [
          -85.96,
          39.927
        ]
      },
      "properties": {
        "label": "Geist Reservoir",
        "type": "Reservoir",
        "entity": "http://www.wikidata.org/entity/Q5530255",
        "country_qid": "Q30"
      }
    },
    {
      "type": "Feature",
      "geometry": {
        "type": "Point",
        "coordinates": [
          -112.760833333,
          47.603333333
        ]
      },
      "properties": {
        "label": "Gibson Reservoir",
        "type": "Reservoir",
        "entity": "http://www.wikidata.org/entity/Q5559387",
        "country_qid": "Q30"
      }
    },
    {
      "type": "Feature",
      "geometry": {
        "type": "Point",
        "coordinates": [
          -88.1931,
          33.0639
        ]
      },
      "properties": {
        "label": "Gainesville Lake",
        "type": "Reservoir",
        "entity": "http://www.wikidata.org/entity/Q5517261",
        "country_qid": "Q30"
      }
    },
    {
      "type": "Feature",
      "geometry": {
        "type": "Point",
        "coordinates": [
          -121.876658333,
          37.198269444
        ]
      },
      "properties": {
        "label": "Guadalupe Reservoir",
        "type": "Reservoir",
        "entity": "http://www.wikidata.org/entity/Q5613253",
        "country_qid": "Q30"
      }
    },
    {
      "type": "Feature",
      "geometry": {
        "type": "Point",
        "coordinates": [
          -120.3923,
          39.080111111
        ]
      },
      "properties": {
        "label": "Hell Hole Reservoir",
        "type": "Reservoir",
        "entity": "http://www.wikidata.org/entity/Q5706597",
        "country_qid": "Q30"
      }
    },
    {
      "type": "Feature",
      "geometry": {
        "type": "Point",
        "coordinates": [
          -135.097,
          56.9881
        ]
      },
      "properties": {
        "label": "Green Lake",
        "type": "Reservoir",
        "entity": "http://www.wikidata.org/entity/Q5602743",
        "country_qid": "Q30"
      }
    },
    {
      "type": "Feature",
      "geometry": {
        "type": "Point",
        "coordinates": [
          -74.08324,
          40.19354
        ]
      },
      "properties": {
        "label": "Glendola Reservoir",
        "type": "Reservoir",
        "entity": "http://www.wikidata.org/entity/Q5568418",
        "country_qid": "Q30"
      }
    },
    {
      "type": "Feature",
      "geometry": {
        "type": "Point",
        "coordinates": [
          -85.3308,
          37.2522
        ]
      },
      "properties": {
        "label": "Green River Lake",
        "type": "Reservoir",
        "entity": "http://www.wikidata.org/entity/Q5603135",
        "country_qid": "Q30"
      }
    },
    {
      "type": "Feature",
      "geometry": {
        "type": "Point",
        "coordinates": [
          -122.7166866,
          38.4856037
        ]
      },
      "properties": {
        "label": "Fountaingrove Lake",
        "type": "Reservoir",
        "entity": "http://www.wikidata.org/entity/Q5474836",
        "country_qid": "Q30"
      }
    },
    {
      "type": "Feature",
      "geometry": {
        "type": "Point",
        "coordinates": [
          -92.1298,
          35.5339
        ]
      },
      "properties": {
        "label": "Greers Ferry Lake",
        "type": "Reservoir",
        "entity": "http://www.wikidata.org/entity/Q5605148",
        "country_qid": "Q30"
      }
    },
    {
      "type": "Feature",
      "geometry": {
        "type": "Point",
        "coordinates": [
          -90.1793,
          43.6072
        ]
      },
      "properties": {
        "label": "Dutch Hollow Lake",
        "type": "Reservoir",
        "entity": "http://www.wikidata.org/entity/Q5317313",
        "country_qid": "Q30"
      }
    },
    {
      "type": "Feature",
      "geometry": {
        "type": "Point",
        "coordinates": [
          -73.591238888,
          41.397038888
        ]
      },
      "properties": {
        "label": "East Branch Reservoir",
        "type": "Reservoir",
        "entity": "http://www.wikidata.org/entity/Q5327926",
        "country_qid": "Q30"
      }
    },
    {
      "type": "Feature",
      "geometry": {
        "type": "Point",
        "coordinates": [
          -122.473,
          38.6433
        ]
      },
      "properties": {
        "label": "Duvall Lake",
        "type": "Reservoir",
        "entity": "http://www.wikidata.org/entity/Q5317611",
        "country_qid": "Q30"
      }
    },
    {
      "type": "Feature",
      "geometry": {
        "type": "Point",
        "coordinates": [
          -73.8511,
          40.9717
        ]
      },
      "properties": {
        "label": "Grassy Sprain Reservoir",
        "type": "Reservoir",
        "entity": "http://www.wikidata.org/entity/Q5597627",
        "country_qid": "Q30"
      }
    },
    {
      "type": "Feature",
      "geometry": {
        "type": "Point",
        "coordinates": [
          -71.183611,
          42.707222
        ]
      },
      "properties": {
        "label": "High Service Water Tower and Reservoir",
        "type": "Reservoir",
        "entity": "http://www.wikidata.org/entity/Q5756679",
        "country_qid": "Q30"
      }
    },
    {
      "type": "Feature",
      "geometry": {
        "type": "Point",
        "coordinates": [
          -82.4153,
          37.4319
        ]
      },
      "properties": {
        "label": "Fishtrap Lake",
        "type": "Reservoir",
        "entity": "http://www.wikidata.org/entity/Q5455149",
        "country_qid": "Q30"
      }
    },
    {
      "type": "Feature",
      "geometry": {
        "type": "Point",
        "coordinates": [
          -74.1847,
          43.1339
        ]
      },
      "properties": {
        "label": "Great Sacandaga Lake",
        "type": "Reservoir",
        "entity": "http://www.wikidata.org/entity/Q5599903",
        "country_qid": "Q30"
      }
    },
    {
      "type": "Feature",
      "geometry": {
        "type": "Point",
        "coordinates": [
          -78.5638498,
          41.5808268
        ]
      },
      "properties": {
        "label": "East Branch Clarion River Lake",
        "type": "Reservoir",
        "entity": "http://www.wikidata.org/entity/Q5327905",
        "country_qid": "Q30"
      }
    },
    {
      "type": "Feature",
      "geometry": {
        "type": "Point",
        "coordinates": [
          -93.230277777,
          37.315
        ]
      },
      "properties": {
        "label": "Fellows Lake",
        "type": "Reservoir",
        "entity": "http://www.wikidata.org/entity/Q5442493",
        "country_qid": "Q30"
      }
    },
    {
      "type": "Feature",
      "geometry": {
        "type": "Point",
        "coordinates": [
          -107.192113888,
          33.153969444
        ]
      },
      "properties": {
        "label": "Elephant Butte Reservoir",
        "type": "Reservoir",
        "entity": "http://www.wikidata.org/entity/Q5359306",
        "country_qid": "Q30"
      }
    },
    {
      "type": "Feature",
      "geometry": {
        "type": "Point",
        "coordinates": [
          -106.69,
          36.69
        ]
      },
      "properties": {
        "label": "Heron Lake",
        "type": "Reservoir",
        "entity": "http://www.wikidata.org/entity/Q5743492",
        "country_qid": "Q30"
      }
    },
    {
      "type": "Feature",
      "geometry": {
        "type": "Point",
        "coordinates": [
          -96.0558,
          41.3511
        ]
      },
      "properties": {
        "label": "Glenn Cunningham Lake",
        "type": "Reservoir",
        "entity": "http://www.wikidata.org/entity/Q5568746",
        "country_qid": "Q30"
      }
    },
    {
      "type": "Feature",
      "geometry": {
        "type": "Point",
        "coordinates": [
          -95.8022572,
          37.2574246
        ]
      },
      "properties": {
        "label": "Elk City Lake",
        "type": "Reservoir",
        "entity": "http://www.wikidata.org/entity/Q5363982",
        "country_qid": "Q30"
      }
    },
    {
      "type": "Feature",
      "geometry": {
        "type": "Point",
        "coordinates": [
          -98.483333333,
          35.2
        ]
      },
      "properties": {
        "label": "Fort Cobb Reservoir",
        "type": "Reservoir",
        "entity": "http://www.wikidata.org/entity/Q5470942",
        "country_qid": "Q30"
      }
    },
    {
      "type": "Feature",
      "geometry": {
        "type": "Point",
        "coordinates": [
          -123.297,
          44.098
        ]
      },
      "properties": {
        "label": "Fern Ridge Reservoir",
        "type": "Reservoir",
        "entity": "http://www.wikidata.org/entity/Q5444476",
        "country_qid": "Q30"
      }
    },
    {
      "type": "Feature",
      "geometry": {
        "type": "Point",
        "coordinates": [
          -100.535277777,
          31.908333333
        ]
      },
      "properties": {
        "label": "E.V. Spence Reservoir",
        "type": "Reservoir",
        "entity": "http://www.wikidata.org/entity/Q5321673",
        "country_qid": "Q30"
      }
    },
    {
      "type": "Feature",
      "geometry": {
        "type": "Point",
        "coordinates": [
          -92.2786,
          46.9567
        ]
      },
      "properties": {
        "label": "Fish Lake Reservoir",
        "type": "Reservoir",
        "entity": "http://www.wikidata.org/entity/Q5454544",
        "country_qid": "Q30"
      }
    },
    {
      "type": "Feature",
      "geometry": {
        "type": "Point",
        "coordinates": [
          -75.1083,
          43.3114
        ]
      },
      "properties": {
        "label": "Hinckley Reservoir",
        "type": "Reservoir",
        "entity": "http://www.wikidata.org/entity/Q5765775",
        "country_qid": "Q30"
      }
    },
    {
      "type": "Feature",
      "geometry": {
        "type": "Point",
        "coordinates": [
          -71.1995,
          42.6492
        ]
      },
      "properties": {
        "label": "Haggetts Pond",
        "type": "Reservoir",
        "entity": "http://www.wikidata.org/entity/Q5638700",
        "country_qid": "Q30"
      }
    },
    {
      "type": "Feature",
      "geometry": {
        "type": "Point",
        "coordinates": [
          -97.056666666,
          32.972222222
        ]
      },
      "properties": {
        "label": "Grapevine Lake",
        "type": "Reservoir",
        "entity": "http://www.wikidata.org/entity/Q5597044",
        "country_qid": "Q30"
      }
    },
    {
      "type": "Feature",
      "geometry": {
        "type": "Point",
        "coordinates": [
          -92.952777777,
          43.671111111
        ]
      },
      "properties": {
        "label": "East Side Lake",
        "type": "Reservoir",
        "entity": "http://www.wikidata.org/entity/Q5329373",
        "country_qid": "Q30"
      }
    },
    {
      "type": "Feature",
      "geometry": {
        "type": "Point",
        "coordinates": [
          -74.07394444,
          43.031
        ]
      },
      "properties": {
        "label": "Galway Lake",
        "type": "Reservoir",
        "entity": "http://www.wikidata.org/entity/Q5519491",
        "country_qid": "Q30"
      }
    },
    {
      "type": "Feature",
      "geometry": {
        "type": "Point",
        "coordinates": [
          -110.473,
          43.8056
        ]
      },
      "properties": {
        "label": "Elk Ranch Reservoir",
        "type": "Reservoir",
        "entity": "http://www.wikidata.org/entity/Q5364082",
        "country_qid": "Q30"
      }
    },
    {
      "type": "Feature",
      "geometry": {
        "type": "Point",
        "coordinates": [
          -75.45186,
          38.91116
        ]
      },
      "properties": {
        "label": "Haven Lake",
        "type": "Reservoir",
        "entity": "http://www.wikidata.org/entity/Q5683692",
        "country_qid": "Q30"
      }
    },
    {
      "type": "Feature",
      "geometry": {
        "type": "Point",
        "coordinates": [
          -112.448888888,
          34.498611111
        ]
      },
      "properties": {
        "label": "Goldwater Lake",
        "type": "Reservoir",
        "entity": "http://www.wikidata.org/entity/Q5580386",
        "country_qid": "Q30"
      }
    },
    {
      "type": "Feature",
      "geometry": {
        "type": "Point",
        "coordinates": [
          -97.340555555,
          30.701666666
        ]
      },
      "properties": {
        "label": "Granger Lake",
        "type": "Reservoir",
        "entity": "http://www.wikidata.org/entity/Q5595739",
        "country_qid": "Q30"
      }
    },
    {
      "type": "Feature",
      "geometry": {
        "type": "Point",
        "coordinates": [
          -120.468333333,
          39.111666666
        ]
      },
      "properties": {
        "label": "French Meadows Reservoir",
        "type": "Reservoir",
        "entity": "http://www.wikidata.org/entity/Q5501843",
        "country_qid": "Q30"
      }
    },
    {
      "type": "Feature",
      "geometry": {
        "type": "Point",
        "coordinates": [
          -122.426,
          43.6711
        ]
      },
      "properties": {
        "label": "Hills Creek Reservoir",
        "type": "Reservoir",
        "entity": "http://www.wikidata.org/entity/Q5763427",
        "country_qid": "Q30"
      }
    },
    {
      "type": "Feature",
      "geometry": {
        "type": "Point",
        "coordinates": [
          -120.8236,
          36.3838
        ]
      },
      "properties": {
        "label": "Hernandez Reservoir",
        "type": "Reservoir",
        "entity": "http://www.wikidata.org/entity/Q5742177",
        "country_qid": "Q30"
      }
    },
    {
      "type": "Feature",
      "geometry": {
        "type": "Point",
        "coordinates": [
          -82.983855555,
          38.251527777
        ]
      },
      "properties": {
        "label": "Grayson Lake",
        "type": "Reservoir",
        "entity": "http://www.wikidata.org/entity/Q5598412",
        "country_qid": "Q30"
      }
    },
    {
      "type": "Feature",
      "geometry": {
        "type": "Point",
        "coordinates": [
          -74.0203,
          40.7733
        ]
      },
      "properties": {
        "label": "Hackensack Water Company Complex",
        "type": "Reservoir",
        "entity": "http://www.wikidata.org/entity/Q5637240",
        "country_qid": "Q30"
      }
    },
    {
      "type": "Feature",
      "geometry": {
        "type": "Point",
        "coordinates": [
          -122.604,
          42.1614
        ]
      },
      "properties": {
        "label": "Emigrant Lake",
        "type": "Reservoir",
        "entity": "http://www.wikidata.org/entity/Q5371100",
        "country_qid": "Q30"
      }
    },
    {
      "type": "Feature",
      "geometry": {
        "type": "Point",
        "coordinates": [
          -96.064166666,
          30.624166666
        ]
      },
      "properties": {
        "label": "Gibbons Creek Reservoir",
        "type": "Reservoir",
        "entity": "http://www.wikidata.org/entity/Q5558905",
        "country_qid": "Q30"
      }
    },
    {
      "type": "Feature",
      "geometry": {
        "type": "Point",
        "coordinates": [
          -84.243333333,
          35.791944444
        ]
      },
      "properties": {
        "label": "Fort Loudoun Lake",
        "type": "Reservoir",
        "entity": "http://www.wikidata.org/entity/Q5471549",
        "country_qid": "Q30"
      }
    },
    {
      "type": "Feature",
      "geometry": {
        "type": "Point",
        "coordinates": [
          -106.285277777,
          39.871388888
        ]
      },
      "properties": {
        "label": "Green Mountain Reservoir",
        "type": "Reservoir",
        "entity": "http://www.wikidata.org/entity/Q5602905",
        "country_qid": "Q30"
      }
    },
    {
      "type": "Feature",
      "geometry": {
        "type": "Point",
        "coordinates": [
          -116.809166666,
          32.885555555
        ]
      },
      "properties": {
        "label": "El Capitan Reservoir",
        "type": "Reservoir",
        "entity": "http://www.wikidata.org/entity/Q5350930",
        "country_qid": "Q30"
      }
    },
    {
      "type": "Feature",
      "geometry": {
        "type": "Point",
        "coordinates": [
          -98.188419444,
          36.742872222
        ]
      },
      "properties": {
        "label": "Great Salt Plains Lake",
        "type": "Reservoir",
        "entity": "http://www.wikidata.org/entity/Q5599911",
        "country_qid": "Q30"
      }
    },
    {
      "type": "Feature",
      "geometry": {
        "type": "Point",
        "coordinates": [
          -73.5722842,
          43.4235359
        ]
      },
      "properties": {
        "label": "Hadlock Pond",
        "type": "Reservoir",
        "entity": "http://www.wikidata.org/entity/Q5638003",
        "country_qid": "Q30"
      }
    },
    {
      "type": "Feature",
      "geometry": {
        "type": "Point",
        "coordinates": [
          -76.60357,
          38.0018
        ]
      },
      "properties": {
        "label": "Gardy's Millpond",
        "type": "Reservoir",
        "entity": "http://www.wikidata.org/entity/Q5522654",
        "country_qid": "Q30"
      }
    },
    {
      "type": "Feature",
      "geometry": {
        "type": "Point",
        "coordinates": [
          -94.230555555,
          34.215555555
        ]
      },
      "properties": {
        "label": "Gillham Lake",
        "type": "Reservoir",
        "entity": "http://www.wikidata.org/entity/Q5562169",
        "country_qid": "Q30"
      }
    },
    {
      "type": "Feature",
      "geometry": {
        "type": "Point",
        "coordinates": [
          -70.6855737,
          41.84334
        ]
      },
      "properties": {
        "label": "East Head Reservoir",
        "type": "Reservoir",
        "entity": "http://www.wikidata.org/entity/Q5328570",
        "country_qid": "Q30"
      }
    },
    {
      "type": "Feature",
      "geometry": {
        "type": "Point",
        "coordinates": [
          -122.547,
          44.4521
        ]
      },
      "properties": {
        "label": "Green Peter Reservoir",
        "type": "Reservoir",
        "entity": "http://www.wikidata.org/entity/Q5603062",
        "country_qid": "Q30"
      }
    },
    {
      "type": "Feature",
      "geometry": {
        "type": "Point",
        "coordinates": [
          -112.309146,
          34.5083636
        ]
      },
      "properties": {
        "label": "Fain Lake",
        "type": "Reservoir",
        "entity": "http://www.wikidata.org/entity/Q5429726",
        "country_qid": "Q30"
      }
    },
    {
      "type": "Feature",
      "geometry": {
        "type": "Point",
        "coordinates": [
          -122.668061111,
          44.416669444
        ]
      },
      "properties": {
        "label": "Foster Reservoir",
        "type": "Reservoir",
        "entity": "http://www.wikidata.org/entity/Q5473738",
        "country_qid": "Q30"
      }
    },
    {
      "type": "Feature",
      "geometry": {
        "type": "Point",
        "coordinates": [
          -120.534388888,
          39.416413888
        ]
      },
      "properties": {
        "label": "French Lake Reservoir",
        "type": "Reservoir",
        "entity": "http://www.wikidata.org/entity/Q5501815",
        "country_qid": "Q30"
      }
    },
    {
      "type": "Feature",
      "geometry": {
        "type": "Point",
        "coordinates": [
          -111.366,
          34.2342
        ]
      },
      "properties": {
        "label": "Green Valley Lake",
        "type": "Reservoir",
        "entity": "http://www.wikidata.org/entity/Q5603379",
        "country_qid": "Q30"
      }
    },
    {
      "type": "Feature",
      "geometry": {
        "type": "Point",
        "coordinates": [
          -112.5496556,
          34.6172356
        ]
      },
      "properties": {
        "label": "Granite Basin Lake",
        "type": "Reservoir",
        "entity": "http://www.wikidata.org/entity/Q5595826",
        "country_qid": "Q30"
      }
    },
    {
      "type": "Feature",
      "geometry": {
        "type": "Point",
        "coordinates": [
          -70.898611111,
          41.802777777
        ]
      },
      "properties": {
        "label": "Great Quittacas Pond",
        "type": "Reservoir",
        "entity": "http://www.wikidata.org/entity/Q5599820",
        "country_qid": "Q30"
      }
    },
    {
      "type": "Feature",
      "geometry": {
        "type": "Point",
        "coordinates": [
          -76.1685,
          43.0258
        ]
      },
      "properties": {
        "label": "Hiawatha Lake",
        "type": "Reservoir",
        "entity": "http://www.wikidata.org/entity/Q5750570",
        "country_qid": "Q30"
      }
    },
    {
      "type": "Feature",
      "geometry": {
        "type": "Point",
        "coordinates": [
          -73.8692,
          40.9122
        ]
      },
      "properties": {
        "label": "Hillview Reservoir",
        "type": "Reservoir",
        "entity": "http://www.wikidata.org/entity/Q5764166",
        "country_qid": "Q30"
      }
    },
    {
      "type": "Feature",
      "geometry": {
        "type": "Point",
        "coordinates": [
          -86.5196413,
          39.2014185
        ]
      },
      "properties": {
        "label": "Griffy Lake",
        "type": "Reservoir",
        "entity": "http://www.wikidata.org/entity/Q5608957",
        "country_qid": "Q30"
      }
    },
    {
      "type": "Feature",
      "geometry": {
        "type": "Point",
        "coordinates": [
          -85.079,
          32.609
        ]
      },
      "properties": {
        "label": "Goat Rock Lake",
        "type": "Reservoir",
        "entity": "http://www.wikidata.org/entity/Q5575325",
        "country_qid": "Q30"
      }
    },
    {
      "type": "Feature",
      "geometry": {
        "type": "Point",
        "coordinates": [
          -74.4533,
          40.4486
        ]
      },
      "properties": {
        "label": "Farrington Lake",
        "type": "Reservoir",
        "entity": "http://www.wikidata.org/entity/Q5436302",
        "country_qid": "Q30"
      }
    },
    {
      "type": "Feature",
      "geometry": {
        "type": "Point",
        "coordinates": [
          -106.748,
          36.605
        ]
      },
      "properties": {
        "label": "El Vado Lake",
        "type": "Reservoir",
        "entity": "http://www.wikidata.org/entity/Q5352314",
        "country_qid": "Q30"
      }
    },
    {
      "type": "Feature",
      "geometry": {
        "type": "Point",
        "coordinates": [
          -84.8738,
          38.4983
        ]
      },
      "properties": {
        "label": "Elmer Davis Lake",
        "type": "Reservoir",
        "entity": "http://www.wikidata.org/entity/Q5366519",
        "country_qid": "Q30"
      }
    },
    {
      "type": "Feature",
      "geometry": {
        "type": "Point",
        "coordinates": [
          -71.952777777,
          43.098333333
        ]
      },
      "properties": {
        "label": "Franklin Pierce Lake",
        "type": "Reservoir",
        "entity": "http://www.wikidata.org/entity/Q5491753",
        "country_qid": "Q30"
      }
    },
    {
      "type": "Feature",
      "geometry": {
        "type": "Point",
        "coordinates": [
          -111.9338095,
          39.9502048
        ]
      },
      "properties": {
        "label": "Goshen Reservoir",
        "type": "Reservoir",
        "entity": "http://www.wikidata.org/entity/Q5587279",
        "country_qid": "Q30"
      }
    },
    {
      "type": "Feature",
      "geometry": {
        "type": "Point",
        "coordinates": [
          -96.823055555,
          37.847222222
        ]
      },
      "properties": {
        "label": "El Dorado Lake",
        "type": "Reservoir",
        "entity": "http://www.wikidata.org/entity/Q5351188",
        "country_qid": "Q30"
      }
    },
    {
      "type": "Feature",
      "geometry": {
        "type": "Point",
        "coordinates": [
          -80.074722222,
          35.395277777
        ]
      },
      "properties": {
        "label": "Falls Reservoir",
        "type": "Reservoir",
        "entity": "http://www.wikidata.org/entity/Q5432488",
        "country_qid": "Q30"
      }
    },
    {
      "type": "Feature",
      "geometry": {
        "type": "Point",
        "coordinates": [
          -97.499555555,
          32.89875
        ]
      },
      "properties": {
        "label": "Eagle Mountain Lake",
        "type": "Reservoir",
        "entity": "http://www.wikidata.org/entity/Q5325169",
        "country_qid": "Q30"
      }
    },
    {
      "type": "Feature",
      "geometry": {
        "type": "Point",
        "coordinates": [
          -75.1861,
          41.3972
        ]
      },
      "properties": {
        "label": "Fairview Lake",
        "type": "Reservoir",
        "entity": "http://www.wikidata.org/entity/Q5430829",
        "country_qid": "Q30"
      }
    },
    {
      "type": "Feature",
      "geometry": {
        "type": "Point",
        "coordinates": [
          -71.5454,
          42.3684
        ]
      },
      "properties": {
        "label": "Fort Meadow Reservoir",
        "type": "Reservoir",
        "entity": "http://www.wikidata.org/entity/Q5471668",
        "country_qid": "Q30"
      }
    },
    {
      "type": "Feature",
      "geometry": {
        "type": "Point",
        "coordinates": [
          -71.143611111,
          42.329166666
        ]
      },
      "properties": {
        "label": "Fisher Hill Reservoir",
        "type": "Reservoir",
        "entity": "http://www.wikidata.org/entity/Q5454806",
        "country_qid": "Q30"
      }
    },
    {
      "type": "Feature",
      "geometry": {
        "type": "Point",
        "coordinates": [
          -85.111,
          31.259
        ]
      },
      "properties": {
        "label": "George W. Andrews Lake",
        "type": "Reservoir",
        "entity": "http://www.wikidata.org/entity/Q5545525",
        "country_qid": "Q30"
      }
    },
    {
      "type": "Feature",
      "geometry": {
        "type": "Point",
        "coordinates": [
          -87.8022,
          46.4428
        ]
      },
      "properties": {
        "label": "Greenwood Reservoir",
        "type": "Reservoir",
        "entity": "http://www.wikidata.org/entity/Q5605060",
        "country_qid": "Q30"
      }
    },
    {
      "type": "Feature",
      "geometry": {
        "type": "Point",
        "coordinates": [
          -82.3839,
          38.145
        ]
      },
      "properties": {
        "label": "East Lynn Lake",
        "type": "Reservoir",
        "entity": "http://www.wikidata.org/entity/Q5328898",
        "country_qid": "Q30"
      }
    },
    {
      "type": "Feature",
      "geometry": {
        "type": "Point",
        "coordinates": [
          -111.22,
          39.6051
        ]
      },
      "properties": {
        "label": "Electric Lake",
        "type": "Reservoir",
        "entity": "http://www.wikidata.org/entity/Q5357416",
        "country_qid": "Q30"
      }
    },
    {
      "type": "Feature",
      "geometry": {
        "type": "Point",
        "coordinates": [
          -72.1382392,
          44.2939589
        ]
      },
      "properties": {
        "label": "Harvey's Lake",
        "type": "Reservoir",
        "entity": "http://www.wikidata.org/entity/Q5676953",
        "country_qid": "Q30"
      }
    },
    {
      "type": "Feature",
      "geometry": {
        "type": "Point",
        "coordinates": [
          -123.203438888,
          45.47345
        ]
      },
      "properties": {
        "label": "Henry Hagg Lake",
        "type": "Reservoir",
        "entity": "http://www.wikidata.org/entity/Q5722434",
        "country_qid": "Q30"
      }
    },
    {
      "type": "Feature",
      "geometry": {
        "type": "Point",
        "coordinates": [
          -83.789888,
          35.451577
        ]
      },
      "properties": {
        "label": "Fontana Lake",
        "type": "Reservoir",
        "entity": "http://www.wikidata.org/entity/Q5465129",
        "country_qid": "Q30"
      }
    },
    {
      "type": "Feature",
      "geometry": {
        "type": "Point",
        "coordinates": [
          -110.066666666,
          42.033333333
        ]
      },
      "properties": {
        "label": "Fontenelle Reservoir",
        "type": "Reservoir",
        "entity": "http://www.wikidata.org/entity/Q5465178",
        "country_qid": "Q30"
      }
    },
    {
      "type": "Feature",
      "geometry": {
        "type": "Point",
        "coordinates": [
          -121.270277777,
          39.240277777
        ]
      },
      "properties": {
        "label": "Englebright Lake",
        "type": "Reservoir",
        "entity": "http://www.wikidata.org/entity/Q5378080",
        "country_qid": "Q30"
      }
    },
    {
      "type": "Feature",
      "geometry": {
        "type": "Point",
        "coordinates": [
          -73.933611111,
          40.8425
        ]
      },
      "properties": {
        "label": "Highbridge Reservoir",
        "type": "Reservoir",
        "entity": "http://www.wikidata.org/entity/Q5757847",
        "country_qid": "Q30"
      }
    },
    {
      "type": "Feature",
      "geometry": {
        "type": "Point",
        "coordinates": [
          -85.1414,
          38.2072
        ]
      },
      "properties": {
        "label": "Guist Creek Lake",
        "type": "Reservoir",
        "entity": "http://www.wikidata.org/entity/Q5616691",
        "country_qid": "Q30"
      }
    },
    {
      "type": "Feature",
      "geometry": {
        "type": "Point",
        "coordinates": [
          -96.734444444,
          29.93
        ]
      },
      "properties": {
        "label": "Fayette County Reservoir",
        "type": "Reservoir",
        "entity": "http://www.wikidata.org/entity/Q5439019",
        "country_qid": "Q30"
      }
    },
    {
      "type": "Feature",
      "geometry": {
        "type": "Point",
        "coordinates": [
          -99.290555555,
          40.063055555
        ]
      },
      "properties": {
        "label": "Harlan County Reservoir",
        "type": "Reservoir",
        "entity": "http://www.wikidata.org/entity/Q5658289",
        "country_qid": "Q30"
      }
    },
    {
      "type": "Feature",
      "geometry": {
        "type": "Point",
        "coordinates": [
          -109.834444444,
          32.753888888
        ]
      },
      "properties": {
        "label": "Frye Mesa Reservoir",
        "type": "Reservoir",
        "entity": "http://www.wikidata.org/entity/Q5506592",
        "country_qid": "Q30"
      }
    },
    {
      "type": "Feature",
      "geometry": {
        "type": "Point",
        "coordinates": [
          -83.862524,
          44.983797
        ]
      },
      "properties": {
        "label": "Fletcher Pond",
        "type": "Reservoir",
        "entity": "http://www.wikidata.org/entity/Q5458814",
        "country_qid": "Q30"
      }
    },
    {
      "type": "Feature",
      "geometry": {
        "type": "Point",
        "coordinates": [
          -120.06,
          38.92
        ]
      },
      "properties": {
        "label": "Fallen Leaf Lake",
        "type": "Reservoir",
        "entity": "http://www.wikidata.org/entity/Q5432253",
        "country_qid": "Q30"
      }
    },
    {
      "type": "Feature",
      "geometry": {
        "type": "Point",
        "coordinates": [
          -121.587222222,
          39.147777777
        ]
      },
      "properties": {
        "label": "Ellis Lake",
        "type": "Reservoir",
        "entity": "http://www.wikidata.org/entity/Q5365931",
        "country_qid": "Q30"
      }
    },
    {
      "type": "Feature",
      "geometry": {
        "type": "Point",
        "coordinates": [
          -88.0932,
          40.5291
        ]
      },
      "properties": {
        "label": "Bayles Lake",
        "type": "Reservoir",
        "entity": "http://www.wikidata.org/entity/Q4874563",
        "country_qid": "Q30"
      }
    },
    {
      "type": "Feature",
      "geometry": {
        "type": "Point",
        "coordinates": [
          -111.2054235,
          34.5383114
        ]
      },
      "properties": {
        "label": "Blue Ridge Reservoir",
        "type": "Reservoir",
        "entity": "http://www.wikidata.org/entity/Q4929737",
        "country_qid": "Q30"
      }
    },
    {
      "type": "Feature",
      "geometry": {
        "type": "Point",
        "coordinates": [
          -122.2292616,
          46.7733623
        ]
      },
      "properties": {
        "label": "Alder Lake",
        "type": "Reservoir",
        "entity": "http://www.wikidata.org/entity/Q4713623",
        "country_qid": "Q30"
      }
    },
    {
      "type": "Feature",
      "geometry": {
        "type": "Point",
        "coordinates": [
          -118.3799,
          34.5819
        ]
      },
      "properties": {
        "label": "Bouquet Reservoir",
        "type": "Reservoir",
        "entity": "http://www.wikidata.org/entity/Q4950070",
        "country_qid": "Q30"
      }
    },
    {
      "type": "Feature",
      "geometry": {
        "type": "Point",
        "coordinates": [
          -80.885833333,
          37.640277777
        ]
      },
      "properties": {
        "label": "Bluestone Lake",
        "type": "Reservoir",
        "entity": "http://www.wikidata.org/entity/Q4930580",
        "country_qid": "Q30"
      }
    },
    {
      "type": "Feature",
      "geometry": {
        "type": "Point",
        "coordinates": [
          -73.931388888,
          42.467777777
        ]
      },
      "properties": {
        "label": "Alcove Reservoir",
        "type": "Reservoir",
        "entity": "http://www.wikidata.org/entity/Q4713374",
        "country_qid": "Q30"
      }
    },
    {
      "type": "Feature",
      "geometry": {
        "type": "Point",
        "coordinates": [
          -91.2177,
          43.3992
        ]
      },
      "properties": {
        "label": "Big Lake",
        "type": "Reservoir",
        "entity": "http://www.wikidata.org/entity/Q4905946",
        "country_qid": "Q30"
      }
    },
    {
      "type": "Feature",
      "geometry": {
        "type": "Point",
        "coordinates": [
          -88.52,
          33.83
        ]
      },
      "properties": {
        "label": "Aberdeen Lake",
        "type": "Reservoir",
        "entity": "http://www.wikidata.org/entity/Q4666943",
        "country_qid": "Q30"
      }
    },
    {
      "type": "Feature",
      "geometry": {
        "type": "Point",
        "coordinates": [
          -90.122222222,
          34.761666666
        ]
      },
      "properties": {
        "label": "Arkabutla Lake",
        "type": "Reservoir",
        "entity": "http://www.wikidata.org/entity/Q4791648",
        "country_qid": "Q30"
      }
    },
    {
      "type": "Feature",
      "geometry": {
        "type": "Point",
        "coordinates": [
          -103.4342537,
          43.3058169
        ]
      },
      "properties": {
        "label": "Angostura Reservoir",
        "type": "Reservoir",
        "entity": "http://www.wikidata.org/entity/Q4763871",
        "country_qid": "Q30"
      }
    },
    {
      "type": "Feature",
      "geometry": {
        "type": "Point",
        "coordinates": [
          -74.014722222,
          42.4775
        ]
      },
      "properties": {
        "label": "Basic Creek Reservoir",
        "type": "Reservoir",
        "entity": "http://www.wikidata.org/entity/Q4866949",
        "country_qid": "Q30"
      }
    },
    {
      "type": "Feature",
      "geometry": {
        "type": "Point",
        "coordinates": [
          -122.33,
          44.1721
        ]
      },
      "properties": {
        "label": "Blue River Reservoir",
        "type": "Reservoir",
        "entity": "http://www.wikidata.org/entity/Q4929778",
        "country_qid": "Q30"
      }
    },
    {
      "type": "Feature",
      "geometry": {
        "type": "Point",
        "coordinates": [
          -94.689166666,
          34.180277777
        ]
      },
      "properties": {
        "label": "Broken Bow Lake",
        "type": "Reservoir",
        "entity": "http://www.wikidata.org/entity/Q4973329",
        "country_qid": "Q30"
      }
    },
    {
      "type": "Feature",
      "geometry": {
        "type": "Point",
        "coordinates": [
          -95.4581,
          37.2866
        ]
      },
      "properties": {
        "label": "Big Hill Lake",
        "type": "Reservoir",
        "entity": "http://www.wikidata.org/entity/Q4905822",
        "country_qid": "Q30"
      }
    },
    {
      "type": "Feature",
      "geometry": {
        "type": "Point",
        "coordinates": [
          -95.1333,
          29.8861
        ]
      },
      "properties": {
        "label": "Buckhorn Lake",
        "type": "Reservoir",
        "entity": "http://www.wikidata.org/entity/Q4983158",
        "country_qid": "Q30"
      }
    },
    {
      "type": "Feature",
      "geometry": {
        "type": "Point",
        "coordinates": [
          -99.418166666,
          31.139666666
        ]
      },
      "properties": {
        "label": "Brady Creek Reservoir",
        "type": "Reservoir",
        "entity": "http://www.wikidata.org/entity/Q4955178",
        "country_qid": "Q30"
      }
    },
    {
      "type": "Feature",
      "geometry": {
        "type": "Point",
        "coordinates": [
          -120.095,
          39.3901
        ]
      },
      "properties": {
        "label": "Boca Reservoir",
        "type": "Reservoir",
        "entity": "http://www.wikidata.org/entity/Q4936110",
        "country_qid": "Q30"
      }
    },
    {
      "type": "Feature",
      "geometry": {
        "type": "Point",
        "coordinates": [
          -79.3203,
          38.4656
        ]
      },
      "properties": {
        "label": "Brushy Fork Lake",
        "type": "Reservoir",
        "entity": "http://www.wikidata.org/entity/Q4979749",
        "country_qid": "Q30"
      }
    },
    {
      "type": "Feature",
      "geometry": {
        "type": "Point",
        "coordinates": [
          -97.203333333,
          31.909444444
        ]
      },
      "properties": {
        "label": "Aquilla Lake",
        "type": "Reservoir",
        "entity": "http://www.wikidata.org/entity/Q4782953",
        "country_qid": "Q30"
      }
    },
    {
      "type": "Feature",
      "geometry": {
        "type": "Point",
        "coordinates": [
          -70.6842,
          41.9278
        ]
      },
      "properties": {
        "label": "Briggs Reservoir",
        "type": "Reservoir",
        "entity": "http://www.wikidata.org/entity/Q4967275",
        "country_qid": "Q30"
      }
    },
    {
      "type": "Feature",
      "geometry": {
        "type": "Point",
        "coordinates": [
          -121.600833333,
          37.770833333
        ]
      },
      "properties": {
        "label": "Bethany Reservoir",
        "type": "Reservoir",
        "entity": "http://www.wikidata.org/entity/Q4897774",
        "country_qid": "Q30"
      }
    },
    {
      "type": "Feature",
      "geometry": {
        "type": "Point",
        "coordinates": [
          -74.1204,
          40.1272
        ]
      },
      "properties": {
        "label": "Brick Township Reservoir",
        "type": "Reservoir",
        "entity": "http://www.wikidata.org/entity/Q4965952",
        "country_qid": "Q30"
      }
    },
    {
      "type": "Feature",
      "geometry": {
        "type": "Point",
        "coordinates": [
          -119.253,
          37.1611
        ]
      },
      "properties": {
        "label": "Balsam Forebay",
        "type": "Reservoir",
        "entity": "http://www.wikidata.org/entity/Q4852532",
        "country_qid": "Q30"
      }
    },
    {
      "type": "Feature",
      "geometry": {
        "type": "Point",
        "coordinates": [
          -75.87,
          40.356111111
        ]
      },
      "properties": {
        "label": "Antietam Lake",
        "type": "Reservoir",
        "entity": "http://www.wikidata.org/entity/Q4774716",
        "country_qid": "Q30"
      }
    },
    {
      "type": "Feature",
      "geometry": {
        "type": "Point",
        "coordinates": [
          -74.216666666,
          41.95
        ]
      },
      "properties": {
        "label": "Ashokan Reservoir",
        "type": "Reservoir",
        "entity": "http://www.wikidata.org/entity/Q4805816",
        "country_qid": "Q30"
      }
    },
    {
      "type": "Feature",
      "geometry": {
        "type": "Point",
        "coordinates": [
          -99.819833333,
          28.8
        ]
      },
      "properties": {
        "label": "Averhoff Reservoir",
        "type": "Reservoir",
        "entity": "http://www.wikidata.org/entity/Q4828306",
        "country_qid": "Q30"
      }
    },
    {
      "type": "Feature",
      "geometry": {
        "type": "Point",
        "coordinates": [
          -99.2,
          26.65
        ]
      },
      "properties": {
        "label": "Falcon International Reservoir",
        "type": "Reservoir",
        "entity": "http://www.wikidata.org/entity/Q4967120",
        "country_qid": "Q30"
      }
    },
    {
      "type": "Feature",
      "geometry": {
        "type": "Point",
        "coordinates": [
          -120.651,
          41.6042
        ]
      },
      "properties": {
        "label": "Big Sage Reservoir",
        "type": "Reservoir",
        "entity": "http://www.wikidata.org/entity/Q4906259",
        "country_qid": "Q30"
      }
    },
    {
      "type": "Feature",
      "geometry": {
        "type": "Point",
        "coordinates": [
          -70.826944444,
          42.206944444
        ]
      },
      "properties": {
        "label": "Aaron River Reservoir",
        "type": "Reservoir",
        "entity": "http://www.wikidata.org/entity/Q4662367",
        "country_qid": "Q30"
      }
    },
    {
      "type": "Feature",
      "geometry": {
        "type": "Point",
        "coordinates": [
          -80.0375,
          36.299
        ]
      },
      "properties": {
        "label": "Belews Lake",
        "type": "Reservoir",
        "entity": "http://www.wikidata.org/entity/Q4882216",
        "country_qid": "Q30"
      }
    },
    {
      "type": "Feature",
      "geometry": {
        "type": "Point",
        "coordinates": [
          -74.0899,
          41.4761
        ]
      },
      "properties": {
        "label": "Browns Pond",
        "type": "Reservoir",
        "entity": "http://www.wikidata.org/entity/Q4976673",
        "country_qid": "Q30"
      }
    },
    {
      "type": "Feature",
      "geometry": {
        "type": "Point",
        "coordinates": [
          -84.6143,
          38.7036
        ]
      },
      "properties": {
        "label": "Boltz Lake",
        "type": "Reservoir",
        "entity": "http://www.wikidata.org/entity/Q4940264",
        "country_qid": "Q30"
      }
    },
    {
      "type": "Feature",
      "geometry": {
        "type": "Point",
        "coordinates": [
          -117.236,
          42.9067
        ]
      },
      "properties": {
        "label": "Antelope Reservoir",
        "type": "Reservoir",
        "entity": "http://www.wikidata.org/entity/Q4771176",
        "country_qid": "Q30"
      }
    },
    {
      "type": "Feature",
      "geometry": {
        "type": "Point",
        "coordinates": [
          -106.431,
          36.24
        ]
      },
      "properties": {
        "label": "Abiquiu Lake",
        "type": "Reservoir",
        "entity": "http://www.wikidata.org/entity/Q4667899",
        "country_qid": "Q30"
      }
    },
    {
      "type": "Feature",
      "geometry": {
        "type": "Point",
        "coordinates": [
          -115.036,
          32.716
        ]
      },
      "properties": {
        "label": "Brock Reservoir",
        "type": "Reservoir",
        "entity": "http://www.wikidata.org/entity/Q4972750",
        "country_qid": "Q30"
      }
    },
    {
      "type": "Feature",
      "geometry": {
        "type": "Point",
        "coordinates": [
          -104.389,
          32.5762
        ]
      },
      "properties": {
        "label": "Brantley Lake",
        "type": "Reservoir",
        "entity": "http://www.wikidata.org/entity/Q4957685",
        "country_qid": "Q30"
      }
    },
    {
      "type": "Feature",
      "geometry": {
        "type": "Point",
        "coordinates": [
          -121.629,
          48.7289
        ]
      },
      "properties": {
        "label": "Baker Lake",
        "type": "Reservoir",
        "entity": "http://www.wikidata.org/entity/Q4849177",
        "country_qid": "Q30"
      }
    },
    {
      "type": "Feature",
      "geometry": {
        "type": "Point",
        "coordinates": [
          -106.666666666,
          47.778055555
        ]
      },
      "properties": {
        "label": "Fort Peck Lake",
        "type": "Reservoir",
        "entity": "http://www.wikidata.org/entity/Q4492006",
        "country_qid": "Q30"
      }
    },
    {
      "type": "Feature",
      "geometry": {
        "type": "Point",
        "coordinates": [
          -81.2847,
          40.5267
        ]
      },
      "properties": {
        "label": "Atwood Lake",
        "type": "Reservoir",
        "entity": "http://www.wikidata.org/entity/Q4818871",
        "country_qid": "Q30"
      }
    },
    {
      "type": "Feature",
      "geometry": {
        "type": "Point",
        "coordinates": [
          -96.9404,
          35.7365
        ]
      },
      "properties": {
        "label": "Bellcow Lake",
        "type": "Reservoir",
        "entity": "http://www.wikidata.org/entity/Q4883576",
        "country_qid": "Q30"
      }
    },
    {
      "type": "Feature",
      "geometry": {
        "type": "Point",
        "coordinates": [
          -122.611111111,
          37.955833333
        ]
      },
      "properties": {
        "label": "Bon Tempe Lake",
        "type": "Reservoir",
        "entity": "http://www.wikidata.org/entity/Q4941016",
        "country_qid": "Q30"
      }
    },
    {
      "type": "Feature",
      "geometry": {
        "type": "Point",
        "coordinates": [
          -93.701,
          35.1014
        ]
      },
      "properties": {
        "label": "Blue Mountain Lake",
        "type": "Reservoir",
        "entity": "http://www.wikidata.org/entity/Q4929522",
        "country_qid": "Q30"
      }
    },
    {
      "type": "Feature",
      "geometry": {
        "type": "Point",
        "coordinates": [
          -135.163,
          57.0733
        ]
      },
      "properties": {
        "label": "Blue Lake",
        "type": "Reservoir",
        "entity": "http://www.wikidata.org/entity/Q4929324",
        "country_qid": "Q30"
      }
    },
    {
      "type": "Feature",
      "geometry": {
        "type": "Point",
        "coordinates": [
          -73.585805555,
          41.415666666
        ]
      },
      "properties": {
        "label": "Bog Brook Reservoir",
        "type": "Reservoir",
        "entity": "http://www.wikidata.org/entity/Q4937306",
        "country_qid": "Q30"
      }
    },
    {
      "type": "Feature",
      "geometry": {
        "type": "Point",
        "coordinates": [
          -97.4725,
          31.108611111
        ]
      },
      "properties": {
        "label": "Belton Lake",
        "type": "Reservoir",
        "entity": "http://www.wikidata.org/entity/Q4884777",
        "country_qid": "Q30"
      }
    },
    {
      "type": "Feature",
      "geometry": {
        "type": "Point",
        "coordinates": [
          -95.6236,
          29.7908
        ]
      },
      "properties": {
        "label": "Addicks Reservoir",
        "type": "Reservoir",
        "entity": "http://www.wikidata.org/entity/Q4681073",
        "country_qid": "Q30"
      }
    },
    {
      "type": "Feature",
      "geometry": {
        "type": "Point",
        "coordinates": [
          -83.4708,
          37.3394
        ]
      },
      "properties": {
        "label": "Buckhorn Lake",
        "type": "Reservoir",
        "entity": "http://www.wikidata.org/entity/Q4983157",
        "country_qid": "Q30"
      }
    },
    {
      "type": "Feature",
      "geometry": {
        "type": "Point",
        "coordinates": [
          -70.5619,
          41.875
        ]
      },
      "properties": {
        "label": "Briggs Reservoir",
        "type": "Reservoir",
        "entity": "http://www.wikidata.org/entity/Q4967273",
        "country_qid": "Q30"
      }
    },
    {
      "type": "Feature",
      "geometry": {
        "type": "Point",
        "coordinates": [
          -87.987777777,
          34.398611111
        ]
      },
      "properties": {
        "label": "Bear Creek Reservoir",
        "type": "Reservoir",
        "entity": "http://www.wikidata.org/entity/Q4876409",
        "country_qid": "Q30"
      }
    },
    {
      "type": "Feature",
      "geometry": {
        "type": "Point",
        "coordinates": [
          -121.16166667,
          39.88472222
        ]
      },
      "properties": {
        "label": "Bucks Lake",
        "type": "Reservoir",
        "entity": "http://www.wikidata.org/entity/Q4983476",
        "country_qid": "Q30"
      }
    },
    {
      "type": "Feature",
      "geometry": {
        "type": "Point",
        "coordinates": [
          -73.3191,
          41.2384
        ]
      },
      "properties": {
        "label": "Aspetuck Reservoir",
        "type": "Reservoir",
        "entity": "http://www.wikidata.org/entity/Q4807936",
        "country_qid": "Q30"
      }
    },
    {
      "type": "Feature",
      "geometry": {
        "type": "Point",
        "coordinates": [
          -73.7511,
          41.4587
        ]
      },
      "properties": {
        "label": "Boyds Corner Reservoir",
        "type": "Reservoir",
        "entity": "http://www.wikidata.org/entity/Q4952419",
        "country_qid": "Q30"
      }
    },
    {
      "type": "Feature",
      "geometry": {
        "type": "Point",
        "coordinates": [
          -79.003888888,
          41.837777777
        ]
      },
      "properties": {
        "label": "Allegheny Reservoir",
        "type": "Reservoir",
        "entity": "http://www.wikidata.org/entity/Q4731332",
        "country_qid": "Q30"
      }
    },
    {
      "type": "Feature",
      "geometry": {
        "type": "Point",
        "coordinates": [
          -97.216666666,
          32.366666666
        ]
      },
      "properties": {
        "label": "Alvarado Park Lake",
        "type": "Reservoir",
        "entity": "http://www.wikidata.org/entity/Q4737878",
        "country_qid": "Q30"
      }
    },
    {
      "type": "Feature",
      "geometry": {
        "type": "Point",
        "coordinates": [
          -122.205,
          37.915
        ]
      },
      "properties": {
        "label": "Briones Reservoir",
        "type": "Reservoir",
        "entity": "http://www.wikidata.org/entity/Q4968501",
        "country_qid": "Q30"
      }
    },
    {
      "type": "Feature",
      "geometry": {
        "type": "Point",
        "coordinates": [
          -80.092777777,
          35.419722222
        ]
      },
      "properties": {
        "label": "Badin Lake",
        "type": "Reservoir",
        "entity": "http://www.wikidata.org/entity/Q4840950",
        "country_qid": "Q30"
      }
    },
    {
      "type": "Feature",
      "geometry": {
        "type": "Point",
        "coordinates": [
          -71.213888888,
          42.825555555
        ]
      },
      "properties": {
        "label": "Arlington Mill Reservoir",
        "type": "Reservoir",
        "entity": "http://www.wikidata.org/entity/Q4792366",
        "country_qid": "Q30"
      }
    },
    {
      "type": "Feature",
      "geometry": {
        "type": "Point",
        "coordinates": [
          -83.8,
          44.5625
        ]
      },
      "properties": {
        "label": "Alcona Dam Pond",
        "type": "Reservoir",
        "entity": "http://www.wikidata.org/entity/Q4713348",
        "country_qid": "Q30"
      }
    },
    {
      "type": "Feature",
      "geometry": {
        "type": "Point",
        "coordinates": [
          -122.77,
          42.4108
        ]
      },
      "properties": {
        "label": "Agate Lake",
        "type": "Reservoir",
        "entity": "http://www.wikidata.org/entity/Q4691483",
        "country_qid": "Q30"
      }
    },
    {
      "type": "Feature",
      "geometry": {
        "type": "Point",
        "coordinates": [
          -123.114444444,
          42.054722222
        ]
      },
      "properties": {
        "label": "Applegate Lake",
        "type": "Reservoir",
        "entity": "http://www.wikidata.org/entity/Q4781341",
        "country_qid": "Q30"
      }
    },
    {
      "type": "Feature",
      "geometry": {
        "type": "Point",
        "coordinates": [
          -71.717777777,
          43.597777777
        ]
      },
      "properties": {
        "label": "Ayers Island Reservoir",
        "type": "Reservoir",
        "entity": "http://www.wikidata.org/entity/Q4831188",
        "country_qid": "Q30"
      }
    },
    {
      "type": "Feature",
      "geometry": {
        "type": "Point",
        "coordinates": [
          -87.353,
          33.461
        ]
      },
      "properties": {
        "label": "Bankhead Lake",
        "type": "Reservoir",
        "entity": "http://www.wikidata.org/entity/Q4856292",
        "country_qid": "Q30"
      }
    },
    {
      "type": "Feature",
      "geometry": {
        "type": "Point",
        "coordinates": [
          -111.2516488,
          31.5297796
        ]
      },
      "properties": {
        "label": "Arivaca Lake",
        "type": "Reservoir",
        "entity": "http://www.wikidata.org/entity/Q4791155",
        "country_qid": "Q30"
      }
    },
    {
      "type": "Feature",
      "geometry": {
        "type": "Point",
        "coordinates": [
          -93.0466,
          31.9574
        ]
      },
      "properties": {
        "label": "Black Lake",
        "type": "Reservoir",
        "entity": "http://www.wikidata.org/entity/Q4921136",
        "country_qid": "Q30"
      }
    },
    {
      "type": "Feature",
      "geometry": {
        "type": "Point",
        "coordinates": [
          -88.284722222,
          33.238888888
        ]
      },
      "properties": {
        "label": "Aliceville Lake",
        "type": "Reservoir",
        "entity": "http://www.wikidata.org/entity/Q4726213",
        "country_qid": "Q30"
      }
    },
    {
      "type": "Feature",
      "geometry": {
        "type": "Point",
        "coordinates": [
          -88.34,
          30.712222222
        ]
      },
      "properties": {
        "label": "Big Creek Lake",
        "type": "Reservoir",
        "entity": "http://www.wikidata.org/entity/Q4905500",
        "country_qid": "Q30"
      }
    },
    {
      "type": "Feature",
      "geometry": {
        "type": "Point",
        "coordinates": [
          -122.357777777,
          39.805833333
        ]
      },
      "properties": {
        "label": "Black Butte Lake",
        "type": "Reservoir",
        "entity": "http://www.wikidata.org/entity/Q4920462",
        "country_qid": "Q30"
      }
    },
    {
      "type": "Feature",
      "geometry": {
        "type": "Point",
        "coordinates": [
          -88.316,
          34.571
        ]
      },
      "properties": {
        "label": "Bay Springs Lake",
        "type": "Reservoir",
        "entity": "http://www.wikidata.org/entity/Q4874102",
        "country_qid": "Q30"
      }
    },
    {
      "type": "Feature",
      "geometry": {
        "type": "Point",
        "coordinates": [
          -104.661111111,
          39.619166666
        ]
      },
      "properties": {
        "label": "Aurora Reservoir",
        "type": "Reservoir",
        "entity": "http://www.wikidata.org/entity/Q4822600",
        "country_qid": "Q30"
      }
    },
    {
      "type": "Feature",
      "geometry": {
        "type": "Point",
        "coordinates": [
          -78.12,
          35.691388888
        ]
      },
      "properties": {
        "label": "Buckhorn Reservoir",
        "type": "Reservoir",
        "entity": "http://www.wikidata.org/entity/Q4983162",
        "country_qid": "Q30"
      }
    },
    {
      "type": "Feature",
      "geometry": {
        "type": "Point",
        "coordinates": [
          -78.8033,
          35.6419
        ]
      },
      "properties": {
        "label": "Bass Lake",
        "type": "Reservoir",
        "entity": "http://www.wikidata.org/entity/Q4867931",
        "country_qid": "Q30"
      }
    },
    {
      "type": "Feature",
      "geometry": {
        "type": "Point",
        "coordinates": [
          -82.5144,
          39.9214
        ]
      },
      "properties": {
        "label": "Buckeye Lake",
        "type": "Reservoir",
        "entity": "http://www.wikidata.org/entity/Q4983082",
        "country_qid": "Q30"
      }
    },
    {
      "type": "Feature",
      "geometry": {
        "type": "Point",
        "coordinates": [
          -73.738888888,
          41.304166666
        ]
      },
      "properties": {
        "label": "Amawalk Reservoir",
        "type": "Reservoir",
        "entity": "http://www.wikidata.org/entity/Q4740698",
        "country_qid": "Q30"
      }
    },
    {
      "type": "Feature",
      "geometry": {
        "type": "Point",
        "coordinates": [
          -74.8858,
          39.757
        ]
      },
      "properties": {
        "label": "Atco Lake",
        "type": "Reservoir",
        "entity": "http://www.wikidata.org/entity/Q4812967",
        "country_qid": "Q30"
      }
    },
    {
      "type": "Feature",
      "geometry": {
        "type": "Point",
        "coordinates": [
          -79.557,
          40.482
        ]
      },
      "properties": {
        "label": "Beaver Run Reservoir",
        "type": "Reservoir",
        "entity": "http://www.wikidata.org/entity/Q4878171",
        "country_qid": "Q30"
      }
    },
    {
      "type": "Feature",
      "geometry": {
        "type": "Point",
        "coordinates": [
          -97.3625,
          35.6445
        ]
      },
      "properties": {
        "label": "Arcadia Lake",
        "type": "Reservoir",
        "entity": "http://www.wikidata.org/entity/Q4785154",
        "country_qid": "Q30"
      }
    },
    {
      "type": "Feature",
      "geometry": {
        "type": "Point",
        "coordinates": [
          -82.3828899,
          38.3159405
        ]
      },
      "properties": {
        "label": "Beech Fork Lake",
        "type": "Reservoir",
        "entity": "http://www.wikidata.org/entity/Q4879576",
        "country_qid": "Q30"
      }
    },
    {
      "type": "Feature",
      "geometry": {
        "type": "Point",
        "coordinates": [
          -109.415,
          33.8847
        ]
      },
      "properties": {
        "label": "Big Lake",
        "type": "Reservoir",
        "entity": "http://www.wikidata.org/entity/Q4905944",
        "country_qid": "Q30"
      }
    },
    {
      "type": "Feature",
      "geometry": {
        "type": "Point",
        "coordinates": [
          -122.226,
          37.4325
        ]
      },
      "properties": {
        "label": "Bear Gulch Reservoir",
        "type": "Reservoir",
        "entity": "http://www.wikidata.org/entity/Q4876441",
        "country_qid": "Q30"
      }
    },
    {
      "type": "Feature",
      "geometry": {
        "type": "Point",
        "coordinates": [
          -113.603,
          34.2322
        ]
      },
      "properties": {
        "label": "Alamo Lake",
        "type": "Reservoir",
        "entity": "http://www.wikidata.org/entity/Q4705968",
        "country_qid": "Q30"
      }
    },
    {
      "type": "Feature",
      "geometry": {
        "type": "Point",
        "coordinates": [
          -85.0224,
          37.9636
        ]
      },
      "properties": {
        "label": "Beaver Lake",
        "type": "Reservoir",
        "entity": "http://www.wikidata.org/entity/Q4878107",
        "country_qid": "Q30"
      }
    },
    {
      "type": "Feature",
      "geometry": {
        "type": "Point",
        "coordinates": [
          -73.9414,
          41.4861
        ]
      },
      "properties": {
        "label": "Beacon Reservoir",
        "type": "Reservoir",
        "entity": "http://www.wikidata.org/entity/Q4875981",
        "country_qid": "Q30"
      }
    },
    {
      "type": "Feature",
      "geometry": {
        "type": "Point",
        "coordinates": [
          -80.4237,
          39.1998
        ]
      },
      "properties": {
        "label": "Buffalo Creek Reservoir",
        "type": "Reservoir",
        "entity": "http://www.wikidata.org/entity/Q4985715",
        "country_qid": "Q30"
      }
    },
    {
      "type": "Feature",
      "geometry": {
        "type": "Point",
        "coordinates": [
          -120.38152,
          44.00583
        ]
      },
      "properties": {
        "label": "Antelope Flat Reservoir",
        "type": "Reservoir",
        "entity": "http://www.wikidata.org/entity/Q4771157",
        "country_qid": "Q30"
      }
    },
    {
      "type": "Feature",
      "geometry": {
        "type": "Point",
        "coordinates": [
          -93.847616666,
          36.421283333
        ]
      },
      "properties": {
        "label": "Beaver Lake",
        "type": "Reservoir",
        "entity": "http://www.wikidata.org/entity/Q4878104",
        "country_qid": "Q30"
      }
    },
    {
      "type": "Feature",
      "geometry": {
        "type": "Point",
        "coordinates": [
          -78.716666666,
          36.016666666
        ]
      },
      "properties": {
        "label": "Falls Lake",
        "type": "Reservoir",
        "entity": "http://www.wikidata.org/entity/Q4491409",
        "country_qid": "Q30"
      }
    },
    {
      "type": "Feature",
      "geometry": {
        "type": "Point",
        "coordinates": [
          -74.756944444,
          44.480277777
        ]
      },
      "properties": {
        "label": "Blake Falls Reservoir",
        "type": "Reservoir",
        "entity": "http://www.wikidata.org/entity/Q4924376",
        "country_qid": "Q30"
      }
    },
    {
      "type": "Feature",
      "geometry": {
        "type": "Point",
        "coordinates": [
          -77.3959021,
          38.5430216
        ]
      },
      "properties": {
        "label": "Breckenridge Reservoir",
        "type": "Reservoir",
        "entity": "http://www.wikidata.org/entity/Q4960039",
        "country_qid": "Q30"
      }
    },
    {
      "type": "Feature",
      "geometry": {
        "type": "Point",
        "coordinates": [
          -119.5510945,
          37.3118795
        ]
      },
      "properties": {
        "label": "Bass Lake",
        "type": "Reservoir",
        "entity": "http://www.wikidata.org/entity/Q4867936",
        "country_qid": "Q30"
      }
    },
    {
      "type": "Feature",
      "geometry": {
        "type": "Point",
        "coordinates": [
          -75.292222222,
          42.352777777
        ]
      },
      "properties": {
        "label": "Buck Horn Lake",
        "type": "Reservoir",
        "entity": "http://www.wikidata.org/entity/Q4982874",
        "country_qid": "Q30"
      }
    },
    {
      "type": "Feature",
      "geometry": {
        "type": "Point",
        "coordinates": [
          -90.005277777,
          32.458055555
        ]
      },
      "properties": {
        "label": "Ross Barnett Reservoir",
        "type": "Reservoir",
        "entity": "http://www.wikidata.org/entity/Q4397897",
        "country_qid": "Q30"
      }
    },
    {
      "type": "Feature",
      "geometry": {
        "type": "Point",
        "coordinates": [
          -121.6190689,
          37.1706316
        ]
      },
      "properties": {
        "label": "Anderson Lake",
        "type": "Reservoir",
        "entity": "http://www.wikidata.org/entity/Q4754159",
        "country_qid": "Q30"
      }
    },
    {
      "type": "Feature",
      "geometry": {
        "type": "Point",
        "coordinates": [
          -97.464444444,
          32.6325
        ]
      },
      "properties": {
        "label": "Benbrook Lake",
        "type": "Reservoir",
        "entity": "http://www.wikidata.org/entity/Q4886891",
        "country_qid": "Q30"
      }
    },
    {
      "type": "Feature",
      "geometry": {
        "type": "Point",
        "coordinates": [
          -70.953611111,
          43.188055555
        ]
      },
      "properties": {
        "label": "Bellamy Reservoir",
        "type": "Reservoir",
        "entity": "http://www.wikidata.org/entity/Q4883453",
        "country_qid": "Q30"
      }
    },
    {
      "type": "Feature",
      "geometry": {
        "type": "Point",
        "coordinates": [
          -105.896,
          38.9883
        ]
      },
      "properties": {
        "label": "Antero Reservoir",
        "type": "Reservoir",
        "entity": "http://www.wikidata.org/entity/Q4771423",
        "country_qid": "Q30"
      }
    },
    {
      "type": "Feature",
      "geometry": {
        "type": "Point",
        "coordinates": [
          -71.910555555,
          42.118333333
        ]
      },
      "properties": {
        "label": "Buffumville Lake",
        "type": "Reservoir",
        "entity": "http://www.wikidata.org/entity/Q4985983",
        "country_qid": "Q30"
      }
    },
    {
      "type": "Feature",
      "geometry": {
        "type": "Point",
        "coordinates": [
          -119.23111111,
          38.28888889
        ]
      },
      "properties": {
        "label": "Bridgeport Reservoir",
        "type": "Reservoir",
        "entity": "http://www.wikidata.org/entity/Q4966608",
        "country_qid": "Q30"
      }
    },
    {
      "type": "Feature",
      "geometry": {
        "type": "Point",
        "coordinates": [
          -86.125,
          36.893055555
        ]
      },
      "properties": {
        "label": "Barren River Lake",
        "type": "Reservoir",
        "entity": "http://www.wikidata.org/entity/Q4863379",
        "country_qid": "Q30"
      }
    },
    {
      "type": "Feature",
      "geometry": {
        "type": "Point",
        "coordinates": [
          -121.828,
          37.1647
        ]
      },
      "properties": {
        "label": "Almaden Reservoir",
        "type": "Reservoir",
        "entity": "http://www.wikidata.org/entity/Q4733644",
        "country_qid": "Q30"
      }
    },
    {
      "type": "Feature",
      "geometry": {
        "type": "Point",
        "coordinates": [
          -77.2961,
          38.7551
        ]
      },
      "properties": {
        "label": "Burke Lake",
        "type": "Reservoir",
        "entity": "http://www.wikidata.org/entity/Q4998945",
        "country_qid": "Q30"
      }
    },
    {
      "type": "Feature",
      "geometry": {
        "type": "Point",
        "coordinates": [
          -87.9267,
          34.5289
        ]
      },
      "properties": {
        "label": "Cedar Creek Reservoir",
        "type": "Reservoir",
        "entity": "http://www.wikidata.org/entity/Q5056637",
        "country_qid": "Q30"
      }
    },
    {
      "type": "Feature",
      "geometry": {
        "type": "Point",
        "coordinates": [
          -107.2961,
          32.925680555
        ]
      },
      "properties": {
        "label": "Caballo Lake",
        "type": "Reservoir",
        "entity": "http://www.wikidata.org/entity/Q5015210",
        "country_qid": "Q30"
      }
    },
    {
      "type": "Feature",
      "geometry": {
        "type": "Point",
        "coordinates": [
          -80.6181,
          38.84
        ]
      },
      "properties": {
        "label": "Burnsville Lake",
        "type": "Reservoir",
        "entity": "http://www.wikidata.org/entity/Q5000176",
        "country_qid": "Q30"
      }
    },
    {
      "type": "Feature",
      "geometry": {
        "type": "Point",
        "coordinates": [
          -121.8226,
          37.4785
        ]
      },
      "properties": {
        "label": "Calaveras Reservoir",
        "type": "Reservoir",
        "entity": "http://www.wikidata.org/entity/Q5018629",
        "country_qid": "Q30"
      }
    },
    {
      "type": "Feature",
      "geometry": {
        "type": "Point",
        "coordinates": [
          -89.352855555,
          38.618938888
        ]
      },
      "properties": {
        "label": "Carlyle Lake",
        "type": "Reservoir",
        "entity": "http://www.wikidata.org/entity/Q5043144",
        "country_qid": "Q30"
      }
    },
    {
      "type": "Feature",
      "geometry": {
        "type": "Point",
        "coordinates": [
          -121.0,
          38.223611111
        ]
      },
      "properties": {
        "label": "Camanche Reservoir",
        "type": "Reservoir",
        "entity": "http://www.wikidata.org/entity/Q5024925",
        "country_qid": "Q30"
      }
    },
    {
      "type": "Feature",
      "geometry": {
        "type": "Point",
        "coordinates": [
          -119.9046,
          38.0013
        ]
      },
      "properties": {
        "label": "Cherry Lake",
        "type": "Reservoir",
        "entity": "http://www.wikidata.org/entity/Q5092411",
        "country_qid": "Q30"
      }
    },
    {
      "type": "Feature",
      "geometry": {
        "type": "Point",
        "coordinates": [
          -98.35,
          28.5
        ]
      },
      "properties": {
        "label": "Choke Canyon Reservoir",
        "type": "Reservoir",
        "entity": "http://www.wikidata.org/entity/Q5104207",
        "country_qid": "Q30"
      }
    },
    {
      "type": "Feature",
      "geometry": {
        "type": "Point",
        "coordinates": [
          -83.003,
          37.235
        ]
      },
      "properties": {
        "label": "Carr Creek Lake",
        "type": "Reservoir",
        "entity": "http://www.wikidata.org/entity/Q5045962",
        "country_qid": "Q30"
      }
    },
    {
      "type": "Feature",
      "geometry": {
        "type": "Point",
        "coordinates": [
          -111.7275,
          46.648611111
        ]
      },
      "properties": {
        "label": "Canyon Ferry Lake",
        "type": "Reservoir",
        "entity": "http://www.wikidata.org/entity/Q5034204",
        "country_qid": "Q30"
      }
    },
    {
      "type": "Feature",
      "geometry": {
        "type": "Point",
        "coordinates": [
          -121.319,
          46.8513
        ]
      },
      "properties": {
        "label": "Bumping Lake",
        "type": "Reservoir",
        "entity": "http://www.wikidata.org/entity/Q4997344",
        "country_qid": "Q30"
      }
    },
    {
      "type": "Feature",
      "geometry": {
        "type": "Point",
        "coordinates": [
          -89.2797,
          37.6399
        ]
      },
      "properties": {
        "label": "Cedar Lake",
        "type": "Reservoir",
        "entity": "http://www.wikidata.org/entity/Q5056789",
        "country_qid": "Q30"
      }
    },
    {
      "type": "Feature",
      "geometry": {
        "type": "Point",
        "coordinates": [
          -111.622,
          40.57
        ]
      },
      "properties": {
        "label": "Cecret Lake",
        "type": "Reservoir",
        "entity": "http://www.wikidata.org/entity/Q5056533",
        "country_qid": "Q30"
      }
    },
    {
      "type": "Feature",
      "geometry": {
        "type": "Point",
        "coordinates": [
          -84.6332,
          34.6072
        ]
      },
      "properties": {
        "label": "Carters Lake",
        "type": "Reservoir",
        "entity": "http://www.wikidata.org/entity/Q5047252",
        "country_qid": "Q30"
      }
    },
    {
      "type": "Feature",
      "geometry": {
        "type": "Point",
        "coordinates": [
          -115.967,
          42.95
        ]
      },
      "properties": {
        "label": "C. J. Strike Reservoir",
        "type": "Reservoir",
        "entity": "http://www.wikidata.org/entity/Q5006583",
        "country_qid": "Q30"
      }
    },
    {
      "type": "Feature",
      "geometry": {
        "type": "Point",
        "coordinates": [
          -79.171388888,
          41.753333333
        ]
      },
      "properties": {
        "label": "Chapman Lake",
        "type": "Reservoir",
        "entity": "http://www.wikidata.org/entity/Q5073298",
        "country_qid": "Q30"
      }
    },
    {
      "type": "Feature",
      "geometry": {
        "type": "Point",
        "coordinates": [
          -79.86989,
          39.67105
        ]
      },
      "properties": {
        "label": "Cheat Lake",
        "type": "Reservoir",
        "entity": "http://www.wikidata.org/entity/Q5088911",
        "country_qid": "Q30"
      }
    },
    {
      "type": "Feature",
      "geometry": {
        "type": "Point",
        "coordinates": [
          -98.24,
          29.8814
        ]
      },
      "properties": {
        "label": "Canyon Lake",
        "type": "Reservoir",
        "entity": "http://www.wikidata.org/entity/Q5034223",
        "country_qid": "Q30"
      }
    },
    {
      "type": "Feature",
      "geometry": {
        "type": "Point",
        "coordinates": [
          -89.9731,
          40.5633
        ]
      },
      "properties": {
        "label": "Canton Lake",
        "type": "Reservoir",
        "entity": "http://www.wikidata.org/entity/Q5033901",
        "country_qid": "Q30"
      }
    },
    {
      "type": "Feature",
      "geometry": {
        "type": "Point",
        "coordinates": [
          -66.105722222,
          18.076627777
        ]
      },
      "properties": {
        "label": "Carite Lake",
        "type": "Reservoir",
        "entity": "http://www.wikidata.org/entity/Q5039729",
        "country_qid": "Q30"
      }
    },
    {
      "type": "Feature",
      "geometry": {
        "type": "Point",
        "coordinates": [
          -121.711,
          37.1225
        ]
      },
      "properties": {
        "label": "Chesbro Reservoir",
        "type": "Reservoir",
        "entity": "http://www.wikidata.org/entity/Q5092902",
        "country_qid": "Q30"
      }
    },
    {
      "type": "Feature",
      "geometry": {
        "type": "Point",
        "coordinates": [
          -79.9498,
          37.3866
        ]
      },
      "properties": {
        "label": "Carvins Cove Natural Reserve",
        "type": "Reservoir",
        "entity": "http://www.wikidata.org/entity/Q5047580",
        "country_qid": "Q30"
      }
    },
    {
      "type": "Feature",
      "geometry": {
        "type": "Point",
        "coordinates": [
          -75.3238,
          42.0883
        ]
      },
      "properties": {
        "label": "Cannonsville Reservoir",
        "type": "Reservoir",
        "entity": "http://www.wikidata.org/entity/Q5032848",
        "country_qid": "Q30"
      }
    },
    {
      "type": "Feature",
      "geometry": {
        "type": "Point",
        "coordinates": [
          -117.396016666,
          44.013216666
        ]
      },
      "properties": {
        "label": "Bully Creek Reservoir",
        "type": "Reservoir",
        "entity": "http://www.wikidata.org/entity/Q4997084",
        "country_qid": "Q30"
      }
    },
    {
      "type": "Feature",
      "geometry": {
        "type": "Point",
        "coordinates": [
          -118.5989731,
          34.526131
        ]
      },
      "properties": {
        "label": "Castaic Lake",
        "type": "Reservoir",
        "entity": "http://www.wikidata.org/entity/Q5049578",
        "country_qid": "Q30"
      }
    },
    {
      "type": "Feature",
      "geometry": {
        "type": "Point",
        "coordinates": [
          -111.587222222,
          41.298333333
        ]
      },
      "properties": {
        "label": "Causey Reservoir",
        "type": "Reservoir",
        "entity": "http://www.wikidata.org/entity/Q5054665",
        "country_qid": "Q30"
      }
    },
    {
      "type": "Feature",
      "geometry": {
        "type": "Point",
        "coordinates": [
          -74.068888888,
          41.565
        ]
      },
      "properties": {
        "label": "Chadwick Lake",
        "type": "Reservoir",
        "entity": "http://www.wikidata.org/entity/Q5066526",
        "country_qid": "Q30"
      }
    },
    {
      "type": "Feature",
      "geometry": {
        "type": "Point",
        "coordinates": [
          -83.4915,
          38.0815
        ]
      },
      "properties": {
        "label": "Cave Run Lake",
        "type": "Reservoir",
        "entity": "http://www.wikidata.org/entity/Q5054916",
        "country_qid": "Q30"
      }
    },
    {
      "type": "Feature",
      "geometry": {
        "type": "Point",
        "coordinates": [
          -122.908055555,
          47.033333333
        ]
      },
      "properties": {
        "label": "Capitol Lake",
        "type": "Reservoir",
        "entity": "http://www.wikidata.org/entity/Q5035898",
        "country_qid": "Q30"
      }
    },
    {
      "type": "Feature",
      "geometry": {
        "type": "Point",
        "coordinates": [
          -84.6448,
          38.793
        ]
      },
      "properties": {
        "label": "Bullock Pen Lake",
        "type": "Reservoir",
        "entity": "http://www.wikidata.org/entity/Q4996988",
        "country_qid": "Q30"
      }
    },
    {
      "type": "Feature",
      "geometry": {
        "type": "Point",
        "coordinates": [
          -83.785,
          34.991
        ]
      },