{
  "type": "FeatureCollection",
  "features": [
    {
      "type": "Feature",
      "geometry": {
        "type": "Point",
        "coordinates": [
          28.95789,
          -20.38701
        ]
      },
      "properties": {
        "label": "Mzingwane Dam",
        "type": "Reservoir",
        "entity": "http://www.wikidata.org/entity/Q6949489",
        "country_qid": "Q954"
      }
    },
    {
      "type": "Feature",
      "geometry": {
        "type": "Point",
        "coordinates": [
          29.979444444,
          -18.085833333
        ]
      },
      "properties": {
        "label": "Suri Suri Dam",
        "type": "Reservoir",
        "entity": "http://www.wikidata.org/entity/Q32025374",
        "country_qid": "Q954"
      }
    },
    {
      "type": "Feature",
      "geometry": {
        "type": "Point",
        "coordinates": [
          28.066666666,
          -17.433055555
        ]
      },
      "properties": {
        "label": "Nabusenga Dam",
        "type": "Reservoir",
        "entity": "http://www.wikidata.org/entity/Q31966083",
        "country_qid": "Q954"
      }
    },
    {
      "type": "Feature",
      "geometry": {
        "type": "Point",
        "coordinates": [
          29.255,
          -20.331666666
        ]
      },
      "properties": {
        "label": "Insiza Dam",
        "type": "Reservoir",
        "entity": "http://www.wikidata.org/entity/Q31923101",
        "country_qid": "Q954"
      }
    },
    {
      "type": "Feature",
      "geometry": {
        "type": "Point",
        "coordinates": [
          28.055833333,
          -20.218055555
        ]
      },
      "properties": {
        "label": "Mananda Dam",
        "type": "Reservoir",
        "entity": "http://www.wikidata.org/entity/Q31948695",
        "country_qid": "Q954"
      }
    },
    {
      "type": "Feature",
      "geometry": {
        "type": "Point",
        "coordinates": [
          30.37138889,
          -21.04388889
        ]
      },
      "properties": {
        "label": "Q47144357",
        "type": "Reservoir",
        "entity": "http://www.wikidata.org/entity/Q47144357",
        "country_qid": "Q954"
      }
    },
    {
      "type": "Feature",
      "geometry": {
        "type": "Point",
        "coordinates": [
          30.791111111,
          -17.900277777
        ]
      },
      "properties": {
        "label": "Lake Chivero",
        "type": "Reservoir",
        "entity": "http://www.wikidata.org/entity/Q4864496",
        "country_qid": "Q954"
      }
    },
    {
      "type": "Feature",
      "geometry": {
        "type": "Point",
        "coordinates": [
          32.748055555,
          -18.758333333
        ]
      },
      "properties": {
        "label": "Small Bridge Dam",
        "type": "Reservoir",
        "entity": "http://www.wikidata.org/entity/Q32022082",
        "country_qid": "Q954"
      }
    },
    {
      "type": "Feature",
      "geometry": {
        "type": "Point",
        "coordinates": [
          29.196944444,
          -20.001388888
        ]
      },
      "properties": {
        "label": "Upper Nsiza Dam",
        "type": "Reservoir",
        "entity": "http://www.wikidata.org/entity/Q32037815",
        "country_qid": "Q954"
      }
    },
    {
      "type": "Feature",
      "geometry": {
        "type": "Point",
        "coordinates": [
          28.535555555,
          -20.032222222
        ]
      },
      "properties": {
        "label": "Lower Mguza dam",
        "type": "Reservoir",
        "entity": "http://www.wikidata.org/entity/Q31944114",
        "country_qid": "Q954"
      }
    },
    {
      "type": "Feature",
      "geometry": {
        "type": "Point",
        "coordinates": [
          28.376666666,
          -20.005833333
        ]
      },
      "properties": {
        "label": "Bonisa Dam",
        "type": "Reservoir",
        "entity": "http://www.wikidata.org/entity/Q31882385",
        "country_qid": "Q954"
      }
    },
    {
      "type": "Feature",
      "geometry": {
        "type": "Point",
        "coordinates": [
          30.25421,
          -19.02587
        ]
      },
      "properties": {
        "label": "Sebakwe Reservoir",
        "type": "Reservoir",
        "entity": "http://www.wikidata.org/entity/Q32016450",
        "country_qid": "Q954"
      }
    },
    {
      "type": "Feature",
      "geometry": {
        "type": "Point",
        "coordinates": [
          31.601944444,
          -20.596388888
        ]
      },
      "properties": {
        "label": "Lake MacDougall",
        "type": "Reservoir",
        "entity": "http://www.wikidata.org/entity/Q31941478",
        "country_qid": "Q954"
      }
    },
    {
      "type": "Feature",
      "geometry": {
        "type": "Point",
        "coordinates": [
          32.09581,
          -18.56119
        ]
      },
      "properties": {
        "label": "Rusape Dam",
        "type": "Reservoir",
        "entity": "http://www.wikidata.org/entity/Q20981312",
        "country_qid": "Q954"
      }
    },
    {
      "type": "Feature",
      "geometry": {
        "type": "Point",
        "coordinates": [
          31.152777777,
          -17.757777777
        ]
      },
      "properties": {
        "label": "Gletwyn",
        "type": "Reservoir",
        "entity": "http://www.wikidata.org/entity/Q31917302",
        "country_qid": "Q954"
      }
    },
    {
      "type": "Feature",
      "geometry": {
        "type": "Point",
        "coordinates": [
          28.430833333,
          -20.152777777
        ]
      },
      "properties": {
        "label": "Khami Dam",
        "type": "Reservoir",
        "entity": "http://www.wikidata.org/entity/Q31930960",
        "country_qid": "Q954"
      }
    },
    {
      "type": "Feature",
      "geometry": {
        "type": "Point",
        "coordinates": [
          28.0,
          -17.0
        ]
      },
      "properties": {
        "label": "Lake Kariba",
        "type": "Reservoir",
        "entity": "http://www.wikidata.org/entity/Q1047206",
        "country_qid": "Q954"
      }
    },
    {
      "type": "Feature",
      "geometry": {
        "type": "Point",
        "coordinates": [
          31.149722222,
          -20.769722222
        ]
      },
      "properties": {
        "label": "Magudu Dam",
        "type": "Reservoir",
        "entity": "http://www.wikidata.org/entity/Q31947119",
        "country_qid": "Q954"
      }
    },
    {
      "type": "Feature",
      "geometry": {
        "type": "Point",
        "coordinates": [
          32.441111111,
          -17.243333333
        ]
      },
      "properties": {
        "label": "Muraro Dam",
        "type": "Reservoir",
        "entity": "http://www.wikidata.org/entity/Q31963336",
        "country_qid": "Q954"
      }
    },
    {
      "type": "Feature",
      "geometry": {
        "type": "Point",
        "coordinates": [
          31.033261111,
          -20.248922222
        ]
      },
      "properties": {
        "label": "Lake Mutirikwe",
        "type": "Reservoir",
        "entity": "http://www.wikidata.org/entity/Q712540",
        "country_qid": "Q954"
      }
    },
    {
      "type": "Feature",
      "geometry": {
        "type": "Point",
        "coordinates": [
          28.949444444,
          -20.848333333
        ]
      },
      "properties": {
        "label": "Lower Mujeni Dam",
        "type": "Reservoir",
        "entity": "http://www.wikidata.org/entity/Q31944129",
        "country_qid": "Q954"
      }
    },
    {
      "type": "Feature",
      "geometry": {
        "type": "Point",
        "coordinates": [
          31.727222222,
          -19.540555555
        ]
      },
      "properties": {
        "label": "Ruti Dam",
        "type": "Reservoir",
        "entity": "http://www.wikidata.org/entity/Q32011057",
        "country_qid": "Q954"
      }
    },
    {
      "type": "Feature",
      "geometry": {
        "type": "Point",
        "coordinates": [
          31.522777777,
          -17.074444444
        ]
      },
      "properties": {
        "label": "Muturudzi Dam",
        "type": "Reservoir",
        "entity": "http://www.wikidata.org/entity/Q31964165",
        "country_qid": "Q954"
      }
    },
    {
      "type": "Feature",
      "geometry": {
        "type": "Point",
        "coordinates": [
          28.975833333,
          -20.274166666
        ]
      },
      "properties": {
        "label": "Upper Ncema Dam",
        "type": "Reservoir",
        "entity": "http://www.wikidata.org/entity/Q32037805",
        "country_qid": "Q954"
      }
    },
    {
      "type": "Feature",
      "geometry": {
        "type": "Point",
        "coordinates": [
          31.547222222,
          -18.143611111
        ]
      },
      "properties": {
        "label": "Rufaro Dam",
        "type": "Reservoir",
        "entity": "http://www.wikidata.org/entity/Q32010523",
        "country_qid": "Q954"
      }
    },
    {
      "type": "Feature",
      "geometry": {
        "type": "Point",
        "coordinates": [
          28.653055555,
          -19.946944444
        ]
      },
      "properties": {
        "label": "Fundisi Dam",
        "type": "Reservoir",
        "entity": "http://www.wikidata.org/entity/Q31916501",
        "country_qid": "Q954"
      }
    },
    {
      "type": "Feature",
      "geometry": {
        "type": "Point",
        "coordinates": [
          31.021666666,
          -17.2525
        ]
      },
      "properties": {
        "label": "Mwenje Dam",
        "type": "Reservoir",
        "entity": "http://www.wikidata.org/entity/Q31964629",
        "country_qid": "Q954"
      }
    },
    {
      "type": "Feature",
      "geometry": {
        "type": "Point",
        "coordinates": [
          29.360555555,
          -20.758333333
        ]
      },
      "properties": {
        "label": "Silalabuhwa Dam",
        "type": "Reservoir",
        "entity": "http://www.wikidata.org/entity/Q32020193",
        "country_qid": "Q954"
      }
    },
    {
      "type": "Feature",
      "geometry": {
        "type": "Point",
        "coordinates": [
          30.998333333,
          -17.5325
        ]
      },
      "properties": {
        "label": "Mazoe Dam",
        "type": "Reservoir",
        "entity": "http://www.wikidata.org/entity/Q31952923",
        "country_qid": "Q954"
      }
    },
    {
      "type": "Feature",
      "geometry": {
        "type": "Point",
        "coordinates": [
          30.627222222,
          -20.136944444
        ]
      },
      "properties": {
        "label": "Mushandike Dam",
        "type": "Reservoir",
        "entity": "http://www.wikidata.org/entity/Q31963605",
        "country_qid": "Q954"
      }
    },
    {
      "type": "Feature",
      "geometry": {
        "type": "Point",
        "coordinates": [
          29.801666666,
          -20.101666666
        ]
      },
      "properties": {
        "label": "Ngezi Dam",
        "type": "Reservoir",
        "entity": "http://www.wikidata.org/entity/Q31969770",
        "country_qid": "Q954"
      }
    },
    {
      "type": "Feature",
      "geometry": {
        "type": "Point",
        "coordinates": [
          29.115277777,
          -20.342777777
        ]
      },
      "properties": {
        "label": "Inyankuni Dam",
        "type": "Reservoir",
        "entity": "http://www.wikidata.org/entity/Q31923153",
        "country_qid": "Q954"
      }
    }
  ]
}