{
  "type": "FeatureCollection",
  "features": [
    {
      "type": "Feature",
      "geometry": {
        "type": "Point",
        "coordinates": [
          -70.4106151,
          -23.08912
        ]
      },
      "properties": {
        "label": "Mejillones Power Plant",
        "type": "Thermal power station",
        "entity": "http://www.wikidata.org/entity/Q11988917",
        "country_qid": "Q298"
      }
    },
    {
      "type": "Feature",
      "geometry": {
        "type": "Point",
        "coordinates": [
          -69.41666667,
          -22.16666667
        ]
      },
      "properties": {
        "label": "María Elena Solar Power Plant",
        "type": "Thermal power station",
        "entity": "http://www.wikidata.org/entity/Q15249886",
        "country_qid": "Q298"
      }
    },
    {
      "type": "Feature",
      "geometry": {
        "type": "Point",
        "coordinates": [
          -71.31055556,
          -28.56777778
        ]
      },
      "properties": {
        "label": "Q16490607",
        "type": "Thermal power station",
        "entity": "http://www.wikidata.org/entity/Q16490607",
        "country_qid": "Q298"
      }
    },
    {
      "type": "Feature",
      "geometry": {
        "type": "Point",
        "coordinates": [
          -71.483708,
          -32.747992
        ]
      },
      "properties": {
        "label": "Campiche Central Thermoelectric Plant",
        "type": "Thermal power station",
        "entity": "http://www.wikidata.org/entity/Q5682329",
        "country_qid": "Q298"
      }
    },
    {
      "type": "Feature",
      "geometry": {
        "type": "Point",
        "coordinates": [
          -71.483016,
          -32.749745
        ]
      },
      "properties": {
        "label": "Ventanas Power Plant",
        "type": "Thermal power station",
        "entity": "http://www.wikidata.org/entity/Q7920230",
        "country_qid": "Q298"
      }
    },
    {
      "type": "Feature",
      "geometry": {
        "type": "Point",
        "coordinates": [
          -71.25611111,
          -28.46527778
        ]
      },
      "properties": {
        "label": "Q15617825",
        "type": "Thermal power station",
        "entity": "http://www.wikidata.org/entity/Q15617825",
        "country_qid": "Q298"
      }
    },
    {
      "type": "Feature",
      "geometry": {
        "type": "Point",
        "coordinates": [
          -72.899972222,
          -39.565777777
        ]
      },
      "properties": {
        "label": "Valdivia Pulp Mill",
        "type": "Thermal power station",
        "entity": "http://www.wikidata.org/entity/Q7909434",
        "country_qid": "Q298"
      }
    },
    {
      "type": "Feature",
      "geometry": {
        "type": "Point",
        "coordinates": [
          -70.31666667,
          -27.35
        ]
      },
      "properties": {
        "label": "Copiapó Solar Project",
        "type": "Thermal power station",
        "entity": "http://www.wikidata.org/entity/Q21044364",
        "country_qid": "Q298"
      }
    },
    {
      "type": "Feature",
      "geometry": {
        "type": "Point",
        "coordinates": [
          -70.1930323,
          -20.8060227
        ]
      },
      "properties": {
        "label": "Tarapacá Power Plant",
        "type": "Thermal power station",
        "entity": "http://www.wikidata.org/entity/Q12005236",
        "country_qid": "Q298"
      }
    },
    {
      "type": "Feature",
      "geometry": {
        "type": "Point",
        "coordinates": [
          -70.2102858,
          -22.0962333
        ]
      },
      "properties": {
        "label": "Norgener Power Plant",
        "type": "Thermal power station",
        "entity": "http://www.wikidata.org/entity/Q11992014",
        "country_qid": "Q298"
      }
    },
    {
      "type": "Feature",
      "geometry": {
        "type": "Point",
        "coordinates": [
          -69.47994,
          -22.77191
        ]
      },
      "properties": {
        "label": "Cerro Dominador Solar Thermal Plant",
        "type": "Thermal power station",
        "entity": "http://www.wikidata.org/entity/Q16890173",
        "country_qid": "Q298"
      }
    },
    {
      "type": "Feature",
      "geometry": {
        "type": "Point",
        "coordinates": [
          -70.663514,
          -33.431866
        ]
      },
      "properties": {
        "label": "Q99922790",
        "type": "Thermal power station",
        "entity": "http://www.wikidata.org/entity/Q99922790",
        "country_qid": "Q298"
      }
    },
    {
      "type": "Feature",
      "geometry": {
        "type": "Point",
        "coordinates": [
          -70.4174273,
          -23.0914969
        ]
      },
      "properties": {
        "label": "Q11959472",
        "type": "Thermal power station",
        "entity": "http://www.wikidata.org/entity/Q11959472",
        "country_qid": "Q298"
      }
    },
    {
      "type": "Feature",
      "geometry": {
        "type": "Point",
        "coordinates": [
          -71.473567462,
          -32.930049399
        ]
      },
      "properties": {
        "label": "Colmito Power Station",
        "type": "Thermal power station",
        "entity": "http://www.wikidata.org/entity/Q24169774",
        "country_qid": "Q298"
      }
    },
    {
      "type": "Feature",
      "geometry": {
        "type": "Point",
        "coordinates": [
          -68.1502,
          -21.8608
        ]
      },
      "properties": {
        "label": "Cerro Pabellon Geothermal Power Plant",
        "type": "Thermal power station",
        "entity": "http://www.wikidata.org/entity/Q76762843",
        "country_qid": "Q298"
      }
    }
  ]
}