{
  "type": "FeatureCollection",
  "features": [
    {
      "type": "Feature",
      "geometry": {
        "type": "Point",
        "coordinates": [
          -89.6990722,
          20.9340807
        ]
      },
      "properties": {
        "label": "Mérida III combined cycle power station",
        "type": "Thermal power station",
        "entity": "http://www.wikidata.org/entity/Q11989088",
        "country_qid": "Q96"
      }
    },
    {
      "type": "Feature",
      "geometry": {
        "type": "Point",
        "coordinates": [
          -100.6989885,
          28.4671068
        ]
      },
      "properties": {
        "label": "Carbón II thermal power station",
        "type": "Thermal power station",
        "entity": "http://www.wikidata.org/entity/Q11963104",
        "country_qid": "Q96"
      }
    },
    {
      "type": "Feature",
      "geometry": {
        "type": "Point",
        "coordinates": [
          -100.6904054,
          28.4856666
        ]
      },
      "properties": {
        "label": "José López Portillo thermal power station",
        "type": "Thermal power station",
        "entity": "http://www.wikidata.org/entity/Q11963103",
        "country_qid": "Q96"
      }
    },
    {
      "type": "Feature",
      "geometry": {
        "type": "Point",
        "coordinates": [
          -109.6080423,
          31.2225273
        ]
      },
      "properties": {
        "label": "Q11990784",
        "type": "Thermal power station",
        "entity": "http://www.wikidata.org/entity/Q11990784",
        "country_qid": "Q96"
      }
    },
    {
      "type": "Feature",
      "geometry": {
        "type": "Point",
        "coordinates": [
          -97.4562514,
          19.6714131
        ]
      },
      "properties": {
        "label": "Los Humeros Geothermal Power Station",
        "type": "Thermal power station",
        "entity": "http://www.wikidata.org/entity/Q122853721",
        "country_qid": "Q96"
      }
    },
    {
      "type": "Feature",
      "geometry": {
        "type": "Point",
        "coordinates": [
          -116.8523079,
          31.9918828
        ]
      },
      "properties": {
        "label": "Baja California III combined cycle power station",
        "type": "Thermal power station",
        "entity": "http://www.wikidata.org/entity/Q122759649",
        "country_qid": "Q96"
      }
    },
    {
      "type": "Feature",
      "geometry": {
        "type": "Point",
        "coordinates": [
          -97.33343333,
          21.01511944
        ]
      },
      "properties": {
        "label": "Adolfo López Mateos thermal power station",
        "type": "Thermal power station",
        "entity": "http://www.wikidata.org/entity/Q2919594",
        "country_qid": "Q96"
      }
    },
    {
      "type": "Feature",
      "geometry": {
        "type": "Point",
        "coordinates": [
          -101.1701828,
          20.5695752
        ]
      },
      "properties": {
        "label": "Salamanca Power Station",
        "type": "Thermal power station",
        "entity": "http://www.wikidata.org/entity/Q19387394",
        "country_qid": "Q96"
      }
    },
    {
      "type": "Feature",
      "geometry": {
        "type": "Point",
        "coordinates": [
          -98.0081964,
          22.4354458
        ]
      },
      "properties": {
        "label": "Altamira I power station",
        "type": "Thermal power station",
        "entity": "http://www.wikidata.org/entity/Q122759530",
        "country_qid": "Q96"
      }
    },
    {
      "type": "Feature",
      "geometry": {
        "type": "Point",
        "coordinates": [
          -100.0955987,
          25.7176614
        ]
      },
      "properties": {
        "label": "Dulces Nombres combined cycle power station",
        "type": "Thermal power station",
        "entity": "http://www.wikidata.org/entity/Q11989898",
        "country_qid": "Q96"
      }
    },
    {
      "type": "Feature",
      "geometry": {
        "type": "Point",
        "coordinates": [
          -97.9019836,
          22.4980808
        ]
      },
      "properties": {
        "label": "Altamira II combined cycle power station",
        "type": "Thermal power station",
        "entity": "http://www.wikidata.org/entity/Q122759525",
        "country_qid": "Q96"
      }
    },
    {
      "type": "Feature",
      "geometry": {
        "type": "Point",
        "coordinates": [
          -108.9928562,
          25.9738927
        ]
      },
      "properties": {
        "label": "Topolobampo II & III combined cycle power station",
        "type": "Thermal power station",
        "entity": "http://www.wikidata.org/entity/Q122759669",
        "country_qid": "Q96"
      }
    },
    {
      "type": "Feature",
      "geometry": {
        "type": "Point",
        "coordinates": [
          -98.6747146,
          19.7461555
        ]
      },
      "properties": {
        "label": "EVM II",
        "type": "Thermal power station",
        "entity": "http://www.wikidata.org/entity/Q122766141",
        "country_qid": "Q96"
      }
    },
    {
      "type": "Feature",
      "geometry": {
        "type": "Point",
        "coordinates": [
          -97.9054999,
          22.4999096
        ]
      },
      "properties": {
        "label": "Altamira V combined cycle power station",
        "type": "Thermal power station",
        "entity": "http://www.wikidata.org/entity/Q122759512",
        "country_qid": "Q96"
      }
    },
    {
      "type": "Feature",
      "geometry": {
        "type": "Point",
        "coordinates": [
          -98.8793993,
          18.8015056
        ]
      },
      "properties": {
        "label": "Q61994733",
        "type": "Thermal power station",
        "entity": "http://www.wikidata.org/entity/Q61994733",
        "country_qid": "Q96"
      }
    },
    {
      "type": "Feature",
      "geometry": {
        "type": "Point",
        "coordinates": [
          -97.9012889,
          22.4942348
        ]
      },
      "properties": {
        "label": "Altamira III & IV combined cycle power station",
        "type": "Thermal power station",
        "entity": "http://www.wikidata.org/entity/Q122759519",
        "country_qid": "Q96"
      }
    },
    {
      "type": "Feature",
      "geometry": {
        "type": "Point",
        "coordinates": [
          -115.244,
          32.4111
        ]
      },
      "properties": {
        "label": "Cerro Prieto Geothermal Power Station",
        "type": "Thermal power station",
        "entity": "http://www.wikidata.org/entity/Q3624174",
        "country_qid": "Q96"
      }
    },
    {
      "type": "Feature",
      "geometry": {
        "type": "Point",
        "coordinates": [
          -103.467586,
          25.6016072
        ]
      },
      "properties": {
        "label": "La Laguna II combined cycle power station",
        "type": "Thermal power station",
        "entity": "http://www.wikidata.org/entity/Q11982881",
        "country_qid": "Q96"
      }
    },
    {
      "type": "Feature",
      "geometry": {
        "type": "Point",
        "coordinates": [
          -98.0636215,
          25.9811746
        ]
      },
      "properties": {
        "label": "Q49627770",
        "type": "Thermal power station",
        "entity": "http://www.wikidata.org/entity/Q49627770",
        "country_qid": "Q96"
      }
    },
    {
      "type": "Feature",
      "geometry": {
        "type": "Point",
        "coordinates": [
          -100.666305555,
          19.790277777
        ]
      },
      "properties": {
        "label": "Los Azufres Geothermal Power Station",
        "type": "Thermal power station",
        "entity": "http://www.wikidata.org/entity/Q121427626",
        "country_qid": "Q96"
      }
    },
    {
      "type": "Feature",
      "geometry": {
        "type": "Point",
        "coordinates": [
          -100.9343577,
          21.832779
        ]
      },
      "properties": {
        "label": "Villa de Reyes thermal power station",
        "type": "Thermal power station",
        "entity": "http://www.wikidata.org/entity/Q19398123",
        "country_qid": "Q96"
      }
    },
    {
      "type": "Feature",
      "geometry": {
        "type": "Point",
        "coordinates": [
          -102.1154389,
          17.98365
        ]
      },
      "properties": {
        "label": "Petacalco thermal power station",
        "type": "Thermal power station",
        "entity": "http://www.wikidata.org/entity/Q19818968",
        "country_qid": "Q96"
      }
    },
    {
      "type": "Feature",
      "geometry": {
        "type": "Point",
        "coordinates": [
          -106.3559175,
          23.1902413
        ]
      },
      "properties": {
        "label": "José Aceves Pozos Power Station",
        "type": "Thermal power station",
        "entity": "http://www.wikidata.org/entity/Q11988795",
        "country_qid": "Q96"
      }
    },
    {
      "type": "Feature",
      "geometry": {
        "type": "Point",
        "coordinates": [
          -112.6927811,
          29.9073852
        ]
      },
      "properties": {
        "label": "Puerto Libertad power station",
        "type": "Thermal power station",
        "entity": "http://www.wikidata.org/entity/Q11996459",
        "country_qid": "Q96"
      }
    },
    {
      "type": "Feature",
      "geometry": {
        "type": "Point",
        "coordinates": [
          -104.3193108,
          19.0266375
        ]
      },
      "properties": {
        "label": "General Manuel Álvarez Moreno thermal power station",
        "type": "Thermal power station",
        "entity": "http://www.wikidata.org/entity/Q122808952",
        "country_qid": "Q96"
      }
    },
    {
      "type": "Feature",
      "geometry": {
        "type": "Point",
        "coordinates": [
          -98.7563825,
          21.3109456
        ]
      },
      "properties": {
        "label": "Tamazunchale combined cycle power station",
        "type": "Thermal power station",
        "entity": "http://www.wikidata.org/entity/Q19391897",
        "country_qid": "Q96"
      }
    },
    {
      "type": "Feature",
      "geometry": {
        "type": "Point",
        "coordinates": [
          -100.3616309,
          25.8688487
        ]
      },
      "properties": {
        "label": "Escobedo & El Carmen combined cycle power stations",
        "type": "Thermal power station",
        "entity": "http://www.wikidata.org/entity/Q122759630",
        "country_qid": "Q96"
      }
    },
    {
      "type": "Feature",
      "geometry": {
        "type": "Point",
        "coordinates": [
          -90.6129277,
          19.7953149
        ]
      },
      "properties": {
        "label": "Lerma power plant",
        "type": "Thermal power station",
        "entity": "http://www.wikidata.org/entity/Q119953254",
        "country_qid": "Q96"
      }
    },
    {
      "type": "Feature",
      "geometry": {
        "type": "Point",
        "coordinates": [
          -99.27679,
          20.0569038
        ]
      },
      "properties": {
        "label": "Francisco Pérez Ríos thermal power station",
        "type": "Thermal power station",
        "entity": "http://www.wikidata.org/entity/Q12007849",
        "country_qid": "Q96"
      }
    },
    {
      "type": "Feature",
      "geometry": {
        "type": "Point",
        "coordinates": [
          -98.9779329,
          19.6180317
        ]
      },
      "properties": {
        "label": "Thermoelectric central Valle de México",
        "type": "Thermal power station",
        "entity": "http://www.wikidata.org/entity/Q12008892",
        "country_qid": "Q96"
      }
    },
    {
      "type": "Feature",
      "geometry": {
        "type": "Point",
        "coordinates": [
          -98.6677006,
          19.7480186
        ]
      },
      "properties": {
        "label": "EVM I",
        "type": "Thermal power station",
        "entity": "http://www.wikidata.org/entity/Q122766172",
        "country_qid": "Q96"
      }
    }
  ]
}