{
  "type": "FeatureCollection",
  "features": [
    {
      "type": "Feature",
      "geometry": {
        "type": "Point",
        "coordinates": [
          105.958027777,
          49.436916666
        ]
      },
      "properties": {
        "label": "Darkhan Thermal Power Plant",
        "type": "Thermal power station",
        "entity": "http://www.wikidata.org/entity/Q121733995",
        "country_qid": "Q711"
      }
    },
    {
      "type": "Feature",
      "geometry": {
        "type": "Point",
        "coordinates": [
          106.807361111,
          47.905083333
        ]
      },
      "properties": {
        "label": "Thermal Power Plant No. 2",
        "type": "Thermal power station",
        "entity": "http://www.wikidata.org/entity/Q131453957",
        "country_qid": "Q711"
      }
    },
    {
      "type": "Feature",
      "geometry": {
        "type": "Point",
        "coordinates": [
          107.890361111,
          47.272305555
        ]
      },
      "properties": {
        "label": "Buuruljuut Power Plant",
        "type": "Thermal power station",
        "entity": "http://www.wikidata.org/entity/Q131387897",
        "country_qid": "Q711"
      }
    },
    {
      "type": "Feature",
      "geometry": {
        "type": "Point",
        "coordinates": [
          106.864083333,
          47.896055555
        ]
      },
      "properties": {
        "label": "Thermal Power Plant No. 3 (Ulaanbaatar)",
        "type": "Thermal power station",
        "entity": "http://www.wikidata.org/entity/Q121283205",
        "country_qid": "Q711"
      }
    },
    {
      "type": "Feature",
      "geometry": {
        "type": "Point",
        "coordinates": [
          104.435277777,
          43.569722222
        ]
      },
      "properties": {
        "label": "Dalanzadgad Thermal Power Plant",
        "type": "Thermal power station",
        "entity": "http://www.wikidata.org/entity/Q131620607",
        "country_qid": "Q711"
      }
    },
    {
      "type": "Feature",
      "geometry": {
        "type": "Point",
        "coordinates": [
          108.355027777,
          47.745666666
        ]
      },
      "properties": {
        "label": "Baganuur Power Plant",
        "type": "Thermal power station",
        "entity": "http://www.wikidata.org/entity/Q131831004",
        "country_qid": "Q711"
      }
    },
    {
      "type": "Feature",
      "geometry": {
        "type": "Point",
        "coordinates": [
          104.097444444,
          49.04075
        ]
      },
      "properties": {
        "label": "Erdenet Thermal Power Plant",
        "type": "Thermal power station",
        "entity": "http://www.wikidata.org/entity/Q121734003",
        "country_qid": "Q711"
      }
    },
    {
      "type": "Feature",
      "geometry": {
        "type": "Point",
        "coordinates": [
          105.539638888,
          43.672277777
        ]
      },
      "properties": {
        "label": "Ukhaa Khudag Power Plant",
        "type": "Thermal power station",
        "entity": "http://www.wikidata.org/entity/Q123746419",
        "country_qid": "Q711"
      }
    },
    {
      "type": "Feature",
      "geometry": {
        "type": "Point",
        "coordinates": [
          106.803722222,
          47.894083333
        ]
      },
      "properties": {
        "label": "Thermal Power Plant No. 4",
        "type": "Thermal power station",
        "entity": "http://www.wikidata.org/entity/Q121536502",
        "country_qid": "Q711"
      }
    }
  ]
}