{
  "type": "FeatureCollection",
  "features": [
    {
      "type": "Feature",
      "geometry": {
        "type": "Point",
        "coordinates": [
          -7.570805555,
          33.606694444
        ]
      },
      "properties": {
        "label": "Q56373145",
        "type": "Thermal power station",
        "entity": "http://www.wikidata.org/entity/Q56373145",
        "country_qid": "Q1028"
      }
    },
    {
      "type": "Feature",
      "geometry": {
        "type": "Point",
        "coordinates": [
          -13.4208891,
          27.0699014
        ]
      },
      "properties": {
        "label": "Q56373053",
        "type": "Thermal power station",
        "entity": "http://www.wikidata.org/entity/Q56373053",
        "country_qid": "Q1028"
      }
    },
    {
      "type": "Feature",
      "geometry": {
        "type": "Point",
        "coordinates": [
          -13.2329838,
          27.1551092
        ]
      },
      "properties": {
        "label": "Q56373054",
        "type": "Thermal power station",
        "entity": "http://www.wikidata.org/entity/Q56373054",
        "country_qid": "Q1028"
      }
    },
    {
      "type": "Feature",
      "geometry": {
        "type": "Point",
        "coordinates": [
          -9.250100277,
          32.224304166
        ]
      },
      "properties": {
        "label": "Q124654345",
        "type": "Thermal power station",
        "entity": "http://www.wikidata.org/entity/Q124654345",
        "country_qid": "Q1028"
      }
    },
    {
      "type": "Feature",
      "geometry": {
        "type": "Point",
        "coordinates": [
          -7.5022955,
          33.541526
        ]
      },
      "properties": {
        "label": "Q56372994",
        "type": "Thermal power station",
        "entity": "http://www.wikidata.org/entity/Q56372994",
        "country_qid": "Q1028"
      }
    },
    {
      "type": "Feature",
      "geometry": {
        "type": "Point",
        "coordinates": [
          -5.986805555,
          35.589
        ]
      },
      "properties": {
        "label": "Tahaddart Thermal Power Station",
        "type": "Thermal power station",
        "entity": "http://www.wikidata.org/entity/Q8343554",
        "country_qid": "Q1028"
      }
    },
    {
      "type": "Feature",
      "geometry": {
        "type": "Point",
        "coordinates": [
          -2.10472222,
          34.06833333
        ]
      },
      "properties": {
        "label": "Ain Beni Mathar Integrated Thermo Solar Combined Cycle Power Plant",
        "type": "Thermal power station",
        "entity": "http://www.wikidata.org/entity/Q15178583",
        "country_qid": "Q1028"
      }
    },
    {
      "type": "Feature",
      "geometry": {
        "type": "Point",
        "coordinates": [
          -5.463305555,
          35.569888888
        ]
      },
      "properties": {
        "label": "Q56372961",
        "type": "Thermal power station",
        "entity": "http://www.wikidata.org/entity/Q56372961",
        "country_qid": "Q1028"
      }
    },
    {
      "type": "Feature",
      "geometry": {
        "type": "Point",
        "coordinates": [
          -9.2805,
          32.148138888
        ]
      },
      "properties": {
        "label": "Safi Power Plant",
        "type": "Thermal power station",
        "entity": "http://www.wikidata.org/entity/Q18214312",
        "country_qid": "Q1028"
      }
    },
    {
      "type": "Feature",
      "geometry": {
        "type": "Point",
        "coordinates": [
          -8.636694444,
          33.104805555
        ]
      },
      "properties": {
        "label": "Jorf Lasfar Power Plant",
        "type": "Thermal power station",
        "entity": "http://www.wikidata.org/entity/Q20828761",
        "country_qid": "Q1028"
      }
    },
    {
      "type": "Feature",
      "geometry": {
        "type": "Point",
        "coordinates": [
          -7.433805555,
          33.682
        ]
      },
      "properties": {
        "label": "Mohammedia Power Plant",
        "type": "Thermal power station",
        "entity": "http://www.wikidata.org/entity/Q11989768",
        "country_qid": "Q1028"
      }
    },
    {
      "type": "Feature",
      "geometry": {
        "type": "Point",
        "coordinates": [
          -6.561805555,
          34.286
        ]
      },
      "properties": {
        "label": "Kenitra power plant",
        "type": "Thermal power station",
        "entity": "http://www.wikidata.org/entity/Q56372929",
        "country_qid": "Q1028"
      }
    },
    {
      "type": "Feature",
      "geometry": {
        "type": "Point",
        "coordinates": [
          -11.339,
          28.469
        ]
      },
      "properties": {
        "label": "Q56372977",
        "type": "Thermal power station",
        "entity": "http://www.wikidata.org/entity/Q56372977",
        "country_qid": "Q1028"
      }
    },
    {
      "type": "Feature",
      "geometry": {
        "type": "Point",
        "coordinates": [
          -2.190805555,
          34.309611111
        ]
      },
      "properties": {
        "label": "Jerada Thermal Power Station",
        "type": "Thermal power station",
        "entity": "http://www.wikidata.org/entity/Q11978473",
        "country_qid": "Q1028"
      }
    }
  ]
}