{
  "type": "FeatureCollection",
  "features": [
    {
      "type": "Feature",
      "geometry": {
        "type": "Point",
        "coordinates": [
          27.9775,
          -26.74194444
        ]
      },
      "properties": {
        "label": "Lethabo Power Station",
        "type": "Thermal power station",
        "entity": "http://www.wikidata.org/entity/Q2944677",
        "country_qid": "Q258"
      }
    },
    {
      "type": "Feature",
      "geometry": {
        "type": "Point",
        "coordinates": [
          18.46027778,
          -33.59222222
        ]
      },
      "properties": {
        "label": "Ankerlig Power Station",
        "type": "Thermal power station",
        "entity": "http://www.wikidata.org/entity/Q4766031",
        "country_qid": "Q258"
      }
    },
    {
      "type": "Feature",
      "geometry": {
        "type": "Point",
        "coordinates": [
          29.350305555,
          -26.775944444
        ]
      },
      "properties": {
        "label": "Tutuka Power Station",
        "type": "Thermal power station",
        "entity": "http://www.wikidata.org/entity/Q2944716",
        "country_qid": "Q258"
      }
    },
    {
      "type": "Feature",
      "geometry": {
        "type": "Point",
        "coordinates": [
          18.604166666,
          -33.750833333
        ]
      },
      "properties": {
        "label": "Bio2Watt Malmesbury Thermal Power Station",
        "type": "Thermal power station",
        "entity": "http://www.wikidata.org/entity/Q111946009",
        "country_qid": "Q258"
      }
    },
    {
      "type": "Feature",
      "geometry": {
        "type": "Point",
        "coordinates": [
          23.365,
          -28.298
        ]
      },
      "properties": {
        "label": "Redstone Solar Thermal Power",
        "type": "Thermal power station",
        "entity": "http://www.wikidata.org/entity/Q20981890",
        "country_qid": "Q258"
      }
    },
    {
      "type": "Feature",
      "geometry": {
        "type": "Point",
        "coordinates": [
          29.150055555,
          -26.559
        ]
      },
      "properties": {
        "label": "Sasol Secunda power plant",
        "type": "Thermal power station",
        "entity": "http://www.wikidata.org/entity/Q56374086",
        "country_qid": "Q258"
      }
    },
    {
      "type": "Feature",
      "geometry": {
        "type": "Point",
        "coordinates": [
          28.91722222,
          -25.91638889
        ]
      },
      "properties": {
        "label": "Kusile Power Station",
        "type": "Thermal power station",
        "entity": "http://www.wikidata.org/entity/Q15240889",
        "country_qid": "Q258"
      }
    },
    {
      "type": "Feature",
      "geometry": {
        "type": "Point",
        "coordinates": [
          29.77138889,
          -27.10055556
        ]
      },
      "properties": {
        "label": "Majuba Power Station",
        "type": "Thermal power station",
        "entity": "http://www.wikidata.org/entity/Q2944680",
        "country_qid": "Q258"
      }
    },
    {
      "type": "Feature",
      "geometry": {
        "type": "Point",
        "coordinates": [
          27.56355,
          -23.7044068
        ]
      },
      "properties": {
        "label": "Medupi Power Station",
        "type": "Thermal power station",
        "entity": "http://www.wikidata.org/entity/Q2944693",
        "country_qid": "Q258"
      }
    },
    {
      "type": "Feature",
      "geometry": {
        "type": "Point",
        "coordinates": [
          25.672861111,
          -33.743805555
        ]
      },
      "properties": {
        "label": "Dedisa Peaking Power Plant",
        "type": "Thermal power station",
        "entity": "http://www.wikidata.org/entity/Q56374120",
        "country_qid": "Q258"
      }
    },
    {
      "type": "Feature",
      "geometry": {
        "type": "Point",
        "coordinates": [
          28.146887,
          -25.757356
        ]
      },
      "properties": {
        "label": "Pretoria West Power Station",
        "type": "Thermal power station",
        "entity": "http://www.wikidata.org/entity/Q56374107",
        "country_qid": "Q258"
      }
    },
    {
      "type": "Feature",
      "geometry": {
        "type": "Point",
        "coordinates": [
          27.848333333,
          -26.822305555
        ]
      },
      "properties": {
        "label": "Sasol One power station",
        "type": "Thermal power station",
        "entity": "http://www.wikidata.org/entity/Q56374084",
        "country_qid": "Q258"
      }
    },
    {
      "type": "Feature",
      "geometry": {
        "type": "Point",
        "coordinates": [
          30.09388889,
          -26.62027778
        ]
      },
      "properties": {
        "label": "Camden Power Station",
        "type": "Thermal power station",
        "entity": "http://www.wikidata.org/entity/Q5025804",
        "country_qid": "Q258"
      }
    },
    {
      "type": "Feature",
      "geometry": {
        "type": "Point",
        "coordinates": [
          19.589722222,
          -28.889166666
        ]
      },
      "properties": {
        "label": "Xina Solar One Power Station",
        "type": "Thermal power station",
        "entity": "http://www.wikidata.org/entity/Q112039684",
        "country_qid": "Q258"
      }
    },
    {
      "type": "Feature",
      "geometry": {
        "type": "Point",
        "coordinates": [
          29.14083333,
          -26.2825
        ]
      },
      "properties": {
        "label": "Matla Power Station",
        "type": "Thermal power station",
        "entity": "http://www.wikidata.org/entity/Q2944684",
        "country_qid": "Q258"
      }
    },
    {
      "type": "Feature",
      "geometry": {
        "type": "Point",
        "coordinates": [
          19.62083333,
          -28.90166667
        ]
      },
      "properties": {
        "label": "KaXu Solar One",
        "type": "Thermal power station",
        "entity": "http://www.wikidata.org/entity/Q15231917",
        "country_qid": "Q258"
      }
    },
    {
      "type": "Feature",
      "geometry": {
        "type": "Point",
        "coordinates": [
          28.194527777,
          -26.115666666
        ]
      },
      "properties": {
        "label": "Kelvin Power Station",
        "type": "Thermal power station",
        "entity": "http://www.wikidata.org/entity/Q6386725",
        "country_qid": "Q258"
      }
    },
    {
      "type": "Feature",
      "geometry": {
        "type": "Point",
        "coordinates": [
          28.97138889,
          -26.09
        ]
      },
      "properties": {
        "label": "Kendal Power Station",
        "type": "Thermal power station",
        "entity": "http://www.wikidata.org/entity/Q1478192",
        "country_qid": "Q258"
      }
    },
    {
      "type": "Feature",
      "geometry": {
        "type": "Point",
        "coordinates": [
          27.925,
          -26.25388889
        ]
      },
      "properties": {
        "label": "Orlando Power Station",
        "type": "Thermal power station",
        "entity": "http://www.wikidata.org/entity/Q15264334",
        "country_qid": "Q258"
      }
    },
    {
      "type": "Feature",
      "geometry": {
        "type": "Point",
        "coordinates": [
          29.984635,
          -27.844207
        ]
      },
      "properties": {
        "label": "Newcastle Cogeneration Plant",
        "type": "Thermal power station",
        "entity": "http://www.wikidata.org/entity/Q73041825",
        "country_qid": "Q258"
      }
    },
    {
      "type": "Feature",
      "geometry": {
        "type": "Point",
        "coordinates": [
          30.664722222,
          -25.575555555
        ]
      },
      "properties": {
        "label": "Ngodwana Biomass Power Station",
        "type": "Thermal power station",
        "entity": "http://www.wikidata.org/entity/Q107241996",
        "country_qid": "Q258"
      }
    },
    {
      "type": "Feature",
      "geometry": {
        "type": "Point",
        "coordinates": [
          21.0775,
          -28.53722222
        ]
      },
      "properties": {
        "label": "Khi Solar One",
        "type": "Thermal power station",
        "entity": "http://www.wikidata.org/entity/Q15237479",
        "country_qid": "Q258"
      }
    },
    {
      "type": "Feature",
      "geometry": {
        "type": "Point",
        "coordinates": [
          23.0426,
          -27.6135
        ]
      },
      "properties": {
        "label": "Kathu Solar Park",
        "type": "Thermal power station",
        "entity": "http://www.wikidata.org/entity/Q48815929",
        "country_qid": "Q258"
      }
    },
    {
      "type": "Feature",
      "geometry": {
        "type": "Point",
        "coordinates": [
          29.33722222,
          -25.96388889
        ]
      },
      "properties": {
        "label": "Duvha Power Station",
        "type": "Thermal power station",
        "entity": "http://www.wikidata.org/entity/Q2320823",
        "country_qid": "Q258"
      }
    },
    {
      "type": "Feature",
      "geometry": {
        "type": "Point",
        "coordinates": [
          29.969638888,
          -27.784888888
        ]
      },
      "properties": {
        "label": "SACC power plant",
        "type": "Thermal power station",
        "entity": "http://www.wikidata.org/entity/Q56374087",
        "country_qid": "Q258"
      }
    },
    {
      "type": "Feature",
      "geometry": {
        "type": "Point",
        "coordinates": [
          29.17944444,
          -26.25416667
        ]
      },
      "properties": {
        "label": "Kriel Power Station",
        "type": "Thermal power station",
        "entity": "http://www.wikidata.org/entity/Q6437002",
        "country_qid": "Q258"
      }
    },
    {
      "type": "Feature",
      "geometry": {
        "type": "Point",
        "coordinates": [
          21.545833333,
          -28.480555555
        ]
      },
      "properties": {
        "label": "Karoshoek Solar Power Station",
        "type": "Thermal power station",
        "entity": "http://www.wikidata.org/entity/Q112136644",
        "country_qid": "Q258"
      }
    },
    {
      "type": "Feature",
      "geometry": {
        "type": "Point",
        "coordinates": [
          31.158833333,
          -29.417916666
        ]
      },
      "properties": {
        "label": "Avon Peaking Power Plant",
        "type": "Thermal power station",
        "entity": "http://www.wikidata.org/entity/Q56374119",
        "country_qid": "Q258"
      }
    },
    {
      "type": "Feature",
      "geometry": {
        "type": "Point",
        "coordinates": [
          28.497111111,
          -26.769666666
        ]
      },
      "properties": {
        "label": "Grootvlei Power Station",
        "type": "Thermal power station",
        "entity": "http://www.wikidata.org/entity/Q5610295",
        "country_qid": "Q258"
      }
    },
    {
      "type": "Feature",
      "geometry": {
        "type": "Point",
        "coordinates": [
          29.82666667,
          -28.73083333
        ]
      },
      "properties": {
        "label": "Colenso Power Station",
        "type": "Thermal power station",
        "entity": "http://www.wikidata.org/entity/Q5143054",
        "country_qid": "Q258"
      }
    },
    {
      "type": "Feature",
      "geometry": {
        "type": "Point",
        "coordinates": [
          18.53546,
          -33.88328
        ]
      },
      "properties": {
        "label": "Acacia Power Station",
        "type": "Thermal power station",
        "entity": "http://www.wikidata.org/entity/Q21037265",
        "country_qid": "Q258"
      }
    },
    {
      "type": "Feature",
      "geometry": {
        "type": "Point",
        "coordinates": [
          27.61055556,
          -23.66833333
        ]
      },
      "properties": {
        "label": "Matimba Power Station",
        "type": "Thermal power station",
        "entity": "http://www.wikidata.org/entity/Q2944683",
        "country_qid": "Q258"
      }
    },
    {
      "type": "Feature",
      "geometry": {
        "type": "Point",
        "coordinates": [
          29.78956,
          -25.94384
        ]
      },
      "properties": {
        "label": "Arnot Power Station",
        "type": "Thermal power station",
        "entity": "http://www.wikidata.org/entity/Q3434255",
        "country_qid": "Q258"
      }
    },
    {
      "type": "Feature",
      "geometry": {
        "type": "Point",
        "coordinates": [
          18.51361111,
          -33.94888889
        ]
      },
      "properties": {
        "label": "Athlone Power Station",
        "type": "Thermal power station",
        "entity": "http://www.wikidata.org/entity/Q2330023",
        "country_qid": "Q258"
      }
    },
    {
      "type": "Feature",
      "geometry": {
        "type": "Point",
        "coordinates": [
          29.47194444,
          -26.09
        ]
      },
      "properties": {
        "label": "Komati Power Station",
        "type": "Thermal power station",
        "entity": "http://www.wikidata.org/entity/Q6428195",
        "country_qid": "Q258"
      }
    },
    {
      "type": "Feature",
      "geometry": {
        "type": "Point",
        "coordinates": [
          28.237799,
          -25.5553
        ]
      },
      "properties": {
        "label": "Rooiwal Power Station",
        "type": "Thermal power station",
        "entity": "http://www.wikidata.org/entity/Q56374108",
        "country_qid": "Q258"
      }
    },
    {
      "type": "Feature",
      "geometry": {
        "type": "Point",
        "coordinates": [
          21.997193,
          -28.73775
        ]
      },
      "properties": {
        "label": "Bokpoort CSP",
        "type": "Thermal power station",
        "entity": "http://www.wikidata.org/entity/Q20981391",
        "country_qid": "Q258"
      }
    },
    {
      "type": "Feature",
      "geometry": {
        "type": "Point",
        "coordinates": [
          27.88106,
          -33.0286
        ]
      },
      "properties": {
        "label": "Port Rex Power Station",
        "type": "Thermal power station",
        "entity": "http://www.wikidata.org/entity/Q21037298",
        "country_qid": "Q258"
      }
    },
    {
      "type": "Feature",
      "geometry": {
        "type": "Point",
        "coordinates": [
          28.02688,
          -26.20711
        ]
      },
      "properties": {
        "label": "John Ware Gas Turbine Power Station",
        "type": "Thermal power station",
        "entity": "http://www.wikidata.org/entity/Q125535155",
        "country_qid": "Q258"
      }
    },
    {
      "type": "Feature",
      "geometry": {
        "type": "Point",
        "coordinates": [
          21.9606,
          -34.1666
        ]
      },
      "properties": {
        "label": "Gourikwa Power Station",
        "type": "Thermal power station",
        "entity": "http://www.wikidata.org/entity/Q11972408",
        "country_qid": "Q258"
      }
    },
    {
      "type": "Feature",
      "geometry": {
        "type": "Point",
        "coordinates": [
          29.6,
          -26.03333333
        ]
      },
      "properties": {
        "label": "Hendrina Power Station",
        "type": "Thermal power station",
        "entity": "http://www.wikidata.org/entity/Q11974989",
        "country_qid": "Q258"
      }
    }
  ]
}