{
  "type": "FeatureCollection",
  "features": [
    {
      "type": "Feature",
      "geometry": {
        "type": "Point",
        "coordinates": [
          -63.596,
          44.6766
        ]
      },
      "properties": {
        "label": "Tufts Cove Generating Station",
        "type": "oil-fired power station",
        "powerplant": "http://www.wikidata.org/entity/Q7851538",
        "country_qid": "Q16"
      }
    },
    {
      "type": "Feature",
      "geometry": {
        "type": "Point",
        "coordinates": [
          -73.1722,
          45.9972
        ]
      },
      "properties": {
        "label": "Tracy Thermal Generating Station",
        "type": "oil-fired power station",
        "powerplant": "http://www.wikidata.org/entity/Q2399089",
        "country_qid": "Q16"
      }
    },
    {
      "type": "Feature",
      "geometry": {
        "type": "Point",
        "coordinates": [
          -63.6097,
          44.715
        ]
      },
      "properties": {
        "label": "Burnside Combustion Turbine",
        "type": "oil-fired power station",
        "powerplant": "http://www.wikidata.org/entity/Q5000127",
        "country_qid": "Q16"
      }
    },
    {
      "type": "Feature",
      "geometry": {
        "type": "Point",
        "coordinates": [
          -63.11832,
          46.23834
        ]
      },
      "properties": {
        "label": "Charlottetown Thermal Generating Station",
        "type": "oil-fired power station",
        "powerplant": "http://www.wikidata.org/entity/Q5086262",
        "country_qid": "Q16"
      }
    },
    {
      "type": "Feature",
      "geometry": {
        "type": "Point",
        "coordinates": [
          -66.20305555,
          45.15361111
        ]
      },
      "properties": {
        "label": "Coleson Cove Generating Station",
        "type": "power station",
        "powerplant": "http://www.wikidata.org/entity/Q5144673",
        "country_qid": "Q16"
      }
    },
    {
      "type": "Feature",
      "geometry": {
        "type": "Point",
        "coordinates": [
          -66.20305555,
          45.15361111
        ]
      },
      "properties": {
        "label": "Coleson Cove Generating Station",
        "type": "oil-fired power station",
        "powerplant": "http://www.wikidata.org/entity/Q5144673",
        "country_qid": "Q16"
      }
    },
    {
      "type": "Feature",
      "geometry": {
        "type": "Point",
        "coordinates": [
          -66.3708,
          48.0519
        ]
      },
      "properties": {
        "label": "Dalhousie Generating Station",
        "type": "oil-fired power station",
        "powerplant": "http://www.wikidata.org/entity/Q5210868",
        "country_qid": "Q16"
      }
    },
    {
      "type": "Feature",
      "geometry": {
        "type": "Point",
        "coordinates": [
          -66.3708,
          48.0519
        ]
      },
      "properties": {
        "label": "Dalhousie Generating Station",
        "type": "coal-fired power station",
        "powerplant": "http://www.wikidata.org/entity/Q5210868",
        "country_qid": "Q16"
      }
    },
    {
      "type": "Feature",
      "geometry": {
        "type": "Point",
        "coordinates": [
          -53.09548056,
          47.45281667
        ]
      },
      "properties": {
        "label": "Holyrood Thermal Generating Station",
        "type": "oil-fired power station",
        "powerplant": "http://www.wikidata.org/entity/Q5887144",
        "country_qid": "Q16"
      }
    },
    {
      "type": "Feature",
      "geometry": {
        "type": "Point",
        "coordinates": [
          -76.8525,
          44.1461
        ]
      },
      "properties": {
        "label": "Lennox Generating Station",
        "type": "oil-fired power station",
        "powerplant": "http://www.wikidata.org/entity/Q6522858",
        "country_qid": "Q16"
      }
    },
    {
      "type": "Feature",
      "geometry": {
        "type": "Point",
        "coordinates": [
          -79.0787,
          43.0745
        ]
      },
      "properties": {
        "label": "Rankine Generating Station",
        "type": "power station",
        "powerplant": "http://www.wikidata.org/entity/Q7293280",
        "country_qid": "Q16"
      }
    },
    {
      "type": "Feature",
      "geometry": {
        "type": "Point",
        "coordinates": [
          -113.102,
          53.8033
        ]
      },
      "properties": {
        "label": "Scotford Cogeneration Plant",
        "type": "power station",
        "powerplant": "http://www.wikidata.org/entity/Q7435567",
        "country_qid": "Q16"
      }
    },
    {
      "type": "Feature",
      "geometry": {
        "type": "Point",
        "coordinates": [
          -101.687,
          50.6186
        ]
      },
      "properties": {
        "label": "Spy Hill Power Plant",
        "type": "power station",
        "powerplant": "http://www.wikidata.org/entity/Q7581679",
        "country_qid": "Q16"
      }
    },
    {
      "type": "Feature",
      "geometry": {
        "type": "Point",
        "coordinates": [
          -108.1608,
          50.4291
        ]
      },
      "properties": {
        "label": "Success Power Station",
        "type": "power station",
        "powerplant": "http://www.wikidata.org/entity/Q7632577",
        "country_qid": "Q16"
      }
    },
    {
      "type": "Feature",
      "geometry": {
        "type": "Point",
        "coordinates": [
          -76.69,
          43.84
        ]
      },
      "properties": {
        "label": "Trillium Power Wind 1",
        "type": "power station",
        "powerplant": "http://www.wikidata.org/entity/Q7842046",
        "country_qid": "Q16"
      }
    },
    {
      "type": "Feature",
      "geometry": {
        "type": "Point",
        "coordinates": [
          -108.2318,
          52.7233
        ]
      },
      "properties": {
        "label": "Yellowhead Power Station",
        "type": "power station",
        "powerplant": "http://www.wikidata.org/entity/Q8051941",
        "country_qid": "Q16"
      }
    },
    {
      "type": "Feature",
      "geometry": {
        "type": "Point",
        "coordinates": [
          -79.5317,
          44.0756
        ]
      },
      "properties": {
        "label": "York Energy Centre",
        "type": "power station",
        "powerplant": "http://www.wikidata.org/entity/Q8055444",
        "country_qid": "Q16"
      }
    },
    {
      "type": "Feature",
      "geometry": {
        "type": "Point",
        "coordinates": [
          -120.668,
          56.1481
        ]
      },
      "properties": {
        "label": "McMahon Cogeneration Plant",
        "type": "power station",
        "powerplant": "http://www.wikidata.org/entity/Q14874686",
        "country_qid": "Q16"
      }
    },
    {
      "type": "Feature",
      "geometry": {
        "type": "Point",
        "coordinates": [
          -79.3325,
          43.8482
        ]
      },
      "properties": {
        "label": "Warden Energy Centre",
        "type": "power station",
        "powerplant": "http://www.wikidata.org/entity/Q17514937",
        "country_qid": "Q16"
      }
    },
    {
      "type": "Feature",
      "geometry": {
        "type": "Point",
        "coordinates": [
          -63.8917,
          44.6914
        ]
      },
      "properties": {
        "label": "St. Margaret's Bay Hydroelectric System",
        "type": "power station",
        "powerplant": "http://www.wikidata.org/entity/Q19599705",
        "country_qid": "Q16"
      }
    },
    {
      "type": "Feature",
      "geometry": {
        "type": "Point",
        "coordinates": [
          -66.20305555,
          45.15361111
        ]
      },
      "properties": {
        "label": "Coleson Cove Generating Station",
        "type": "power station",
        "powerplant": "http://www.wikidata.org/entity/Q5144673",
        "country_qid": "Q16"
      }
    },
    {
      "type": "Feature",
      "geometry": {
        "type": "Point",
        "coordinates": [
          -66.20305555,
          45.15361111
        ]
      },
      "properties": {
        "label": "Coleson Cove Generating Station",
        "type": "oil-fired power station",
        "powerplant": "http://www.wikidata.org/entity/Q5144673",
        "country_qid": "Q16"
      }
    },
    {
      "type": "Feature",
      "geometry": {
        "type": "Point",
        "coordinates": [
          -109.033333333,
          51.857777777
        ]
      },
      "properties": {
        "label": "Ermine Power Station",
        "type": "power station",
        "powerplant": "http://www.wikidata.org/entity/Q5392473",
        "country_qid": "Q16"
      }
    },
    {
      "type": "Feature",
      "geometry": {
        "type": "Point",
        "coordinates": [
          -79.68,
          43.7461
        ]
      },
      "properties": {
        "label": "Goreway Power Station",
        "type": "power station",
        "powerplant": "http://www.wikidata.org/entity/Q5586190",
        "country_qid": "Q16"
      }
    },
    {
      "type": "Feature",
      "geometry": {
        "type": "Point",
        "coordinates": [
          -108.452,
          52.1992
        ]
      },
      "properties": {
        "label": "Landis Power Station",
        "type": "power station",
        "powerplant": "http://www.wikidata.org/entity/Q6484668",
        "country_qid": "Q16"
      }
    },
    {
      "type": "Feature",
      "geometry": {
        "type": "Point",
        "coordinates": [
          -123.878,
          50.1444
        ]
      },
      "properties": {
        "label": "Malibu Hydro",
        "type": "power station",
        "powerplant": "http://www.wikidata.org/entity/Q6743405",
        "country_qid": "Q16"
      }
    },
    {
      "type": "Feature",
      "geometry": {
        "type": "Point",
        "coordinates": [
          -108.423,
          54.1306
        ]
      },
      "properties": {
        "label": "Meadow Lake Power Station",
        "type": "power station",
        "powerplant": "http://www.wikidata.org/entity/Q6803256",
        "country_qid": "Q16"
      }
    },
    {
      "type": "Feature",
      "geometry": {
        "type": "Point",
        "coordinates": [
          -79.6425,
          43.698
        ]
      },
      "properties": {
        "label": "Mississauga Cogeneration Plant",
        "type": "power station",
        "powerplant": "http://www.wikidata.org/entity/Q6878957",
        "country_qid": "Q16"
      }
    },
    {
      "type": "Feature",
      "geometry": {
        "type": "Point",
        "coordinates": [
          -78.7197,
          43.8728
        ]
      },
      "properties": {
        "label": "Darlington Nuclear Generating Station",
        "type": "nuclear power plant",
        "powerplant": "http://www.wikidata.org/entity/Q1739391",
        "country_qid": "Q16"
      }
    },
    {
      "type": "Feature",
      "geometry": {
        "type": "Point",
        "coordinates": [
          -79.0658,
          43.8117
        ]
      },
      "properties": {
        "label": "Pickering Nuclear Generating Station",
        "type": "nuclear power plant",
        "powerplant": "http://www.wikidata.org/entity/Q1739455",
        "country_qid": "Q16"
      }
    },
    {
      "type": "Feature",
      "geometry": {
        "type": "Point",
        "coordinates": [
          -67.8458,
          49.3121
        ]
      },
      "properties": {
        "label": "Q2944444",
        "type": "power station",
        "powerplant": "http://www.wikidata.org/entity/Q2944444",
        "country_qid": "Q16"
      }
    },
    {
      "type": "Feature",
      "geometry": {
        "type": "Point",
        "coordinates": [
          -72.3558333,
          46.395
        ]
      },
      "properties": {
        "label": "Gentilly-2 Generating Station",
        "type": "nuclear power plant",
        "powerplant": "http://www.wikidata.org/entity/Q115100127",
        "country_qid": "Q16"
      }
    },
    {
      "type": "Feature",
      "geometry": {
        "type": "Point",
        "coordinates": [
          -81.5994,
          44.3253
        ]
      },
      "properties": {
        "label": "Bruce Nuclear Generating Stationc",
        "type": "nuclear power plant",
        "powerplant": "http://www.wikidata.org/entity/Q795104",
        "country_qid": "Q16"
      }
    },
    {
      "type": "Feature",
      "geometry": {
        "type": "Point",
        "coordinates": [
          -81.6,
          44.3333
        ]
      },
      "properties": {
        "label": "Douglas Point Nuclear Generating Station",
        "type": "nuclear power plant",
        "powerplant": "http://www.wikidata.org/entity/Q946530",
        "country_qid": "Q16"
      }
    },
    {
      "type": "Feature",
      "geometry": {
        "type": "Point",
        "coordinates": [
          -77.6578,
          46.1867
        ]
      },
      "properties": {
        "label": "Nuclear Power Demonstration",
        "type": "nuclear power plant",
        "powerplant": "http://www.wikidata.org/entity/Q948689",
        "country_qid": "Q16"
      }
    },
    {
      "type": "Feature",
      "geometry": {
        "type": "Point",
        "coordinates": [
          -72.3569,
          46.3958
        ]
      },
      "properties": {
        "label": "Gentilly Nuclear Generating Station",
        "type": "nuclear power plant",
        "powerplant": "http://www.wikidata.org/entity/Q1111040",
        "country_qid": "Q16"
      }
    },
    {
      "type": "Feature",
      "geometry": {
        "type": "Point",
        "coordinates": [
          -66.45555556,
          45.06944444
        ]
      },
      "properties": {
        "label": "Point Lepreau Nuclear Generating Station",
        "type": "nuclear power plant",
        "powerplant": "http://www.wikidata.org/entity/Q1391137",
        "country_qid": "Q16"
      }
    },
    {
      "type": "Feature",
      "geometry": {
        "type": "Point",
        "coordinates": [
          -72.4036574,
          46.3674643
        ]
      },
      "properties": {
        "label": "Q11960391",
        "type": "combined cycle power station",
        "powerplant": "http://www.wikidata.org/entity/Q11960391",
        "country_qid": "Q16"
      }
    },
    {
      "type": "Feature",
      "geometry": {
        "type": "Point",
        "coordinates": [
          -72.4036574,
          46.3674643
        ]
      },
      "properties": {
        "label": "Q11960391",
        "type": "combined heat and power station",
        "powerplant": "http://www.wikidata.org/entity/Q11960391",
        "country_qid": "Q16"
      }
    },
    {
      "type": "Feature",
      "geometry": {
        "type": "Point",
        "coordinates": [
          -72.4036574,
          46.3674643
        ]
      },
      "properties": {
        "label": "Q11960391",
        "type": "gas-fired power station",
        "powerplant": "http://www.wikidata.org/entity/Q11960391",
        "country_qid": "Q16"
      }
    },
    {
      "type": "Feature",
      "geometry": {
        "type": "Point",
        "coordinates": [
          -79.925742,
          43.669846
        ]
      },
      "properties": {
        "label": "Williams Mill and Georgetown Electric Light Company Power Plant",
        "type": "power station",
        "powerplant": "http://www.wikidata.org/entity/Q131687798",
        "country_qid": "Q16"
      }
    },
    {
      "type": "Feature",
      "geometry": {
        "type": "Point",
        "coordinates": [
          -113.9368,
          51.1803
        ]
      },
      "properties": {
        "label": "Calgary Energy Centre",
        "type": "combined cycle power station",
        "powerplant": "http://www.wikidata.org/entity/Q28233484",
        "country_qid": "Q16"
      }
    },
    {
      "type": "Feature",
      "geometry": {
        "type": "Point",
        "coordinates": [
          -113.9368,
          51.1803
        ]
      },
      "properties": {
        "label": "Calgary Energy Centre",
        "type": "natural gas-fired power station",
        "powerplant": "http://www.wikidata.org/entity/Q28233484",
        "country_qid": "Q16"
      }
    },
    {
      "type": "Feature",
      "geometry": {
        "type": "Point",
        "coordinates": [
          -112.730833333,
          50.254444444
        ]
      },
      "properties": {
        "label": "Travers Solar Project",
        "type": "photovoltaic power station",
        "powerplant": "http://www.wikidata.org/entity/Q85810548",
        "country_qid": "Q16"
      }
    },
    {
      "type": "Feature",
      "geometry": {
        "type": "Point",
        "coordinates": [
          -81.895516,
          42.604549
        ]
      },
      "properties": {
        "label": "Barnes Powerhouse",
        "type": "power station",
        "powerplant": "http://www.wikidata.org/entity/Q105713868",
        "country_qid": "Q16"
      }
    },
    {
      "type": "Feature",
      "geometry": {
        "type": "Point",
        "coordinates": [
          -80.050277777,
          42.8
        ]
      },
      "properties": {
        "label": "Nanticoke Solar Facility",
        "type": "photovoltaic power station",
        "powerplant": "http://www.wikidata.org/entity/Q108542399",
        "country_qid": "Q16"
      }
    },
    {
      "type": "Feature",
      "geometry": {
        "type": "Point",
        "coordinates": [
          -79.060373,
          43.253511
        ]
      },
      "properties": {
        "label": "Niagara Waterworks and Electric Light Plant",
        "type": "power station",
        "powerplant": "http://www.wikidata.org/entity/Q113264135",
        "country_qid": "Q16"
      }
    },
    {
      "type": "Feature",
      "geometry": {
        "type": "Point",
        "coordinates": [
          -82.3417,
          42.9378
        ]
      },
      "properties": {
        "label": "Sarnia Photovoltaic Power Plant",
        "type": "photovoltaic power station",
        "powerplant": "http://www.wikidata.org/entity/Q3448577",
        "country_qid": "Q16"
      }
    },
    {
      "type": "Feature",
      "geometry": {
        "type": "Point",
        "coordinates": [
          -76.275,
          45.4083
        ]
      },
      "properties": {
        "label": "Arnprior Solar Generating Station",
        "type": "photovoltaic power station",
        "powerplant": "http://www.wikidata.org/entity/Q4795407",
        "country_qid": "Q16"
      }
    },
    {
      "type": "Feature",
      "geometry": {
        "type": "Point",
        "coordinates": [
          -91.5708,
          48.8381
        ]
      },
      "properties": {
        "label": "Atikokan Generating Station",
        "type": "biomass combined heat and power station",
        "powerplant": "http://www.wikidata.org/entity/Q4815789",
        "country_qid": "Q16"
      }
    },
    {
      "type": "Feature",
      "geometry": {
        "type": "Point",
        "coordinates": [
          -91.5708,
          48.8381
        ]
      },
      "properties": {
        "label": "Atikokan Generating Station",
        "type": "coal-fired power station",
        "powerplant": "http://www.wikidata.org/entity/Q4815789",
        "country_qid": "Q16"
      }
    },
    {
      "type": "Feature",
      "geometry": {
        "type": "Point",
        "coordinates": [
          -82.43805556,
          42.93472222
        ]
      },
      "properties": {
        "label": "Sarnia Regional Cogeneration Plant",
        "type": "combined cycle power station",
        "powerplant": "http://www.wikidata.org/entity/Q7424349",
        "country_qid": "Q16"
      }
    },
    {
      "type": "Feature",
      "geometry": {
        "type": "Point",
        "coordinates": [
          -84.4378,
          46.5378
        ]
      },
      "properties": {
        "label": "Sault Ste. Marie Solar Park",
        "type": "photovoltaic power station",
        "powerplant": "http://www.wikidata.org/entity/Q7427401",
        "country_qid": "Q16"
      }
    },
    {
      "type": "Feature",
      "geometry": {
        "type": "Point",
        "coordinates": [
          -89.22,
          48.36
        ]
      },
      "properties": {
        "label": "Thunder Bay Generating Station",
        "type": "biomass combined heat and power station",
        "powerplant": "http://www.wikidata.org/entity/Q7798925",
        "country_qid": "Q16"
      }
    },
    {
      "type": "Feature",
      "geometry": {
        "type": "Point",
        "coordinates": [
          -89.22,
          48.36
        ]
      },
      "properties": {
        "label": "Thunder Bay Generating Station",
        "type": "coal-fired power station",
        "powerplant": "http://www.wikidata.org/entity/Q7798925",
        "country_qid": "Q16"
      }
    },
    {
      "type": "Feature",
      "geometry": {
        "type": "Point",
        "coordinates": [
          -72.4036574,
          46.3674643
        ]
      },
      "properties": {
        "label": "Q11960391",
        "type": "combined cycle power station",
        "powerplant": "http://www.wikidata.org/entity/Q11960391",
        "country_qid": "Q16"
      }
    },
    {
      "type": "Feature",
      "geometry": {
        "type": "Point",
        "coordinates": [
          -72.4036574,
          46.3674643
        ]
      },
      "properties": {
        "label": "Q11960391",
        "type": "combined heat and power station",
        "powerplant": "http://www.wikidata.org/entity/Q11960391",
        "country_qid": "Q16"
      }
    },
    {
      "type": "Feature",
      "geometry": {
        "type": "Point",
        "coordinates": [
          -72.4036574,
          46.3674643
        ]
      },
      "properties": {
        "label": "Q11960391",
        "type": "gas-fired power station",
        "powerplant": "http://www.wikidata.org/entity/Q11960391",
        "country_qid": "Q16"
      }
    },
    {
      "type": "Feature",
      "geometry": {
        "type": "Point",
        "coordinates": [
          -79.1986,
          43.1069
        ]
      },
      "properties": {
        "label": "Thorold Co-generation Plant",
        "type": "combined cycle power station",
        "powerplant": "http://www.wikidata.org/entity/Q14875448",
        "country_qid": "Q16"
      }
    },
    {
      "type": "Feature",
      "geometry": {
        "type": "Point",
        "coordinates": [
          -79.07737,
          43.0824
        ]
      },
      "properties": {
        "label": "Ontario Power Company Generating Station",
        "type": "power station",
        "powerplant": "http://www.wikidata.org/entity/Q28163475",
        "country_qid": "Q16"
      }
    },
    {
      "type": "Feature",
      "geometry": {
        "type": "Point",
        "coordinates": [
          -113.8852,
          50.9707
        ]
      },
      "properties": {
        "label": "Shepard Energy Centre",
        "type": "power station",
        "powerplant": "http://www.wikidata.org/entity/Q28233486",
        "country_qid": "Q16"
      }
    },
    {
      "type": "Feature",
      "geometry": {
        "type": "Point",
        "coordinates": [
          -113.498607,
          53.529309
        ]
      },
      "properties": {
        "label": "Rossdale Power Plant",
        "type": "power station",
        "powerplant": "http://www.wikidata.org/entity/Q38530075",
        "country_qid": "Q16"
      }
    },
    {
      "type": "Feature",
      "geometry": {
        "type": "Point",
        "coordinates": [
          -71.265113888,
          46.783466666
        ]
      },
      "properties": {
        "label": "pavillon Gérard-Bisaillon",
        "type": "power station",
        "powerplant": "http://www.wikidata.org/entity/Q64785355",
        "country_qid": "Q16"
      }
    },
    {
      "type": "Feature",
      "geometry": {
        "type": "Point",
        "coordinates": [
          -79.024687,
          43.847282
        ]
      },
      "properties": {
        "label": "Ajax Steam Plant",
        "type": "power station",
        "powerplant": "http://www.wikidata.org/entity/Q72980549",
        "country_qid": "Q16"
      }
    },
    {
      "type": "Feature",
      "geometry": {
        "type": "Point",
        "coordinates": [
          -80.2709,
          44.1001
        ]
      },
      "properties": {
        "label": "Amaranth Wind Farm",
        "type": "wind farm",
        "powerplant": "http://www.wikidata.org/entity/Q4740148",
        "country_qid": "Q16"
      }
    },
    {
      "type": "Feature",
      "geometry": {
        "type": "Point",
        "coordinates": [
          -64.555,
          49.06
        ]
      },
      "properties": {
        "label": "Anse-à-Valleau Wind Farm",
        "type": "wind farm",
        "powerplant": "http://www.wikidata.org/entity/Q4770545",
        "country_qid": "Q16"
      }
    },
    {
      "type": "Feature",
      "geometry": {
        "type": "Point",
        "coordinates": [
          -120.433,
          55.7
        ]
      },
      "properties": {
        "label": "Bear Mountain Wind Park",
        "type": "wind farm",
        "powerplant": "http://www.wikidata.org/entity/Q4876515",
        "country_qid": "Q16"
      }
    },
    {
      "type": "Feature",
      "geometry": {
        "type": "Point",
        "coordinates": [
          -66.4138,
          47.5076
        ]
      },
      "properties": {
        "label": "Caribou Wind Park",
        "type": "wind farm",
        "powerplant": "http://www.wikidata.org/entity/Q5039523",
        "country_qid": "Q16"
      }
    },
    {
      "type": "Feature",
      "geometry": {
        "type": "Point",
        "coordinates": [
          -107.467,
          50.1667
        ]
      },
      "properties": {
        "label": "Centennial Wind Power Facility",
        "type": "wind farm",
        "powerplant": "http://www.wikidata.org/entity/Q5059233",
        "country_qid": "Q16"
      }
    },
    {
      "type": "Feature",
      "geometry": {
        "type": "Point",
        "coordinates": [
          -82.65,
          42.2167
        ]
      },
      "properties": {
        "label": "Comber Wind Farm",
        "type": "wind farm",
        "powerplant": "http://www.wikidata.org/entity/Q5150777",
        "country_qid": "Q16"
      }
    },
    {
      "type": "Feature",
      "geometry": {
        "type": "Point",
        "coordinates": [
          -122.283,
          55.7
        ]
      },
      "properties": {
        "label": "Dokie Ridge Wind Farm",
        "type": "wind farm",
        "powerplant": "http://www.wikidata.org/entity/Q5288739",
        "country_qid": "Q16"
      }
    },
    {
      "type": "Feature",
      "geometry": {
        "type": "Point",
        "coordinates": [
          -82.6833,
          42.1667
        ]
      },
      "properties": {
        "label": "Gosfield Wind Project",
        "type": "wind farm",
        "powerplant": "http://www.wikidata.org/entity/Q5587173",
        "country_qid": "Q16"
      }
    },
    {
      "type": "Feature",
      "geometry": {
        "type": "Point",
        "coordinates": [
          -81.5486,
          44.316
        ]
      },
      "properties": {
        "label": "Huron Wind",
        "type": "wind farm",
        "powerplant": "http://www.wikidata.org/entity/Q5946970",
        "country_qid": "Q16"
      }
    },
    {
      "type": "Feature",
      "geometry": {
        "type": "Point",
        "coordinates": [
          -67.6,
          48.8
        ]
      },
      "properties": {
        "label": "Jardin d'Eole Wind Farm",
        "type": "wind farm",
        "powerplant": "http://www.wikidata.org/entity/Q6159781",
        "country_qid": "Q16"
      }
    },
    {
      "type": "Feature",
      "geometry": {
        "type": "Point",
        "coordinates": [
          -64.8958,
          45.8056
        ]
      },
      "properties": {
        "label": "Kent Hills Wind Farm",
        "type": "wind farm",
        "powerplant": "http://www.wikidata.org/entity/Q6391767",
        "country_qid": "Q16"
      }
    },
    {
      "type": "Feature",
      "geometry": {
        "type": "Point",
        "coordinates": [
          -81.65,
          43.7667
        ]
      },
      "properties": {
        "label": "Kingsbridge Wind Power Project",
        "type": "wind farm",
        "powerplant": "http://www.wikidata.org/entity/Q6413139",
        "country_qid": "Q16"
      }
    },
    {
      "type": "Feature",
      "geometry": {
        "type": "Point",
        "coordinates": [
          -67.6878,
          48.4142
        ]
      },
      "properties": {
        "label": "Lac Alfred (Phase I) Wind Project",
        "type": "wind farm",
        "powerplant": "http://www.wikidata.org/entity/Q6467803",
        "country_qid": "Q16"
      }
    },
    {
      "type": "Feature",
      "geometry": {
        "type": "Point",
        "coordinates": [
          -70.4678,
          46.5814
        ]
      },
      "properties": {
        "label": "Massif du Sud Wind Project",
        "type": "wind farm",
        "powerplant": "http://www.wikidata.org/entity/Q6784643",
        "country_qid": "Q16"
      }
    },
    {
      "type": "Feature",
      "geometry": {
        "type": "Point",
        "coordinates": [
          -82.2285,
          42.2091
        ]
      },
      "properties": {
        "label": "Port Alma Wind Farm",
        "type": "wind farm",
        "powerplant": "http://www.wikidata.org/entity/Q7230472",
        "country_qid": "Q16"
      }
    },
    {
      "type": "Feature",
      "geometry": {
        "type": "Point",
        "coordinates": [
          -80.6667,
          42.6167
        ]
      },
      "properties": {
        "label": "Port Burwell Wind Farm",
        "type": "wind farm",
        "powerplant": "http://www.wikidata.org/entity/Q7230521",
        "country_qid": "Q16"
      }
    },
    {
      "type": "Feature",
      "geometry": {
        "type": "Point",
        "coordinates": [
          -84.4792,
          46.6167
        ]
      },
      "properties": {
        "label": "Prince Township Wind Farm",
        "type": "wind farm",
        "powerplant": "http://www.wikidata.org/entity/Q7244261",
        "country_qid": "Q16"
      }
    },
    {
      "type": "Feature",
      "geometry": {
        "type": "Point",
        "coordinates": [
          -101.735,
          50.189
        ]
      },
      "properties": {
        "label": "Red Lily Wind Farm",
        "type": "wind farm",
        "powerplant": "http://www.wikidata.org/entity/Q7304496",
        "country_qid": "Q16"
      }
    },
    {
      "type": "Feature",
      "geometry": {
        "type": "Point",
        "coordinates": [
          -81.5167,
          44.0667
        ]
      },
      "properties": {
        "label": "Ripley Wind Power Project",
        "type": "wind farm",
        "powerplant": "http://www.wikidata.org/entity/Q7335639",
        "country_qid": "Q16"
      }
    },
    {
      "type": "Feature",
      "geometry": {
        "type": "Point",
        "coordinates": [
          -70.5254,
          45.7349
        ]
      },
      "properties": {
        "label": "Saint-Robert-Bellarmin Wind Project",
        "type": "wind farm",
        "powerplant": "http://www.wikidata.org/entity/Q7400811",
        "country_qid": "Q16"
      }
    },
    {
      "type": "Feature",
      "geometry": {
        "type": "Point",
        "coordinates": [
          -97.744,
          49.315
        ]
      },
      "properties": {
        "label": "St. Joseph Wind Farm",
        "type": "wind farm",
        "powerplant": "http://www.wikidata.org/entity/Q7589383",
        "country_qid": "Q16"
      }
    },
    {
      "type": "Feature",
      "geometry": {
        "type": "Point",
        "coordinates": [
          -98.5375,
          49.3603
        ]
      },
      "properties": {
        "label": "St. Leon Wind Farm",
        "type": "wind farm",
        "powerplant": "http://www.wikidata.org/entity/Q7589524",
        "country_qid": "Q16"
      }
    },
    {
      "type": "Feature",
      "geometry": {
        "type": "Point",
        "coordinates": [
          -108.4181,
          50.0674
        ]
      },
      "properties": {
        "label": "SunBridge Wind Farm",
        "type": "wind farm",
        "powerplant": "http://www.wikidata.org/entity/Q7638139",
        "country_qid": "Q16"
      }
    },
    {
      "type": "Feature",
      "geometry": {
        "type": "Point",
        "coordinates": [
          -81.459,
          44.339
        ]
      },
      "properties": {
        "label": "Underwood Wind Farm",
        "type": "wind farm",
        "powerplant": "http://www.wikidata.org/entity/Q7883923",
        "country_qid": "Q16"
      }
    },
    {
      "type": "Feature",
      "geometry": {
        "type": "Point",
        "coordinates": [
          -79.4248,
          43.6304
        ]
      },
      "properties": {
        "label": "ExPlace Wind Turbine",
        "type": "wind farm",
        "powerplant": "http://www.wikidata.org/entity/Q8023910",
        "country_qid": "Q16"
      }
    },
    {
      "type": "Feature",
      "geometry": {
        "type": "Point",
        "coordinates": [
          -76.4667,
          44.1667
        ]
      },
      "properties": {
        "label": "Wolfe Island Wind Farm",
        "type": "wind farm",
        "powerplant": "http://www.wikidata.org/entity/Q8029979",
        "country_qid": "Q16"
      }
    },
    {
      "type": "Feature",
      "geometry": {
        "type": "Point",
        "coordinates": [
          -64.3243,
          44.7728
        ]
      },
      "properties": {
        "label": "South Canoe Wind Energy Project",
        "type": "wind farm",
        "powerplant": "http://www.wikidata.org/entity/Q14875771",
        "country_qid": "Q16"
      }
    },
    {
      "type": "Feature",
      "geometry": {
        "type": "Point",
        "coordinates": [
          -71.01666667,
          47.96666667
        ]
      },
      "properties": {
        "label": "Rivière-du-Moulin Wind Project",
        "type": "wind farm",
        "powerplant": "http://www.wikidata.org/entity/Q18166893",
        "country_qid": "Q16"
      }
    },
    {
      "type": "Feature",
      "geometry": {
        "type": "Point",
        "coordinates": [
          -66.1333,
          48.1
        ]
      },
      "properties": {
        "label": "Carleton Wind Farm",
        "type": "wind farm",
        "powerplant": "http://www.wikidata.org/entity/Q18343651",
        "country_qid": "Q16"
      }
    },
    {
      "type": "Feature",
      "geometry": {
        "type": "Point",
        "coordinates": [
          -65.7333,
          49.3333
        ]
      },
      "properties": {
        "label": "Gros-Morne Wind Farm",
        "type": "wind farm",
        "powerplant": "http://www.wikidata.org/entity/Q18346275",
        "country_qid": "Q16"
      }
    },
    {
      "type": "Feature",
      "geometry": {
        "type": "Point",
        "coordinates": [
          -66.70722222,
          48.21805556
        ]
      },
      "properties": {
        "label": "Mesgi'g Ugju's'n Wind Farm",
        "type": "wind farm",
        "powerplant": "http://www.wikidata.org/entity/Q24190372",
        "country_qid": "Q16"
      }
    },
    {
      "type": "Feature",
      "geometry": {
        "type": "Point",
        "coordinates": [
          -113.9368,
          51.1803
        ]
      },
      "properties": {
        "label": "Calgary Energy Centre",
        "type": "combined cycle power station",
        "powerplant": "http://www.wikidata.org/entity/Q28233484",
        "country_qid": "Q16"
      }
    },
    {
      "type": "Feature",
      "geometry": {
        "type": "Point",
        "coordinates": [
          -113.9368,
          51.1803
        ]
      },
      "properties": {
        "label": "Calgary Energy Centre",
        "type": "natural gas-fired power station",
        "powerplant": "http://www.wikidata.org/entity/Q28233484",
        "country_qid": "Q16"
      }
    },
    {
      "type": "Feature",
      "geometry": {
        "type": "Point",
        "coordinates": [
          -79.3351,
          43.6455
        ]
      },
      "properties": {
        "label": "Hearn Generating Station",
        "type": "natural gas-fired power station",
        "powerplant": "http://www.wikidata.org/entity/Q5691682",
        "country_qid": "Q16"
      }
    },
    {
      "type": "Feature",
      "geometry": {
        "type": "Point",
        "coordinates": [
          -79.3351,
          43.6455
        ]
      },
      "properties": {
        "label": "Hearn Generating Station",
        "type": "coal-fired power station",
        "powerplant": "http://www.wikidata.org/entity/Q5691682",
        "country_qid": "Q16"
      }
    },
    {
      "type": "Feature",
      "geometry": {
        "type": "Point",
        "coordinates": [
          -113.554,
          52.3067
        ]
      },
      "properties": {
        "label": "Joffre Cogeneration Plant",
        "type": "natural gas-fired power station",
        "powerplant": "http://www.wikidata.org/entity/Q6214627",
        "country_qid": "Q16"
      }
    },
    {
      "type": "Feature",
      "geometry": {
        "type": "Point",
        "coordinates": [
          -119.21861111,
          55.33888889
        ]
      },
      "properties": {
        "label": "Poplar Hill Generating Plant",
        "type": "natural gas-fired power station",
        "powerplant": "http://www.wikidata.org/entity/Q7229408",
        "country_qid": "Q16"
      }
    },
    {
      "type": "Feature",
      "geometry": {
        "type": "Point",
        "coordinates": [
          -79.505362,
          42.877172
        ]
      },
      "properties": {
        "label": "Niagara Region Wind Farm",
        "type": "wind farm",
        "powerplant": "http://www.wikidata.org/entity/Q85788963",
        "country_qid": "Q16"
      }
    },
    {
      "type": "Feature",
      "geometry": {
        "type": "Point",
        "coordinates": [
          -70.860833333,
          47.372222222
        ]
      },
      "properties": {
        "label": "Seigneurie de Beaupré Wind Farms",
        "type": "wind farm",
        "powerplant": "http://www.wikidata.org/entity/Q85800243",
        "country_qid": "Q16"
      }
    },
    {
      "type": "Feature",
      "geometry": {
        "type": "Point",
        "coordinates": [
          -78.5946,
          44.0043
        ]
      },
      "properties": {
        "label": "Ganaraska Wind Farm",
        "type": "wind farm",
        "powerplant": "http://www.wikidata.org/entity/Q116788098",
        "country_qid": "Q16"
      }
    },
    {
      "type": "Feature",
      "geometry": {
        "type": "Point",
        "coordinates": [
          -70.3643,
          46.6655
        ]
      },
      "properties": {
        "label": "Q117604157",
        "type": "wind farm",
        "powerplant": "http://www.wikidata.org/entity/Q117604157",
        "country_qid": "Q16"
      }
    },
    {
      "type": "Feature",
      "geometry": {
        "type": "Point",
        "coordinates": [
          -82.2603,
          42.5019
        ]
      },
      "properties": {
        "label": "North Kent wind farm",
        "type": "wind farm",
        "powerplant": "http://www.wikidata.org/entity/Q117668306",
        "country_qid": "Q16"
      }
    },
    {
      "type": "Feature",
      "geometry": {
        "type": "Point",
        "coordinates": [
          -82.1407,
          42.3355
        ]
      },
      "properties": {
        "label": "South Kent wind farm",
        "type": "wind farm",
        "powerplant": "http://www.wikidata.org/entity/Q117668727",
        "country_qid": "Q16"
      }
    },
    {
      "type": "Feature",
      "geometry": {
        "type": "Point",
        "coordinates": [
          -82.3377,
          42.2035
        ]
      },
      "properties": {
        "label": "Chatham Wind Farm",
        "type": "wind farm",
        "powerplant": "http://www.wikidata.org/entity/Q117707752",
        "country_qid": "Q16"
      }
    },
    {
      "type": "Feature",
      "geometry": {
        "type": "Point",
        "coordinates": [
          -82.4392,
          42.1444
        ]
      },
      "properties": {
        "label": "Romney Wind Energy Centre",
        "type": "wind farm",
        "powerplant": "http://www.wikidata.org/entity/Q117708045",
        "country_qid": "Q16"
      }
    },
    {
      "type": "Feature",
      "geometry": {
        "type": "Point",
        "coordinates": [
          -110.3596,
          49.8589
        ]
      },
      "properties": {
        "label": "Cypress (1&2) Wind",
        "type": "wind farm",
        "powerplant": "http://www.wikidata.org/entity/Q122944892",
        "country_qid": "Q16"
      }
    },
    {
      "type": "Feature",
      "geometry": {
        "type": "Point",
        "coordinates": [
          -71.1492,
          46.3237
        ]
      },
      "properties": {
        "label": "Mont Sainte-Marguerite wind farm",
        "type": "wind farm",
        "powerplant": "http://www.wikidata.org/entity/Q131927009",
        "country_qid": "Q16"
      }
    },
    {
      "type": "Feature",
      "geometry": {
        "type": "Point",
        "coordinates": [
          -78.196944,
          60.808611
        ]
      },
      "properties": {
        "label": "Akulivik Power Station",
        "type": "thermal power station",
        "powerplant": "http://www.wikidata.org/entity/Q114751573",
        "country_qid": "Q16"
      }
    },
    {
      "type": "Feature",
      "geometry": {
        "type": "Point",
        "coordinates": [
          -69.6027778,
          59.3066667
        ]
      },
      "properties": {
        "label": "Aupaluk Power Station",
        "type": "thermal power station",
        "powerplant": "http://www.wikidata.org/entity/Q114751575",
        "country_qid": "Q16"
      }
    },
    {
      "type": "Feature",
      "geometry": {
        "type": "Point",
        "coordinates": [
          -72.3522222,
          46.3919444
        ]
      },
      "properties": {
        "label": "Bécancour Power Station",
        "type": "thermal power station",
        "powerplant": "http://www.wikidata.org/entity/Q114751577",
        "country_qid": "Q16"
      }
    },
    {
      "type": "Feature",
      "geometry": {
        "type": "Point",
        "coordinates": [
          -57.2055556,
          51.4163889
        ]
      },
      "properties": {
        "label": "Blanc-Sablon Power Station",
        "type": "thermal power station",
        "powerplant": "http://www.wikidata.org/entity/Q114751578",
        "country_qid": "Q16"
      }
    },
    {
      "type": "Feature",
      "geometry": {
        "type": "Point",
        "coordinates": [
          -60.6866667,
          50.2155556
        ]
      },
      "properties": {
        "label": "La Romaine Power Station",
        "type": "thermal power station",
        "powerplant": "http://www.wikidata.org/entity/Q114751579",
        "country_qid": "Q16"
      }
    },
    {
      "type": "Feature",
      "geometry": {
        "type": "Point",
        "coordinates": [
          -58.9763889,
          50.8375
        ]
      },
      "properties": {
        "label": "La Tabatière Power Station",
        "type": "thermal power station",
        "powerplant": "http://www.wikidata.org/entity/Q114751580",
        "country_qid": "Q16"
      }
    },
    {
      "type": "Feature",
      "geometry": {
        "type": "Point",
        "coordinates": [
          -78.112222,
          58.455
        ]
      },
      "properties": {
        "label": "Inukjuak Power Station",
        "type": "thermal power station",
        "powerplant": "http://www.wikidata.org/entity/Q114751581",
        "country_qid": "Q16"
      }
    },
    {
      "type": "Feature",
      "geometry": {
        "type": "Point",
        "coordinates": [
          -77.9066667,
          62.4138889
        ]
      },
      "properties": {
        "label": "Ivujivik Power Station",
        "type": "thermal power station",
        "powerplant": "http://www.wikidata.org/entity/Q114751582",
        "country_qid": "Q16"
      }
    },
    {
      "type": "Feature",
      "geometry": {
        "type": "Point",
        "coordinates": [
          -65.9508333,
          58.6941667
        ]
      },
      "properties": {
        "label": "Kangiqsualujjuaq Power Station",
        "type": "thermal power station",
        "powerplant": "http://www.wikidata.org/entity/Q114751583",
        "country_qid": "Q16"
      }
    },
    {
      "type": "Feature",
      "geometry": {
        "type": "Point",
        "coordinates": [
          -71.9575,
          61.5988889
        ]
      },
      "properties": {
        "label": "Kangiqsujuaq Power Station",
        "type": "thermal power station",
        "powerplant": "http://www.wikidata.org/entity/Q114751585",
        "country_qid": "Q16"
      }
    },
    {
      "type": "Feature",
      "geometry": {
        "type": "Point",
        "coordinates": [
          -70.0133333,
          60.0194444
        ]
      },
      "properties": {
        "label": "Kangirsuk Power Station",
        "type": "thermal power station",
        "powerplant": "http://www.wikidata.org/entity/Q114751587",
        "country_qid": "Q16"
      }
    },
    {
      "type": "Feature",
      "geometry": {
        "type": "Point",
        "coordinates": [
          -68.4133333,
          58.0969444
        ]
      },
      "properties": {
        "label": "Kuujjuaq Power Station",
        "type": "thermal power station",
        "powerplant": "http://www.wikidata.org/entity/Q114751588",
        "country_qid": "Q16"
      }
    },
    {
      "type": "Feature",
      "geometry": {
        "type": "Point",
        "coordinates": [
          -77.7538889,
          55.2808333
        ]
      },
      "properties": {
        "label": "Kuujjuarapik Power Station",
        "type": "thermal power station",
        "powerplant": "http://www.wikidata.org/entity/Q114751589",
        "country_qid": "Q16"
      }
    },
    {
      "type": "Feature",
      "geometry": {
        "type": "Point",
        "coordinates": [
          -64.3502778,
          49.8194444
        ]
      },
      "properties": {
        "label": "Port-Menier Power Station",
        "type": "thermal power station",
        "powerplant": "http://www.wikidata.org/entity/Q114751590",
        "country_qid": "Q16"
      }
    },
    {
      "type": "Feature",
      "geometry": {
        "type": "Point",
        "coordinates": [
          -75.3608333,
          48.11
        ]
      },
      "properties": {
        "label": "Clova Power Station",
        "type": "thermal power station",
        "powerplant": "http://www.wikidata.org/entity/Q114751591",
        "country_qid": "Q16"
      }
    },
    {
      "type": "Feature",
      "geometry": {
        "type": "Point",
        "coordinates": [
          -61.8452778,
          47.22
        ]
      },
      "properties": {
        "label": "Île-d'Entrée Power Station",
        "type": "thermal power station",
        "powerplant": "http://www.wikidata.org/entity/Q114751592",
        "country_qid": "Q16"
      }
    },
    {
      "type": "Feature",
      "geometry": {
        "type": "Point",
        "coordinates": [
          -61.7797222,
          47.3975
        ]
      },
      "properties": {
        "label": "Îles-de-la-Madeleine Power Station",
        "type": "thermal power station",
        "powerplant": "http://www.wikidata.org/entity/Q114751593",
        "country_qid": "Q16"
      }
    },
    {
      "type": "Feature",
      "geometry": {
        "type": "Point",
        "coordinates": [
          -61.8311111,
          50.195
        ]
      },
      "properties": {
        "label": "Natashquan Power Station",
        "type": "thermal power station",
        "powerplant": "http://www.wikidata.org/entity/Q114751594",
        "country_qid": "Q16"
      }
    },
    {
      "type": "Feature",
      "geometry": {
        "type": "Point",
        "coordinates": [
          -74.9388889,
          48.655
        ]
      },
      "properties": {
        "label": "Obedjiwan Power Station",
        "type": "thermal power station",
        "powerplant": "http://www.wikidata.org/entity/Q114751595",
        "country_qid": "Q16"
      }
    },
    {
      "type": "Feature",
      "geometry": {
        "type": "Point",
        "coordinates": [
          -77.2652778,
          60.0375
        ]
      },
      "properties": {
        "label": "Puvirnituq Power Station",
        "type": "thermal power station",
        "powerplant": "http://www.wikidata.org/entity/Q114751597",
        "country_qid": "Q16"
      }
    },
    {
      "type": "Feature",
      "geometry": {
        "type": "Point",
        "coordinates": [
          -69.6247222,
          61.0466667
        ]
      },
      "properties": {
        "label": "Quaqtaq Power Station",
        "type": "thermal power station",
        "powerplant": "http://www.wikidata.org/entity/Q114751598",
        "country_qid": "Q16"
      }
    },
    {
      "type": "Feature",
      "geometry": {
        "type": "Point",
        "coordinates": [
          -78.3002778,
          48.2127778
        ]
      },
      "properties": {
        "label": "Cadillac Power Station",
        "type": "thermal power station",
        "powerplant": "http://www.wikidata.org/entity/Q114751599",
        "country_qid": "Q16"
      }
    },
    {
      "type": "Feature",
      "geometry": {
        "type": "Point",
        "coordinates": [
          -58.6488889,
          51.2258333
        ]
      },
      "properties": {
        "label": "Saint-Augustin Power Station",
        "type": "thermal power station",
        "powerplant": "http://www.wikidata.org/entity/Q114751600",
        "country_qid": "Q16"
      }
    },
    {
      "type": "Feature",
      "geometry": {
        "type": "Point",
        "coordinates": [
          -75.6397222,
          62.2072222
        ]
      },
      "properties": {
        "label": "Salluit Power Station",
        "type": "thermal power station",
        "powerplant": "http://www.wikidata.org/entity/Q114751601",
        "country_qid": "Q16"
      }
    },
    {
      "type": "Feature",
      "geometry": {
        "type": "Point",
        "coordinates": [
          -69.9275,
          58.7016667
        ]
      },
      "properties": {
        "label": "Tasiujaq Power Station",
        "type": "thermal power station",
        "powerplant": "http://www.wikidata.org/entity/Q114751603",
        "country_qid": "Q16"
      }
    },
    {
      "type": "Feature",
      "geometry": {
        "type": "Point",
        "coordinates": [
          -76.546667,
          56.552222
        ]
      },
      "properties": {
        "label": "Umiujaq Power Station",
        "type": "thermal power station",
        "powerplant": "http://www.wikidata.org/entity/Q114751604",
        "country_qid": "Q16"
      }
    },
    {
      "type": "Feature",
      "geometry": {
        "type": "Point",
        "coordinates": [
          -73.4366667,
          45.4144444
        ]
      },
      "properties": {
        "label": "La Citière Generating Station",
        "type": "thermal power station",
        "powerplant": "http://www.wikidata.org/entity/Q115100136",
        "country_qid": "Q16"
      }
    },
    {
      "type": "Feature",
      "geometry": {
        "type": "Point",
        "coordinates": [
          -68.3294,
          49.1914
        ]
      },
      "properties": {
        "label": "Manic-1",
        "type": "hydroelectric power station",
        "powerplant": "http://www.wikidata.org/entity/Q120596",
        "country_qid": "Q16"
      }
    },
    {
      "type": "Feature",
      "geometry": {
        "type": "Point",
        "coordinates": [
          -68.1594,
          49.9706
        ]
      },
      "properties": {
        "label": "Toulnustouc Generating Station",
        "type": "hydroelectric power station",
        "powerplant": "http://www.wikidata.org/entity/Q203226",
        "country_qid": "Q16"
      }
    },
    {
      "type": "Feature",
      "geometry": {
        "type": "Point",
        "coordinates": [
          -94.3694,
          56.4003
        ]
      },
      "properties": {
        "label": "Long Spruce Generating Station",
        "type": "hydroelectric power station",
        "powerplant": "http://www.wikidata.org/entity/Q373526",
        "country_qid": "Q16"
      }
    },
    {
      "type": "Feature",
      "geometry": {
        "type": "Point",
        "coordinates": [
          -72.97342,
          47.79661
        ]
      },
      "properties": {
        "label": "Rapide-Blanc Generating Station",
        "type": "hydroelectric power station",
        "powerplant": "http://www.wikidata.org/entity/Q430663",
        "country_qid": "Q16"
      }
    },
    {
      "type": "Feature",
      "geometry": {
        "type": "Point",
        "coordinates": [
          -68.3269,
          49.1931
        ]
      },
      "properties": {
        "label": "McCormick Generating Station",
        "type": "hydroelectric power station",
        "powerplant": "http://www.wikidata.org/entity/Q731237",
        "country_qid": "Q16"
      }
    },
    {
      "type": "Feature",
      "geometry": {
        "type": "Point",
        "coordinates": [
          -72.879,
          47.7533
        ]
      },
      "properties": {
        "label": "Trenche Generating Station",
        "type": "hydroelectric power station",
        "powerplant": "http://www.wikidata.org/entity/Q769693",
        "country_qid": "Q16"
      }
    },
    {
      "type": "Feature",
      "geometry": {
        "type": "Point",
        "coordinates": [
          -73.9089,
          45.3139
        ]
      },
      "properties": {
        "label": "Beauharnois Hydroelectric Generating Station",
        "type": "hydroelectric power station",
        "powerplant": "http://www.wikidata.org/entity/Q925113",
        "country_qid": "Q16"
      }
    },
    {
      "type": "Feature",
      "geometry": {
        "type": "Point",
        "coordinates": [
          -68.5922,
          49.7397
        ]
      },
      "properties": {
        "label": "René-Lévesque generating station",
        "type": "hydroelectric power station",
        "powerplant": "http://www.wikidata.org/entity/Q1302322",
        "country_qid": "Q16"
      }
    },
    {
      "type": "Feature",
      "geometry": {
        "type": "Point",
        "coordinates": [
          -96.53888889,
          56.04055556
        ]
      },
      "properties": {
        "label": "Kelsey Generating Station",
        "type": "hydroelectric power station",
        "powerplant": "http://www.wikidata.org/entity/Q1323872",
        "country_qid": "Q16"
      }
    },
    {
      "type": "Feature",
      "geometry": {
        "type": "Point",
        "coordinates": [
          -68.9058,
          49.7056
        ]
      },
      "properties": {
        "label": "Outardes-4 Generating Station",
        "type": "hydroelectric power station",
        "powerplant": "http://www.wikidata.org/entity/Q1328582",
        "country_qid": "Q16"
      }
    },
    {
      "type": "Feature",
      "geometry": {
        "type": "Point",
        "coordinates": [
          -68.346666666,
          49.321666666
        ]
      },
      "properties": {
        "label": "Jean-Lesage generating station",
        "type": "hydroelectric power station",
        "powerplant": "http://www.wikidata.org/entity/Q1328614",
        "country_qid": "Q16"
      }
    },
    {
      "type": "Feature",
      "geometry": {
        "type": "Point",
        "coordinates": [
          -68.72333333,
          49.55661111
        ]
      },
      "properties": {
        "label": "Outardes-3 Generating Station",
        "type": "Run-of-river hydroelectricity",
        "powerplant": "http://www.wikidata.org/entity/Q1329257",
        "country_qid": "Q16"
      }
    },
    {
      "type": "Feature",
      "geometry": {
        "type": "Point",
        "coordinates": [
          -68.3897853,
          49.1445204
        ]
      },
      "properties": {
        "label": "Outardes-2 Generating Station",
        "type": "Run-of-river hydroelectricity",
        "powerplant": "http://www.wikidata.org/entity/Q1329822",
        "country_qid": "Q16"
      }
    },
    {
      "type": "Feature",
      "geometry": {
        "type": "Point",
        "coordinates": [
          -71.2806,
          54.5889
        ]
      },
      "properties": {
        "label": "Laforge-2 generating station",
        "type": "architectural structure",
        "powerplant": "http://www.wikidata.org/entity/Q1329837",
        "country_qid": "Q16"
      }
    },
    {
      "type": "Feature",
      "geometry": {
        "type": "Point",
        "coordinates": [
          -71.2806,
          54.5889
        ]
      },
      "properties": {
        "label": "Laforge-2 generating station",
        "type": "hydroelectric power station",
        "powerplant": "http://www.wikidata.org/entity/Q1329837",
        "country_qid": "Q16"
      }
    },
    {
      "type": "Feature",
      "geometry": {
        "type": "Point",
        "coordinates": [
          -77.5483,
          53.7794
        ]
      },
      "properties": {
        "label": "La Grande-2-A generating station",
        "type": "hydroelectric power station",
        "powerplant": "http://www.wikidata.org/entity/Q1337853",
        "country_qid": "Q16"
      }
    },
    {
      "type": "Feature",
      "geometry": {
        "type": "Point",
        "coordinates": [
          -69.2292,
          49.1753
        ]
      },
      "properties": {
        "label": "Bersimis-2 generating station",
        "type": "hydroelectric power station",
        "powerplant": "http://www.wikidata.org/entity/Q1338316",
        "country_qid": "Q16"
      }
    },
    {
      "type": "Feature",
      "geometry": {
        "type": "Point",
        "coordinates": [
          -70.512777777,
          54.449166666
        ]
      },
      "properties": {
        "label": "Brisay Generating Station",
        "type": "dam",
        "powerplant": "http://www.wikidata.org/entity/Q1338361",
        "country_qid": "Q16"
      }
    },
    {
      "type": "Feature",
      "geometry": {
        "type": "Point",
        "coordinates": [
          -70.512777777,
          54.449166666
        ]
      },
      "properties": {
        "label": "Brisay Generating Station",
        "type": "hydroelectric power station",
        "powerplant": "http://www.wikidata.org/entity/Q1338361",
        "country_qid": "Q16"
      }
    },
    {
      "type": "Feature",
      "geometry": {
        "type": "Point",
        "coordinates": [
          -72.6167,
          54.1667
        ]
      },
      "properties": {
        "label": "Laforge-1 generating station",
        "type": "dam",
        "powerplant": "http://www.wikidata.org/entity/Q1338720",
        "country_qid": "Q16"
      }
    },
    {
      "type": "Feature",
      "geometry": {
        "type": "Point",
        "coordinates": [
          -72.6167,
          54.1667
        ]
      },
      "properties": {
        "label": "Laforge-1 generating station",
        "type": "hydroelectric power station",
        "powerplant": "http://www.wikidata.org/entity/Q1338720",
        "country_qid": "Q16"
      }
    },
    {
      "type": "Feature",
      "geometry": {
        "type": "Point",
        "coordinates": [
          -78.573888888,
          53.734444444
        ]
      },
      "properties": {
        "label": "La Grande-1 generating station",
        "type": "hydroelectric power station",
        "powerplant": "http://www.wikidata.org/entity/Q1338919",
        "country_qid": "Q16"
      }
    },
    {
      "type": "Feature",
      "geometry": {
        "type": "Point",
        "coordinates": [
          -75.9683,
          53.7297
        ]
      },
      "properties": {
        "label": "La Grande-3 generating station",
        "type": "dam",
        "powerplant": "http://www.wikidata.org/entity/Q1339454",
        "country_qid": "Q16"
      }
    },
    {
      "type": "Feature",
      "geometry": {
        "type": "Point",
        "coordinates": [
          -75.9683,
          53.7297
        ]
      },
      "properties": {
        "label": "La Grande-3 generating station",
        "type": "hydroelectric power station",
        "powerplant": "http://www.wikidata.org/entity/Q1339454",
        "country_qid": "Q16"
      }
    },
    {
      "type": "Feature",
      "geometry": {
        "type": "Point",
        "coordinates": [
          -73.4625,
          53.8861
        ]
      },
      "properties": {
        "label": "La Grande-4 generating station",
        "type": "hydroelectric power station",
        "powerplant": "http://www.wikidata.org/entity/Q1339475",
        "country_qid": "Q16"
      }
    },
    {
      "type": "Feature",
      "geometry": {
        "type": "Point",
        "coordinates": [
          -69.5508,
          49.2958
        ]
      },
      "properties": {
        "label": "Bersimis-1 generating station",
        "type": "hydroelectric power station",
        "powerplant": "http://www.wikidata.org/entity/Q1410164",
        "country_qid": "Q16"
      }
    },
    {
      "type": "Feature",
      "geometry": {
        "type": "Point",
        "coordinates": [
          -68.724444444,
          50.646666666
        ]
      },
      "properties": {
        "label": "Manic-5 generating station",
        "type": "hydroelectric power station",
        "powerplant": "http://www.wikidata.org/entity/Q1425918",
        "country_qid": "Q16"
      }
    },
    {
      "type": "Feature",
      "geometry": {
        "type": "Point",
        "coordinates": [
          -118.194,
          51.0494
        ]
      },
      "properties": {
        "label": "Revelstoke Dam",
        "type": "dam",
        "powerplant": "http://www.wikidata.org/entity/Q1433635",
        "country_qid": "Q16"
      }
    },
    {
      "type": "Feature",
      "geometry": {
        "type": "Point",
        "coordinates": [
          -118.194,
          51.0494
        ]
      },
      "properties": {
        "label": "Revelstoke Dam",
        "type": "hydroelectric power station",
        "powerplant": "http://www.wikidata.org/entity/Q1433635",
        "country_qid": "Q16"
      }
    },
    {
      "type": "Feature",
      "geometry": {
        "type": "Point",
        "coordinates": [
          -77.4406,
          53.7953
        ]
      },
      "properties": {
        "label": "Robert-Bourassa generating station",
        "type": "hydroelectric power station",
        "powerplant": "http://www.wikidata.org/entity/Q1456859",
        "country_qid": "Q16"
      }
    },
    {
      "type": "Feature",
      "geometry": {
        "type": "Point",
        "coordinates": [
          -63.9659,
          53.5287
        ]
      },
      "properties": {
        "label": "Churchill Falls Generating Station",
        "type": "waterfall",
        "powerplant": "http://www.wikidata.org/entity/Q1458507",
        "country_qid": "Q16"
      }
    },
    {
      "type": "Feature",
      "geometry": {
        "type": "Point",
        "coordinates": [
          -63.9659,
          53.5287
        ]
      },
      "properties": {
        "label": "Churchill Falls Generating Station",
        "type": "hydroelectric power station",
        "powerplant": "http://www.wikidata.org/entity/Q1458507",
        "country_qid": "Q16"
      }
    },
    {
      "type": "Feature",
      "geometry": {
        "type": "Point",
        "coordinates": [
          -117.772,
          49.3394
        ]
      },
      "properties": {
        "label": "Hugh Keenleyside Dam",
        "type": "embankment dam",
        "powerplant": "http://www.wikidata.org/entity/Q2885187",
        "country_qid": "Q16"
      }
    },
    {
      "type": "Feature",
      "geometry": {
        "type": "Point",
        "coordinates": [
          -117.772,
          49.3394
        ]
      },
      "properties": {
        "label": "Hugh Keenleyside Dam",
        "type": "hydroelectric power station",
        "powerplant": "http://www.wikidata.org/entity/Q2885187",
        "country_qid": "Q16"
      }
    },
    {
      "type": "Feature",
      "geometry": {
        "type": "Point",
        "coordinates": [
          -72.83583333,
          47.55619444
        ]
      },
      "properties": {
        "label": "Beaumont generating station",
        "type": "hydroelectric power station",
        "powerplant": "http://www.wikidata.org/entity/Q2944447",
        "country_qid": "Q16"
      }
    },
    {
      "type": "Feature",
      "geometry": {
        "type": "Point",
        "coordinates": [
          -72.10519,
          45.27258
        ]
      },
      "properties": {
        "label": "La Grande-Dame",
        "type": "dam",
        "powerplant": "http://www.wikidata.org/entity/Q2944449",
        "country_qid": "Q16"
      }
    },
    {
      "type": "Feature",
      "geometry": {
        "type": "Point",
        "coordinates": [
          -72.10519,
          45.27258
        ]
      },
      "properties": {
        "label": "La Grande-Dame",
        "type": "hydroelectric power station",
        "powerplant": "http://www.wikidata.org/entity/Q2944449",
        "country_qid": "Q16"
      }
    },
    {
      "type": "Feature",
      "geometry": {
        "type": "Point",
        "coordinates": [
          -75.9833,
          46.7175
        ]
      },
      "properties": {
        "label": "Q2944450",
        "type": "hydroelectric power station",
        "powerplant": "http://www.wikidata.org/entity/Q2944450",
        "country_qid": "Q16"
      }
    },
    {
      "type": "Feature",
      "geometry": {
        "type": "Point",
        "coordinates": [
          -72.1437,
          45.2629
        ]
      },
      "properties": {
        "label": "Q2944451",
        "type": "hydroelectric power station",
        "powerplant": "http://www.wikidata.org/entity/Q2944451",
        "country_qid": "Q16"
      }
    },
    {
      "type": "Feature",
      "geometry": {
        "type": "Point",
        "coordinates": [
          -76.6311,
          45.6611
        ]
      },
      "properties": {
        "label": "Q2944464",
        "type": "hydroelectric power station",
        "powerplant": "http://www.wikidata.org/entity/Q2944464",
        "country_qid": "Q16"
      }
    },
    {
      "type": "Feature",
      "geometry": {
        "type": "Point",
        "coordinates": [
          -75.7775,
          45.5125
        ]
      },
      "properties": {
        "label": "Chelsea Generating Station",
        "type": "hydroelectric power station",
        "powerplant": "http://www.wikidata.org/entity/Q2944466",
        "country_qid": "Q16"
      }
    },
    {
      "type": "Feature",
      "geometry": {
        "type": "Point",
        "coordinates": [
          -72.483888888,
          45.886944444
        ]
      },
      "properties": {
        "label": "Drummondville Generating Station",
        "type": "hydroelectric power station",
        "powerplant": "http://www.wikidata.org/entity/Q2944470",
        "country_qid": "Q16"
      }
    },
    {
      "type": "Feature",
      "geometry": {
        "type": "Point",
        "coordinates": [
          -74.3836,
          45.5686
        ]
      },
      "properties": {
        "label": "Carillon Generating Station",
        "type": "hydroelectric power station",
        "powerplant": "http://www.wikidata.org/entity/Q2944472",
        "country_qid": "Q16"
      }
    },
    {
      "type": "Feature",
      "geometry": {
        "type": "Point",
        "coordinates": [
          -75.719722222,
          45.421666666
        ]
      },
      "properties": {
        "label": "centrale de Hull-2",
        "type": "hydroelectric power station",
        "powerplant": "http://www.wikidata.org/entity/Q2944473",
        "country_qid": "Q16"
      }
    },
    {
      "type": "Feature",
      "geometry": {
        "type": "Point",
        "coordinates": [
          -72.6758,
          46.6153
        ]
      },
      "properties": {
        "label": "Centrale de Grand-Mère",
        "type": "hydroelectric power station",
        "powerplant": "http://www.wikidata.org/entity/Q2944474",
        "country_qid": "Q16"
      }
    },
    {
      "type": "Feature",
      "geometry": {
        "type": "Point",
        "coordinates": [
          -72.7994,
          47.4442
        ]
      },
      "properties": {
        "label": "La Tuque Generating Station",
        "type": "hydroelectric power station",
        "powerplant": "http://www.wikidata.org/entity/Q2944478",
        "country_qid": "Q16"
      }
    },
    {
      "type": "Feature",
      "geometry": {
        "type": "Point",
        "coordinates": [
          -72.7422,
          46.4483
        ]
      },
      "properties": {
        "label": "La Gabelle Generating Station",
        "type": "hydroelectric power station",
        "powerplant": "http://www.wikidata.org/entity/Q2944479",
        "country_qid": "Q16"
      }
    },
    {
      "type": "Feature",
      "geometry": {
        "type": "Point",
        "coordinates": [
          -68.1386,
          48.6036
        ]
      },
      "properties": {
        "label": "Mitis-1 Generating Station",
        "type": "hydroelectric power station",
        "powerplant": "http://www.wikidata.org/entity/Q2944480",
        "country_qid": "Q16"
      }
    },
    {
      "type": "Feature",
      "geometry": {
        "type": "Point",
        "coordinates": [
          -68.1386,
          48.6219
        ]
      },
      "properties": {
        "label": "Centrale Mitis-2",
        "type": "hydroelectric power station",
        "powerplant": "http://www.wikidata.org/entity/Q2944481",
        "country_qid": "Q16"
      }
    },
    {
      "type": "Feature",
      "geometry": {
        "type": "Point",
        "coordinates": [
          -78.5761,
          47.9336
        ]
      },
      "properties": {
        "label": "Rapide-2 Generating Station",
        "type": "hydroelectric power station",
        "powerplant": "http://www.wikidata.org/entity/Q2944482",
        "country_qid": "Q16"
      }
    },
    {
      "type": "Feature",
      "geometry": {
        "type": "Point",
        "coordinates": [
          -72.4106,
          46.5481
        ]
      },
      "properties": {
        "label": "Saint-Narcisse Generating Station",
        "type": "hydroelectric power station",
        "powerplant": "http://www.wikidata.org/entity/Q2944486",
        "country_qid": "Q16"
      }
    },
    {
      "type": "Feature",
      "geometry": {
        "type": "Point",
        "coordinates": [
          -75.926944444,
          45.811666666
        ]
      },
      "properties": {
        "label": "Paugan Generating Station",
        "type": "hydroelectric power station",
        "powerplant": "http://www.wikidata.org/entity/Q2944487",
        "country_qid": "Q16"
      }
    },
    {
      "type": "Feature",
      "geometry": {
        "type": "Point",
        "coordinates": [
          -78.3128,
          47.7689
        ]
      },
      "properties": {
        "label": "Rapide-7",
        "type": "hydroelectric power station",
        "powerplant": "http://www.wikidata.org/entity/Q2944488",
        "country_qid": "Q16"
      }
    },
    {
      "type": "Feature",
      "geometry": {
        "type": "Point",
        "coordinates": [
          -72.7673,
          46.5365
        ]
      },
      "properties": {
        "label": "Shawinigan-2 Generating Station",
        "type": "hydroelectric power station",
        "powerplant": "http://www.wikidata.org/entity/Q2944489",
        "country_qid": "Q16"
      }
    },
    {
      "type": "Feature",
      "geometry": {
        "type": "Point",
        "coordinates": [
          -73.7183,
          47.8929
        ]
      },
      "properties": {
        "label": "Chute-Allard Generating Station",
        "type": "hydroelectric power station",
        "powerplant": "http://www.wikidata.org/entity/Q2944490",
        "country_qid": "Q16"
      }
    },
    {
      "type": "Feature",
      "geometry": {
        "type": "Point",
        "coordinates": [
          -71.1286,
          48.3862
        ]
      },
      "properties": {
        "label": "Centrale de la Chute-Garneau",
        "type": "Run-of-river hydroelectricity",
        "powerplant": "http://www.wikidata.org/entity/Q2944496",
        "country_qid": "Q16"
      }
    },
    {
      "type": "Feature",
      "geometry": {
        "type": "Point",
        "coordinates": [
          -71.1286,
          48.3862
        ]
      },
      "properties": {
        "label": "Centrale de la Chute-Garneau",
        "type": "Run-of-river hydroelectricity",
        "powerplant": "http://www.wikidata.org/entity/Q2944496",
        "country_qid": "Q16"
      }
    },
    {
      "type": "Feature",
      "geometry": {
        "type": "Point",
        "coordinates": [
          -71.1286,
          48.3862
        ]
      },
      "properties": {
        "label": "Centrale de la Chute-Garneau",
        "type": "hydroelectric power station",
        "powerplant": "http://www.wikidata.org/entity/Q2944496",
        "country_qid": "Q16"
      }
    },
    {
      "type": "Feature",
      "geometry": {
        "type": "Point",
        "coordinates": [
          -71.1286,
          48.3862
        ]
      },
      "properties": {
        "label": "Centrale de la Chute-Garneau",
        "type": "hydroelectric power station",
        "powerplant": "http://www.wikidata.org/entity/Q2944496",
        "country_qid": "Q16"
      }
    },
    {
      "type": "Feature",
      "geometry": {
        "type": "Point",
        "coordinates": [
          -72.7656,
          46.5338
        ]
      },
      "properties": {
        "label": "Shawinigan-3 Generating Station",
        "type": "hydroelectric power station",
        "powerplant": "http://www.wikidata.org/entity/Q2944497",
        "country_qid": "Q16"
      }
    },
    {
      "type": "Feature",
      "geometry": {
        "type": "Point",
        "coordinates": [
          -72.450833333,
          45.8625
        ]
      },
      "properties": {
        "label": "Chute-Hemmings Generating Station",
        "type": "hydroelectric power station",
        "powerplant": "http://www.wikidata.org/entity/Q2944498",
        "country_qid": "Q16"
      }
    },
    {
      "type": "Feature",
      "geometry": {
        "type": "Point",
        "coordinates": [
          -74.6859,
          45.7738
        ]
      },
      "properties": {
        "label": "Chute-Bell Generating Station",
        "type": "hydroelectric power station",
        "powerplant": "http://www.wikidata.org/entity/Q2944499",
        "country_qid": "Q16"
      }
    },
    {
      "type": "Feature",
      "geometry": {
        "type": "Point",
        "coordinates": [
          -67.9128,
          51.785
        ]
      },
      "properties": {
        "label": "Hart-Jaune Dam",
        "type": "dam",
        "powerplant": "http://www.wikidata.org/entity/Q2944500",
        "country_qid": "Q16"
      }
    },
    {
      "type": "Feature",
      "geometry": {
        "type": "Point",
        "coordinates": [
          -67.9128,
          51.785
        ]
      },
      "properties": {
        "label": "Hart-Jaune Dam",
        "type": "hydroelectric power station",
        "powerplant": "http://www.wikidata.org/entity/Q2944500",
        "country_qid": "Q16"
      }
    },
    {
      "type": "Feature",
      "geometry": {
        "type": "Point",
        "coordinates": [
          -79.4525,
          47.6
        ]
      },
      "properties": {
        "label": "Q2944501",
        "type": "hydroelectric power station",
        "powerplant": "http://www.wikidata.org/entity/Q2944501",
        "country_qid": "Q16"
      }
    },
    {
      "type": "Feature",
      "geometry": {
        "type": "Point",
        "coordinates": [
          -76.248611111,
          45.476388888
        ]
      },
      "properties": {
        "label": "Chats Falls",
        "type": "waterfall",
        "powerplant": "http://www.wikidata.org/entity/Q2944502",
        "country_qid": "Q16"
      }
    },
    {
      "type": "Feature",
      "geometry": {
        "type": "Point",
        "coordinates": [
          -76.248611111,
          45.476388888
        ]
      },
      "properties": {
        "label": "Chats Falls",
        "type": "hydroelectric power station",
        "powerplant": "http://www.wikidata.org/entity/Q2944502",
        "country_qid": "Q16"
      }
    },
    {
      "type": "Feature",
      "geometry": {
        "type": "Point",
        "coordinates": [
          -76.6345,
          52.6669
        ]
      },
      "properties": {
        "label": "Q2944504",
        "type": "hydroelectric power station",
        "powerplant": "http://www.wikidata.org/entity/Q2944504",
        "country_qid": "Q16"
      }
    },
    {
      "type": "Feature",
      "geometry": {
        "type": "Point",
        "coordinates": [
          -71.17972222,
          49.50958333
        ]
      },
      "properties": {
        "label": "Péribonka generating station",
        "type": "hydroelectric power station",
        "powerplant": "http://www.wikidata.org/entity/Q2944505",
        "country_qid": "Q16"
      }
    },
    {
      "type": "Feature",
      "geometry": {
        "type": "Point",
        "coordinates": [
          -73.65736,
          45.589546
        ]
      },
      "properties": {
        "label": "Rivière des Prairies generating station",
        "type": "Run-of-river hydroelectricity",
        "powerplant": "http://www.wikidata.org/entity/Q2944508",
        "country_qid": "Q16"
      }
    },
    {
      "type": "Feature",
      "geometry": {
        "type": "Point",
        "coordinates": [
          -73.65736,
          45.589546
        ]
      },
      "properties": {
        "label": "Rivière des Prairies generating station",
        "type": "Run-of-river hydroelectricity",
        "powerplant": "http://www.wikidata.org/entity/Q2944508",
        "country_qid": "Q16"
      }
    },
    {
      "type": "Feature",
      "geometry": {
        "type": "Point",
        "coordinates": [
          -73.65736,
          45.589546
        ]
      },
      "properties": {
        "label": "Rivière des Prairies generating station",
        "type": "hydroelectric power station",
        "powerplant": "http://www.wikidata.org/entity/Q2944508",
        "country_qid": "Q16"
      }
    },
    {
      "type": "Feature",
      "geometry": {
        "type": "Point",
        "coordinates": [
          -73.65736,
          45.589546
        ]
      },
      "properties": {
        "label": "Rivière des Prairies generating station",
        "type": "hydroelectric power station",
        "powerplant": "http://www.wikidata.org/entity/Q2944508",
        "country_qid": "Q16"
      }
    },
    {
      "type": "Feature",
      "geometry": {
        "type": "Point",
        "coordinates": [
          -74.0273,
          45.3088
        ]
      },
      "properties": {
        "label": "Cèdres power station",
        "type": "hydroelectric power station",
        "powerplant": "http://www.wikidata.org/entity/Q2944510",
        "country_qid": "Q16"
      }
    },
    {
      "type": "Feature",
      "geometry": {
        "type": "Point",
        "coordinates": [
          -73.375,
          47.786388888
        ]
      },
      "properties": {
        "label": "Rapides-des-Cœurs Generating Station",
        "type": "hydroelectric power station",
        "powerplant": "http://www.wikidata.org/entity/Q2944511",
        "country_qid": "Q16"
      }
    },
    {
      "type": "Feature",
      "geometry": {
        "type": "Point",
        "coordinates": [
          -79.2947,
          47.59
        ]
      },
      "properties": {
        "label": "Q2944512",
        "type": "hydroelectric power station",
        "powerplant": "http://www.wikidata.org/entity/Q2944512",
        "country_qid": "Q16"
      }
    },
    {
      "type": "Feature",
      "geometry": {
        "type": "Point",
        "coordinates": [
          -79.3547,
          47.5764
        ]
      },
      "properties": {
        "label": "Q2944514",
        "type": "hydroelectric power station",
        "powerplant": "http://www.wikidata.org/entity/Q2944514",
        "country_qid": "Q16"
      }
    },
    {
      "type": "Feature",
      "geometry": {
        "type": "Point",
        "coordinates": [
          -75.7633,
          45.4988
        ]
      },
      "properties": {
        "label": "Centrale des Rapides-Farmer",
        "type": "hydroelectric power station",
        "powerplant": "http://www.wikidata.org/entity/Q2944516",
        "country_qid": "Q16"
      }
    },
    {
      "type": "Feature",
      "geometry": {
        "type": "Point",
        "coordinates": [
          -59.0616,
          50.9989
        ]
      },
      "properties": {
        "label": "Lac-Robertson Generating Station",
        "type": "hydroelectric power station",
        "powerplant": "http://www.wikidata.org/entity/Q2944526",
        "country_qid": "Q16"
      }
    },
    {
      "type": "Feature",
      "geometry": {
        "type": "Point",
        "coordinates": [
          -72.6758,
          46.6153
        ]
      },
      "properties": {
        "label": "Centrale du Rocher-de-Grand-Mère",
        "type": "hydroelectric power station",
        "powerplant": "http://www.wikidata.org/entity/Q2944529",
        "country_qid": "Q16"
      }
    },
    {
      "type": "Feature",
      "geometry": {
        "type": "Point",
        "coordinates": [
          -71.80793,
          45.14596
        ]
      },
      "properties": {
        "label": "Q126884480",
        "type": "small hydro",
        "powerplant": "http://www.wikidata.org/entity/Q126884480",
        "country_qid": "Q16"
      }
    },
    {
      "type": "Feature",
      "geometry": {
        "type": "Point",
        "coordinates": [
          -71.220513582,
          46.828628862
        ]
      },
      "properties": {
        "label": "Complexe de valorisation énergétique",
        "type": "incinerator",
        "powerplant": "http://www.wikidata.org/entity/Q131728564",
        "country_qid": "Q16"
      }
    },
    {
      "type": "Feature",
      "geometry": {
        "type": "Point",
        "coordinates": [
          -80.0503,
          42.8
        ]
      },
      "properties": {
        "label": "Nanticoke Generating Station",
        "type": "coal-fired power station",
        "powerplant": "http://www.wikidata.org/entity/Q2944695",
        "country_qid": "Q16"
      }
    },
    {
      "type": "Feature",
      "geometry": {
        "type": "Point",
        "coordinates": [
          -91.5708,
          48.8381
        ]
      },
      "properties": {
        "label": "Atikokan Generating Station",
        "type": "biomass combined heat and power station",
        "powerplant": "http://www.wikidata.org/entity/Q4815789",
        "country_qid": "Q16"
      }
    },
    {
      "type": "Feature",
      "geometry": {
        "type": "Point",
        "coordinates": [
          -91.5708,
          48.8381
        ]
      },
      "properties": {
        "label": "Atikokan Generating Station",
        "type": "coal-fired power station",
        "powerplant": "http://www.wikidata.org/entity/Q4815789",
        "country_qid": "Q16"
      }
    },
    {
      "type": "Feature",
      "geometry": {
        "type": "Point",
        "coordinates": [
          -112.13388889,
          52.46888889
        ]
      },
      "properties": {
        "label": "Battle River Generating Station",
        "type": "coal-fired power station",
        "powerplant": "http://www.wikidata.org/entity/Q4870103",
        "country_qid": "Q16"
      }
    },
    {
      "type": "Feature",
      "geometry": {
        "type": "Point",
        "coordinates": [
          -103.03,
          49.0964
        ]
      },
      "properties": {
        "label": "Boundary Dam Power Station",
        "type": "coal-fired power station",
        "powerplant": "http://www.wikidata.org/entity/Q4949936",
        "country_qid": "Q16"
      }
    },
    {
      "type": "Feature",
      "geometry": {
        "type": "Point",
        "coordinates": [
          -99.8892,
          49.8453
        ]
      },
      "properties": {
        "label": "Brandon Generating Station",
        "type": "coal-fired power station",
        "powerplant": "http://www.wikidata.org/entity/Q4956866",
        "country_qid": "Q16"
      }
    },
    {
      "type": "Feature",
      "geometry": {
        "type": "Point",
        "coordinates": [
          -66.3708,
          48.0519
        ]
      },
      "properties": {
        "label": "Dalhousie Generating Station",
        "type": "oil-fired power station",
        "powerplant": "http://www.wikidata.org/entity/Q5210868",
        "country_qid": "Q16"
      }
    },
    {
      "type": "Feature",
      "geometry": {
        "type": "Point",
        "coordinates": [
          -66.3708,
          48.0519
        ]
      },
      "properties": {
        "label": "Dalhousie Generating Station",
        "type": "coal-fired power station",
        "powerplant": "http://www.wikidata.org/entity/Q5210868",
        "country_qid": "Q16"
      }
    },
    {
      "type": "Feature",
      "geometry": {
        "type": "Point",
        "coordinates": [
          -65.86138889,
          47.86027778
        ]
      },
      "properties": {
        "label": "Belledune Generating Station",
        "type": "coal-fired power station",
        "powerplant": "http://www.wikidata.org/entity/Q11960505",
        "country_qid": "Q16"
      }
    },
    {
      "type": "Feature",
      "geometry": {
        "type": "Point",
        "coordinates": [
          -65.8635,
          47.906
        ]
      },
      "properties": {
        "label": "Belledune Generating Station",
        "type": "coal-fired power station",
        "powerplant": "http://www.wikidata.org/entity/Q11960505",
        "country_qid": "Q16"
      }
    },
    {
      "type": "Feature",
      "geometry": {
        "type": "Point",
        "coordinates": [
          -114.303,
          53.343
        ]
      },
      "properties": {
        "label": "Genesee Generating Station",
        "type": "coal-fired power station",
        "powerplant": "http://www.wikidata.org/entity/Q5532732",
        "country_qid": "Q16"
      }
    },
    {
      "type": "Feature",
      "geometry": {
        "type": "Point",
        "coordinates": [
          -79.3351,
          43.6455
        ]
      },
      "properties": {
        "label": "Hearn Generating Station",
        "type": "natural gas-fired power station",
        "powerplant": "http://www.wikidata.org/entity/Q5691682",
        "country_qid": "Q16"
      }
    },
    {
      "type": "Feature",
      "geometry": {
        "type": "Point",
        "coordinates": [
          -79.3351,
          43.6455
        ]
      },
      "properties": {
        "label": "Hearn Generating Station",
        "type": "coal-fired power station",
        "powerplant": "http://www.wikidata.org/entity/Q5691682",
        "country_qid": "Q16"
      }
    },
    {
      "type": "Feature",
      "geometry": {
        "type": "Point",
        "coordinates": [
          -114.45055556,
          53.44833333
        ]
      },
      "properties": {
        "label": "Keephills Generating Station",
        "type": "coal-fired power station",
        "powerplant": "http://www.wikidata.org/entity/Q6383236",
        "country_qid": "Q16"
      }
    },
    {
      "type": "Feature",
      "geometry": {
        "type": "Point",
        "coordinates": [
          -79.5517,
          43.5711
        ]
      },
      "properties": {
        "label": "Lakeview Generating Station",
        "type": "coal-fired power station",
        "powerplant": "http://www.wikidata.org/entity/Q6479239",
        "country_qid": "Q16"
      }
    },
    {
      "type": "Feature",
      "geometry": {
        "type": "Point",
        "coordinates": [
          -82.4694,
          42.7972
        ]
      },
      "properties": {
        "label": "Lambton Generating Station",
        "type": "coal-fired power station",
        "powerplant": "http://www.wikidata.org/entity/Q6481597",
        "country_qid": "Q16"
      }
    },
    {
      "type": "Feature",
      "geometry": {
        "type": "Point",
        "coordinates": [
          -60.03927,
          46.235541
        ]
      },
      "properties": {
        "label": "Lingan Generating Station",
        "type": "coal-fired power station",
        "powerplant": "http://www.wikidata.org/entity/Q6553764",
        "country_qid": "Q16"
      }
    },
    {
      "type": "Feature",
      "geometry": {
        "type": "Point",
        "coordinates": [
          -60.329987,
          46.321633
        ]
      },
      "properties": {
        "label": "Point Aconi Generating Station",
        "type": "coal-fired power station",
        "powerplant": "http://www.wikidata.org/entity/Q7207928",
        "country_qid": "Q16"
      }
    },
    {
      "type": "Feature",
      "geometry": {
        "type": "Point",
        "coordinates": [
          -61.3481,
          45.5869
        ]
      },
      "properties": {
        "label": "Point Tupper Generating Station",
        "type": "coal-fired power station",
        "powerplant": "http://www.wikidata.org/entity/Q7208178",
        "country_qid": "Q16"
      }
    },
    {
      "type": "Feature",
      "geometry": {
        "type": "Point",
        "coordinates": [
          -105.483,
          49.0575
        ]
      },
      "properties": {
        "label": "Poplar River Power Station",
        "type": "coal-fired power station",
        "powerplant": "http://www.wikidata.org/entity/Q7229425",
        "country_qid": "Q16"
      }
    },
    {
      "type": "Feature",
      "geometry": {
        "type": "Point",
        "coordinates": [
          -96.8842,
          50.1422
        ]
      },
      "properties": {
        "label": "Selkirk Generating Station",
        "type": "gas-fired power station",
        "powerplant": "http://www.wikidata.org/entity/Q7448546",
        "country_qid": "Q16"
      }
    },
    {
      "type": "Feature",
      "geometry": {
        "type": "Point",
        "coordinates": [
          -96.8842,
          50.1422
        ]
      },
      "properties": {
        "label": "Selkirk Generating Station",
        "type": "coal-fired power station",
        "powerplant": "http://www.wikidata.org/entity/Q7448546",
        "country_qid": "Q16"
      }
    },
    {
      "type": "Feature",
      "geometry": {
        "type": "Point",
        "coordinates": [
          -102.864,
          49.0883
        ]
      },
      "properties": {
        "label": "Shand Power Station",
        "type": "coal-fired power station",
        "powerplant": "http://www.wikidata.org/entity/Q7487893",
        "country_qid": "Q16"
      }
    },
    {
      "type": "Feature",
      "geometry": {
        "type": "Point",
        "coordinates": [
          -111.79222222,
          51.44222222
        ]
      },
      "properties": {
        "label": "Sheerness Generating Station",
        "type": "coal-fired power station",
        "powerplant": "http://www.wikidata.org/entity/Q7492507",
        "country_qid": "Q16"
      }
    },
    {
      "type": "Feature",
      "geometry": {
        "type": "Point",
        "coordinates": [
          -114.557,
          53.5075
        ]
      },
      "properties": {
        "label": "Sundance Power Station",
        "type": "coal-fired power station",
        "powerplant": "http://www.wikidata.org/entity/Q7639182",
        "country_qid": "Q16"
      }
    },
    {
      "type": "Feature",
      "geometry": {
        "type": "Point",
        "coordinates": [
          -89.22,
          48.36
        ]
      },
      "properties": {
        "label": "Thunder Bay Generating Station",
        "type": "biomass combined heat and power station",
        "powerplant": "http://www.wikidata.org/entity/Q7798925",
        "country_qid": "Q16"
      }
    },
    {
      "type": "Feature",
      "geometry": {
        "type": "Point",
        "coordinates": [
          -89.22,
          48.36
        ]
      },
      "properties": {
        "label": "Thunder Bay Generating Station",
        "type": "coal-fired power station",
        "powerplant": "http://www.wikidata.org/entity/Q7798925",
        "country_qid": "Q16"
      }
    },
    {
      "type": "Feature",
      "geometry": {
        "type": "Point",
        "coordinates": [
          -62.6467,
          45.6209
        ]
      },
      "properties": {
        "label": "Trenton Generating Station",
        "type": "coal-fired power station",
        "powerplant": "http://www.wikidata.org/entity/Q7838579",
        "country_qid": "Q16"
      }
    },
    {
      "type": "Feature",
      "geometry": {
        "type": "Point",
        "coordinates": [
          -114.488,
          53.5583
        ]
      },
      "properties": {
        "label": "Wabamun Generating Station",
        "type": "coal-fired power station",
        "powerplant": "http://www.wikidata.org/entity/Q7958598",
        "country_qid": "Q16"
      }
    },
    {
      "type": "Feature",
      "geometry": {
        "type": "Point",
        "coordinates": [
          -119.103,
          54.0073
        ]
      },
      "properties": {
        "label": "H. R. Milner Generating Station",
        "type": "coal-fired power station",
        "powerplant": "http://www.wikidata.org/entity/Q14358040",
        "country_qid": "Q16"
      }
    },
    {
      "type": "Feature",
      "geometry": {
        "type": "Point",
        "coordinates": [
          -73.5329,
          45.5677
        ]
      },
      "properties": {
        "label": "Dickson Incinerator",
        "type": "incinerator",
        "powerplant": "http://www.wikidata.org/entity/Q3149914",
        "country_qid": "Q16"
      }
    },
    {
      "type": "Feature",
      "geometry": {
        "type": "Point",
        "coordinates": [
          -73.5911,
          45.5353
        ]
      },
      "properties": {
        "label": "Carrières incinerator",
        "type": "incinerator",
        "powerplant": "http://www.wikidata.org/entity/Q3149916",
        "country_qid": "Q16"
      }
    },
    {
      "type": "Feature",
      "geometry": {
        "type": "Point",
        "coordinates": [
          -71.6351,
          48.5769
        ]
      },
      "properties": {
        "label": "Centrale de L'Isle-Maligne",
        "type": "hydroelectric power station",
        "powerplant": "http://www.wikidata.org/entity/Q2944567",
        "country_qid": "Q16"
      }
    },
    {
      "type": "Feature",
      "geometry": {
        "type": "Point",
        "coordinates": [
          -71.215,
          48.4482
        ]
      },
      "properties": {
        "label": "Shipshaw Dam",
        "type": "dam",
        "powerplant": "http://www.wikidata.org/entity/Q3482327",
        "country_qid": "Q16"
      }
    },
    {
      "type": "Feature",
      "geometry": {
        "type": "Point",
        "coordinates": [
          -71.215,
          48.4482
        ]
      },
      "properties": {
        "label": "Shipshaw Dam",
        "type": "hydroelectric power station",
        "powerplant": "http://www.wikidata.org/entity/Q3482327",
        "country_qid": "Q16"
      }
    },
    {
      "type": "Feature",
      "geometry": {
        "type": "Point",
        "coordinates": [
          -81.5708,
          49.8778
        ]
      },
      "properties": {
        "label": "Abitibi Canyon Generating Station",
        "type": "dam",
        "powerplant": "http://www.wikidata.org/entity/Q4667986",
        "country_qid": "Q16"
      }
    },
    {
      "type": "Feature",
      "geometry": {
        "type": "Point",
        "coordinates": [
          -81.5708,
          49.8778
        ]
      },
      "properties": {
        "label": "Abitibi Canyon Generating Station",
        "type": "hydroelectric power station",
        "powerplant": "http://www.wikidata.org/entity/Q4667986",
        "country_qid": "Q16"
      }
    },
    {
      "type": "Feature",
      "geometry": {
        "type": "Point",
        "coordinates": [
          -109.019,
          59.6278
        ]
      },
      "properties": {
        "label": "Athabasca System Hydroelectric Stations",
        "type": "hydroelectric power station",
        "powerplant": "http://www.wikidata.org/entity/Q4813174",
        "country_qid": "Q16"
      }
    },
    {
      "type": "Feature",
      "geometry": {
        "type": "Point",
        "coordinates": [
          -55.80014167,
          47.99024444
        ]
      },
      "properties": {
        "label": "Bay d'Espoir Hydroelectric Power Station",
        "type": "hydroelectric power station",
        "powerplant": "http://www.wikidata.org/entity/Q4874173",
        "country_qid": "Q16"
      }
    },
    {
      "type": "Feature",
      "geometry": {
        "type": "Point",
        "coordinates": [
          -122.2425,
          50.73166667
        ]
      },
      "properties": {
        "label": "Bridge River Power Project",
        "type": "hydroelectric power station",
        "powerplant": "http://www.wikidata.org/entity/Q4966280",
        "country_qid": "Q16"
      }
    },
    {
      "type": "Feature",
      "geometry": {
        "type": "Point",
        "coordinates": [
          -83.095,
          42.2797
        ]
      },
      "properties": {
        "label": "Brighton Beach Generating Station",
        "type": "gas turbine power station",
        "powerplant": "http://www.wikidata.org/entity/Q4967600",
        "country_qid": "Q16"
      }
    },
    {
      "type": "Feature",
      "geometry": {
        "type": "Point",
        "coordinates": [
          -117.62,
          49.3247
        ]
      },
      "properties": {
        "label": "Brilliant Dam",
        "type": "gravity dam",
        "powerplant": "http://www.wikidata.org/entity/Q4968048",
        "country_qid": "Q16"
      }
    },
    {
      "type": "Feature",
      "geometry": {
        "type": "Point",
        "coordinates": [
          -117.62,
          49.3247
        ]
      },
      "properties": {
        "label": "Brilliant Dam",
        "type": "hydroelectric power station",
        "powerplant": "http://www.wikidata.org/entity/Q4968048",
        "country_qid": "Q16"
      }
    },
    {
      "type": "Feature",
      "geometry": {
        "type": "Point",
        "coordinates": [
          -56.764722222,
          50.025833333
        ]
      },
      "properties": {
        "label": "Cat Arm Hydroelectric Development",
        "type": "hydroelectric power station",
        "powerplant": "http://www.wikidata.org/entity/Q5051002",
        "country_qid": "Q16"
      }
    },
    {
      "type": "Feature",
      "geometry": {
        "type": "Point",
        "coordinates": [
          -106.873,
          51.275
        ]
      },