{
  "type": "FeatureCollection",
  "features": [
    {
      "type": "Feature",
      "geometry": {
        "type": "Point",
        "coordinates": [
          -1.65722,
          4.97167
        ]
      },
      "properties": {
        "label": "Takoradi Power Station",
        "type": "oil-fired power station",
        "powerplant": "http://www.wikidata.org/entity/Q7678482",
        "country_qid": "Q117"
      }
    },
    {
      "type": "Feature",
      "geometry": {
        "type": "Point",
        "coordinates": [
          0.012222222,
          5.674388888
        ]
      },
      "properties": {
        "label": "Tema Power Station",
        "type": "oil-fired power station",
        "powerplant": "http://www.wikidata.org/entity/Q16734150",
        "country_qid": "Q117"
      }
    },
    {
      "type": "Feature",
      "geometry": {
        "type": "Point",
        "coordinates": [
          -2.41972222,
          6.15555556
        ]
      },
      "properties": {
        "label": "Nzema Solar Power Station",
        "type": "photovoltaic power station",
        "powerplant": "http://www.wikidata.org/entity/Q25226949",
        "country_qid": "Q117"
      }
    },
    {
      "type": "Feature",
      "geometry": {
        "type": "Point",
        "coordinates": [
          -1.10277778,
          10.88
        ]
      },
      "properties": {
        "label": "Navrongo Solar Power Station",
        "type": "photovoltaic power station",
        "powerplant": "http://www.wikidata.org/entity/Q25226950",
        "country_qid": "Q117"
      }
    },
    {
      "type": "Feature",
      "geometry": {
        "type": "Point",
        "coordinates": [
          0.02972222,
          5.69916667
        ]
      },
      "properties": {
        "label": "Armech Thermal Power Station",
        "type": "power station",
        "powerplant": "http://www.wikidata.org/entity/Q55604202",
        "country_qid": "Q117"
      }
    },
    {
      "type": "Feature",
      "geometry": {
        "type": "Point",
        "coordinates": [
          -0.703333333,
          5.346111111
        ]
      },
      "properties": {
        "label": "Gomoa Onyaadze Solar Power Station",
        "type": "photovoltaic power station",
        "powerplant": "http://www.wikidata.org/entity/Q108084629",
        "country_qid": "Q117"
      }
    },
    {
      "type": "Feature",
      "geometry": {
        "type": "Point",
        "coordinates": [
          -0.693333333,
          5.372777777
        ]
      },
      "properties": {
        "label": "BXC Solar Power Station",
        "type": "photovoltaic power station",
        "powerplant": "http://www.wikidata.org/entity/Q108101904",
        "country_qid": "Q117"
      }
    },
    {
      "type": "Feature",
      "geometry": {
        "type": "Point",
        "coordinates": [
          -2.533611111,
          10.174166666
        ]
      },
      "properties": {
        "label": "Kaleo Solar Power Station",
        "type": "photovoltaic power station",
        "powerplant": "http://www.wikidata.org/entity/Q113859825",
        "country_qid": "Q117"
      }
    },
    {
      "type": "Feature",
      "geometry": {
        "type": "Point",
        "coordinates": [
          -3.0382589,
          5.0794053
        ]
      },
      "properties": {
        "label": "Osagyefo Barge",
        "type": "natural gas-fired power station",
        "powerplant": "http://www.wikidata.org/entity/Q7105531",
        "country_qid": "Q117"
      }
    },
    {
      "type": "Feature",
      "geometry": {
        "type": "Point",
        "coordinates": [
          0.012833333,
          5.673944444
        ]
      },
      "properties": {
        "label": "Q56373433",
        "type": "thermal power station",
        "powerplant": "http://www.wikidata.org/entity/Q56373433",
        "country_qid": "Q117"
      }
    },
    {
      "type": "Feature",
      "geometry": {
        "type": "Point",
        "coordinates": [
          0.024388888,
          5.694138888
        ]
      },
      "properties": {
        "label": "Q56373434",
        "type": "thermal power station",
        "powerplant": "http://www.wikidata.org/entity/Q56373434",
        "country_qid": "Q117"
      }
    },
    {
      "type": "Feature",
      "geometry": {
        "type": "Point",
        "coordinates": [
          0.013138888,
          5.679694444
        ]
      },
      "properties": {
        "label": "Q56373456",
        "type": "thermal power station",
        "powerplant": "http://www.wikidata.org/entity/Q56373456",
        "country_qid": "Q117"
      }
    },
    {
      "type": "Feature",
      "geometry": {
        "type": "Point",
        "coordinates": [
          -1.660305555,
          4.974166666
        ]
      },
      "properties": {
        "label": "Ameri Power Station",
        "type": "thermal power station",
        "powerplant": "http://www.wikidata.org/entity/Q56373458",
        "country_qid": "Q117"
      }
    },
    {
      "type": "Feature",
      "geometry": {
        "type": "Point",
        "coordinates": [
          0.059444,
          6.299722
        ]
      },
      "properties": {
        "label": "Akosombo Dam",
        "type": "hydroelectric power station",
        "powerplant": "http://www.wikidata.org/entity/Q1282314",
        "country_qid": "Q117"
      }
    },
    {
      "type": "Feature",
      "geometry": {
        "type": "Point",
        "coordinates": [
          0.059444,
          6.299722
        ]
      },
      "properties": {
        "label": "Akosombo Dam",
        "type": "hydroelectric dam",
        "powerplant": "http://www.wikidata.org/entity/Q1282314",
        "country_qid": "Q117"
      }
    },
    {
      "type": "Feature",
      "geometry": {
        "type": "Point",
        "coordinates": [
          0.125,
          6.12
        ]
      },
      "properties": {
        "label": "Kpong Dam",
        "type": "dam",
        "powerplant": "http://www.wikidata.org/entity/Q6435738",
        "country_qid": "Q117"
      }
    },
    {
      "type": "Feature",
      "geometry": {
        "type": "Point",
        "coordinates": [
          0.125,
          6.12
        ]
      },
      "properties": {
        "label": "Kpong Dam",
        "type": "hydroelectric power station",
        "powerplant": "http://www.wikidata.org/entity/Q6435738",
        "country_qid": "Q117"
      }
    },
    {
      "type": "Feature",
      "geometry": {
        "type": "Point",
        "coordinates": [
          0.125,
          6.12
        ]
      },
      "properties": {
        "label": "Kpong Dam",
        "type": "hydroelectric dam",
        "powerplant": "http://www.wikidata.org/entity/Q6435738",
        "country_qid": "Q117"
      }
    },
    {
      "type": "Feature",
      "geometry": {
        "type": "Point",
        "coordinates": [
          0.059444,
          6.299722
        ]
      },
      "properties": {
        "label": "Akosombo Dam",
        "type": "hydroelectric power station",
        "powerplant": "http://www.wikidata.org/entity/Q1282314",
        "country_qid": "Q117"
      }
    },
    {
      "type": "Feature",
      "geometry": {
        "type": "Point",
        "coordinates": [
          0.059444,
          6.299722
        ]
      },
      "properties": {
        "label": "Akosombo Dam",
        "type": "hydroelectric dam",
        "powerplant": "http://www.wikidata.org/entity/Q1282314",
        "country_qid": "Q117"
      }
    },
    {
      "type": "Feature",
      "geometry": {
        "type": "Point",
        "coordinates": [
          0.047388888,
          5.680388888
        ]
      },
      "properties": {
        "label": "Sonon Asogli Thermal Power Station",
        "type": "gas-fired power station",
        "powerplant": "http://www.wikidata.org/entity/Q25102069",
        "country_qid": "Q117"
      }
    },
    {
      "type": "Feature",
      "geometry": {
        "type": "Point",
        "coordinates": [
          -2.23583333,
          8.27833333
        ]
      },
      "properties": {
        "label": "Bui Dam",
        "type": "gravity dam",
        "powerplant": "http://www.wikidata.org/entity/Q4986338",
        "country_qid": "Q117"
      }
    },
    {
      "type": "Feature",
      "geometry": {
        "type": "Point",
        "coordinates": [
          -2.23583333,
          8.27833333
        ]
      },
      "properties": {
        "label": "Bui Dam",
        "type": "hydroelectric power station",
        "powerplant": "http://www.wikidata.org/entity/Q4986338",
        "country_qid": "Q117"
      }
    },
    {
      "type": "Feature",
      "geometry": {
        "type": "Point",
        "coordinates": [
          0.125,
          6.12
        ]
      },
      "properties": {
        "label": "Kpong Dam",
        "type": "dam",
        "powerplant": "http://www.wikidata.org/entity/Q6435738",
        "country_qid": "Q117"
      }
    },
    {
      "type": "Feature",
      "geometry": {
        "type": "Point",
        "coordinates": [
          0.125,
          6.12
        ]
      },
      "properties": {
        "label": "Kpong Dam",
        "type": "hydroelectric power station",
        "powerplant": "http://www.wikidata.org/entity/Q6435738",
        "country_qid": "Q117"
      }
    },
    {
      "type": "Feature",
      "geometry": {
        "type": "Point",
        "coordinates": [
          0.125,
          6.12
        ]
      },
      "properties": {
        "label": "Kpong Dam",
        "type": "hydroelectric dam",
        "powerplant": "http://www.wikidata.org/entity/Q6435738",
        "country_qid": "Q117"
      }
    },
    {
      "type": "Feature",
      "geometry": {
        "type": "Point",
        "coordinates": [
          0.01055556,
          5.735
        ]
      },
      "properties": {
        "label": "Kpone Thermal Power Station I",
        "type": "fossil-fuel power station",
        "powerplant": "http://www.wikidata.org/entity/Q25230618",
        "country_qid": "Q117"
      }
    },
    {
      "type": "Feature",
      "geometry": {
        "type": "Point",
        "coordinates": [
          0.041472222,
          5.6805
        ]
      },
      "properties": {
        "label": "Kpone Thermal Power Station II",
        "type": "fossil-fuel power station",
        "powerplant": "http://www.wikidata.org/entity/Q25247875",
        "country_qid": "Q117"
      }
    },
    {
      "type": "Feature",
      "geometry": {
        "type": "Point",
        "coordinates": [
          -0.330555555,
          10.600555555
        ]
      },
      "properties": {
        "label": "Pwalugu Hydroelectric Power Station",
        "type": "hydroelectric power station",
        "powerplant": "http://www.wikidata.org/entity/Q104879260",
        "country_qid": "Q117"
      }
    }
  ]
}