{
  "type": "FeatureCollection",
  "features": [
    {
      "type": "Feature",
      "geometry": {
        "type": "Point",
        "coordinates": [
          47.0638046,
          24.9496772
        ]
      },
      "properties": {
        "label": "Riyadh Power Plant 9",
        "type": "oil-fired power station",
        "powerplant": "http://www.wikidata.org/entity/Q11998015",
        "country_qid": "Q851"
      }
    },
    {
      "type": "Feature",
      "geometry": {
        "type": "Point",
        "coordinates": [
          42.0761243,
          17.6599019
        ]
      },
      "properties": {
        "label": "Shuqaiq 2 IWPP",
        "type": "oil-fired power station",
        "powerplant": "http://www.wikidata.org/entity/Q17070437",
        "country_qid": "Q851"
      }
    },
    {
      "type": "Feature",
      "geometry": {
        "type": "Point",
        "coordinates": [
          42.0761243,
          17.6599019
        ]
      },
      "properties": {
        "label": "Shuqaiq 2 IWPP",
        "type": "integrated water and power plant",
        "powerplant": "http://www.wikidata.org/entity/Q17070437",
        "country_qid": "Q851"
      }
    },
    {
      "type": "Feature",
      "geometry": {
        "type": "Point",
        "coordinates": [
          49.8989037,
          26.8543243
        ]
      },
      "properties": {
        "label": "Ghazlan Power Plant",
        "type": "oil-fired power station",
        "powerplant": "http://www.wikidata.org/entity/Q11971936",
        "country_qid": "Q851"
      }
    },
    {
      "type": "Feature",
      "geometry": {
        "type": "Point",
        "coordinates": [
          53.940083,
          22.536917
        ]
      },
      "properties": {
        "label": "Shaybah NGL Power Plant",
        "type": "power station",
        "powerplant": "http://www.wikidata.org/entity/Q97184542",
        "country_qid": "Q851"
      }
    },
    {
      "type": "Feature",
      "geometry": {
        "type": "Point",
        "coordinates": [
          35.4420984,
          27.760333
        ]
      },
      "properties": {
        "label": "Green Duba power plant",
        "type": "thermal solar power station",
        "powerplant": "http://www.wikidata.org/entity/Q105029835",
        "country_qid": "Q851"
      }
    },
    {
      "type": "Feature",
      "geometry": {
        "type": "Point",
        "coordinates": [
          35.4420984,
          27.760333
        ]
      },
      "properties": {
        "label": "Green Duba power plant",
        "type": "integrated solar combined-cycle power plant",
        "powerplant": "http://www.wikidata.org/entity/Q105029835",
        "country_qid": "Q851"
      }
    },
    {
      "type": "Feature",
      "geometry": {
        "type": "Point",
        "coordinates": [
          47.019527,
          24.4161489
        ]
      },
      "properties": {
        "label": "Riyadh Power Plant 10",
        "type": "oil-fired power station",
        "powerplant": "http://www.wikidata.org/entity/Q105031315",
        "country_qid": "Q851"
      }
    },
    {
      "type": "Feature",
      "geometry": {
        "type": "Point",
        "coordinates": [
          47.019527,
          24.4161489
        ]
      },
      "properties": {
        "label": "Riyadh Power Plant 10",
        "type": "combined cycle power station",
        "powerplant": "http://www.wikidata.org/entity/Q105031315",
        "country_qid": "Q851"
      }
    },
    {
      "type": "Feature",
      "geometry": {
        "type": "Point",
        "coordinates": [
          39.0215465,
          22.7050749
        ]
      },
      "properties": {
        "label": "Rabigh IWSPP",
        "type": "oil-fired power station",
        "powerplant": "http://www.wikidata.org/entity/Q105033039",
        "country_qid": "Q851"
      }
    },
    {
      "type": "Feature",
      "geometry": {
        "type": "Point",
        "coordinates": [
          39.0215465,
          22.7050749
        ]
      },
      "properties": {
        "label": "Rabigh IWSPP",
        "type": "integrated water and power plant",
        "powerplant": "http://www.wikidata.org/entity/Q105033039",
        "country_qid": "Q851"
      }
    },
    {
      "type": "Feature",
      "geometry": {
        "type": "Point",
        "coordinates": [
          39.0359795,
          22.6528982
        ]
      },
      "properties": {
        "label": "Rabigh 1 IPP",
        "type": "oil-fired power station",
        "powerplant": "http://www.wikidata.org/entity/Q105035363",
        "country_qid": "Q851"
      }
    },
    {
      "type": "Feature",
      "geometry": {
        "type": "Point",
        "coordinates": [
          39.5549875,
          20.6291676
        ]
      },
      "properties": {
        "label": "Shoaiba Thermal Power Plant",
        "type": "oil-fired power station",
        "powerplant": "http://www.wikidata.org/entity/Q105045754",
        "country_qid": "Q851"
      }
    },
    {
      "type": "Feature",
      "geometry": {
        "type": "Point",
        "coordinates": [
          39.5259332,
          20.6748087
        ]
      },
      "properties": {
        "label": "Shuaiba Power and Desalination Plant",
        "type": "oil-fired power station",
        "powerplant": "http://www.wikidata.org/entity/Q107014914",
        "country_qid": "Q851"
      }
    },
    {
      "type": "Feature",
      "geometry": {
        "type": "Point",
        "coordinates": [
          39.5259332,
          20.6748087
        ]
      },
      "properties": {
        "label": "Shuaiba Power and Desalination Plant",
        "type": "integrated water and power plant",
        "powerplant": "http://www.wikidata.org/entity/Q107014914",
        "country_qid": "Q851"
      }
    },
    {
      "type": "Feature",
      "geometry": {
        "type": "Point",
        "coordinates": [
          39.5212071,
          20.6832765
        ]
      },
      "properties": {
        "label": "Shuaibah IWPP",
        "type": "oil-fired power station",
        "powerplant": "http://www.wikidata.org/entity/Q107014972",
        "country_qid": "Q851"
      }
    },
    {
      "type": "Feature",
      "geometry": {
        "type": "Point",
        "coordinates": [
          39.5212071,
          20.6832765
        ]
      },
      "properties": {
        "label": "Shuaibah IWPP",
        "type": "integrated water and power plant",
        "powerplant": "http://www.wikidata.org/entity/Q107014972",
        "country_qid": "Q851"
      }
    },
    {
      "type": "Feature",
      "geometry": {
        "type": "Point",
        "coordinates": [
          50.1253902,
          25.8445018
        ]
      },
      "properties": {
        "label": "Qurayyah IPP",
        "type": "combined cycle power station",
        "powerplant": "http://www.wikidata.org/entity/Q16899040",
        "country_qid": "Q851"
      }
    },
    {
      "type": "Feature",
      "geometry": {
        "type": "Point",
        "coordinates": [
          50.1253902,
          25.8445018
        ]
      },
      "properties": {
        "label": "Qurayyah IPP",
        "type": "natural gas-fired power station",
        "powerplant": "http://www.wikidata.org/entity/Q16899040",
        "country_qid": "Q851"
      }
    },
    {
      "type": "Feature",
      "geometry": {
        "type": "Point",
        "coordinates": [
          39.0464401,
          22.6290641
        ]
      },
      "properties": {
        "label": "Rabigh 2 IPP",
        "type": "combined cycle power station",
        "powerplant": "http://www.wikidata.org/entity/Q17069689",
        "country_qid": "Q851"
      }
    },
    {
      "type": "Feature",
      "geometry": {
        "type": "Point",
        "coordinates": [
          39.0464401,
          22.6290641
        ]
      },
      "properties": {
        "label": "Rabigh 2 IPP",
        "type": "natural gas-fired power station",
        "powerplant": "http://www.wikidata.org/entity/Q17069689",
        "country_qid": "Q851"
      }
    },
    {
      "type": "Feature",
      "geometry": {
        "type": "Point",
        "coordinates": [
          49.138888888,
          27.536666666
        ]
      },
      "properties": {
        "label": "Ras Al-Khair Power and Desalination Plant",
        "type": "thermal power station",
        "powerplant": "http://www.wikidata.org/entity/Q28653972",
        "country_qid": "Q851"
      }
    },
    {
      "type": "Feature",
      "geometry": {
        "type": "Point",
        "coordinates": [
          49.138888888,
          27.536666666
        ]
      },
      "properties": {
        "label": "Ras Al-Khair Power and Desalination Plant",
        "type": "combined cycle power station",
        "powerplant": "http://www.wikidata.org/entity/Q28653972",
        "country_qid": "Q851"
      }
    },
    {
      "type": "Feature",
      "geometry": {
        "type": "Point",
        "coordinates": [
          49.138888888,
          27.536666666
        ]
      },
      "properties": {
        "label": "Ras Al-Khair Power and Desalination Plant",
        "type": "integrated water and power plant",
        "powerplant": "http://www.wikidata.org/entity/Q28653972",
        "country_qid": "Q851"
      }
    },
    {
      "type": "Feature",
      "geometry": {
        "type": "Point",
        "coordinates": [
          47.019527,
          24.4161489
        ]
      },
      "properties": {
        "label": "Riyadh Power Plant 10",
        "type": "oil-fired power station",
        "powerplant": "http://www.wikidata.org/entity/Q105031315",
        "country_qid": "Q851"
      }
    },
    {
      "type": "Feature",
      "geometry": {
        "type": "Point",
        "coordinates": [
          47.019527,
          24.4161489
        ]
      },
      "properties": {
        "label": "Riyadh Power Plant 10",
        "type": "combined cycle power station",
        "powerplant": "http://www.wikidata.org/entity/Q105031315",
        "country_qid": "Q851"
      }
    },
    {
      "type": "Feature",
      "geometry": {
        "type": "Point",
        "coordinates": [
          45.627476,
          24.7864716
        ]
      },
      "properties": {
        "label": "Riyadh Power Plant 11",
        "type": "combined cycle power station",
        "powerplant": "http://www.wikidata.org/entity/Q105034220",
        "country_qid": "Q851"
      }
    },
    {
      "type": "Feature",
      "geometry": {
        "type": "Point",
        "coordinates": [
          45.627476,
          24.7864716
        ]
      },
      "properties": {
        "label": "Riyadh Power Plant 11",
        "type": "natural gas-fired power station",
        "powerplant": "http://www.wikidata.org/entity/Q105034220",
        "country_qid": "Q851"
      }
    },
    {
      "type": "Feature",
      "geometry": {
        "type": "Point",
        "coordinates": [
          50.1339031,
          25.8266346
        ]
      },
      "properties": {
        "label": "Qurayyah II Combined Cycle Power Plant",
        "type": "combined cycle power station",
        "powerplant": "http://www.wikidata.org/entity/Q105045632",
        "country_qid": "Q851"
      }
    },
    {
      "type": "Feature",
      "geometry": {
        "type": "Point",
        "coordinates": [
          50.1339031,
          25.8266346
        ]
      },
      "properties": {
        "label": "Qurayyah II Combined Cycle Power Plant",
        "type": "natural gas-fired power station",
        "powerplant": "http://www.wikidata.org/entity/Q105045632",
        "country_qid": "Q851"
      }
    },
    {
      "type": "Feature",
      "geometry": {
        "type": "Point",
        "coordinates": [
          45.6054926,
          24.7833059
        ]
      },
      "properties": {
        "label": "Riyadh Power Plant 12",
        "type": "combined cycle power station",
        "powerplant": "http://www.wikidata.org/entity/Q105045675",
        "country_qid": "Q851"
      }
    },
    {
      "type": "Feature",
      "geometry": {
        "type": "Point",
        "coordinates": [
          45.6054926,
          24.7833059
        ]
      },
      "properties": {
        "label": "Riyadh Power Plant 12",
        "type": "natural gas-fired power station",
        "powerplant": "http://www.wikidata.org/entity/Q105045675",
        "country_qid": "Q851"
      }
    },
    {
      "type": "Feature",
      "geometry": {
        "type": "Point",
        "coordinates": [
          45.6214356,
          24.7855365
        ]
      },
      "properties": {
        "label": "Riyadh Power Plant 13",
        "type": "combined cycle power station",
        "powerplant": "http://www.wikidata.org/entity/Q105045687",
        "country_qid": "Q851"
      }
    },
    {
      "type": "Feature",
      "geometry": {
        "type": "Point",
        "coordinates": [
          45.6214356,
          24.7855365
        ]
      },
      "properties": {
        "label": "Riyadh Power Plant 13",
        "type": "natural gas-fired power station",
        "powerplant": "http://www.wikidata.org/entity/Q105045687",
        "country_qid": "Q851"
      }
    },
    {
      "type": "Feature",
      "geometry": {
        "type": "Point",
        "coordinates": [
          49.138888888,
          27.536666666
        ]
      },
      "properties": {
        "label": "Ras Al-Khair Power and Desalination Plant",
        "type": "thermal power station",
        "powerplant": "http://www.wikidata.org/entity/Q28653972",
        "country_qid": "Q851"
      }
    },
    {
      "type": "Feature",
      "geometry": {
        "type": "Point",
        "coordinates": [
          49.138888888,
          27.536666666
        ]
      },
      "properties": {
        "label": "Ras Al-Khair Power and Desalination Plant",
        "type": "combined cycle power station",
        "powerplant": "http://www.wikidata.org/entity/Q28653972",
        "country_qid": "Q851"
      }
    },
    {
      "type": "Feature",
      "geometry": {
        "type": "Point",
        "coordinates": [
          49.138888888,
          27.536666666
        ]
      },
      "properties": {
        "label": "Ras Al-Khair Power and Desalination Plant",
        "type": "integrated water and power plant",
        "powerplant": "http://www.wikidata.org/entity/Q28653972",
        "country_qid": "Q851"
      }
    },
    {
      "type": "Feature",
      "geometry": {
        "type": "Point",
        "coordinates": [
          38.860343,
          31.6511623
        ]
      },
      "properties": {
        "label": "Waad Al Shamal Power Plant",
        "type": "natural gas-fired power station",
        "powerplant": "http://www.wikidata.org/entity/Q105023710",
        "country_qid": "Q851"
      }
    },
    {
      "type": "Feature",
      "geometry": {
        "type": "Point",
        "coordinates": [
          38.860343,
          31.6511623
        ]
      },
      "properties": {
        "label": "Waad Al Shamal Power Plant",
        "type": "integrated solar combined-cycle power plant",
        "powerplant": "http://www.wikidata.org/entity/Q105023710",
        "country_qid": "Q851"
      }
    },
    {
      "type": "Feature",
      "geometry": {
        "type": "Point",
        "coordinates": [
          45.627476,
          24.7864716
        ]
      },
      "properties": {
        "label": "Riyadh Power Plant 11",
        "type": "combined cycle power station",
        "powerplant": "http://www.wikidata.org/entity/Q105034220",
        "country_qid": "Q851"
      }
    },
    {
      "type": "Feature",
      "geometry": {
        "type": "Point",
        "coordinates": [
          45.627476,
          24.7864716
        ]
      },
      "properties": {
        "label": "Riyadh Power Plant 11",
        "type": "natural gas-fired power station",
        "powerplant": "http://www.wikidata.org/entity/Q105034220",
        "country_qid": "Q851"
      }
    },
    {
      "type": "Feature",
      "geometry": {
        "type": "Point",
        "coordinates": [
          49.6068013,
          27.0699313
        ]
      },
      "properties": {
        "label": "Marafiq IWPP",
        "type": "natural gas-fired power station",
        "powerplant": "http://www.wikidata.org/entity/Q105034357",
        "country_qid": "Q851"
      }
    },
    {
      "type": "Feature",
      "geometry": {
        "type": "Point",
        "coordinates": [
          49.6068013,
          27.0699313
        ]
      },
      "properties": {
        "label": "Marafiq IWPP",
        "type": "integrated water and power plant",
        "powerplant": "http://www.wikidata.org/entity/Q105034357",
        "country_qid": "Q851"
      }
    },
    {
      "type": "Feature",
      "geometry": {
        "type": "Point",
        "coordinates": [
          50.1339031,
          25.8266346
        ]
      },
      "properties": {
        "label": "Qurayyah II Combined Cycle Power Plant",
        "type": "combined cycle power station",
        "powerplant": "http://www.wikidata.org/entity/Q105045632",
        "country_qid": "Q851"
      }
    },
    {
      "type": "Feature",
      "geometry": {
        "type": "Point",
        "coordinates": [
          50.1339031,
          25.8266346
        ]
      },
      "properties": {
        "label": "Qurayyah II Combined Cycle Power Plant",
        "type": "natural gas-fired power station",
        "powerplant": "http://www.wikidata.org/entity/Q105045632",
        "country_qid": "Q851"
      }
    },
    {
      "type": "Feature",
      "geometry": {
        "type": "Point",
        "coordinates": [
          45.6054926,
          24.7833059
        ]
      },
      "properties": {
        "label": "Riyadh Power Plant 12",
        "type": "combined cycle power station",
        "powerplant": "http://www.wikidata.org/entity/Q105045675",
        "country_qid": "Q851"
      }
    },
    {
      "type": "Feature",
      "geometry": {
        "type": "Point",
        "coordinates": [
          45.6054926,
          24.7833059
        ]
      },
      "properties": {
        "label": "Riyadh Power Plant 12",
        "type": "natural gas-fired power station",
        "powerplant": "http://www.wikidata.org/entity/Q105045675",
        "country_qid": "Q851"
      }
    },
    {
      "type": "Feature",
      "geometry": {
        "type": "Point",
        "coordinates": [
          45.6214356,
          24.7855365
        ]
      },
      "properties": {
        "label": "Riyadh Power Plant 13",
        "type": "combined cycle power station",
        "powerplant": "http://www.wikidata.org/entity/Q105045687",
        "country_qid": "Q851"
      }
    },
    {
      "type": "Feature",
      "geometry": {
        "type": "Point",
        "coordinates": [
          45.6214356,
          24.7855365
        ]
      },
      "properties": {
        "label": "Riyadh Power Plant 13",
        "type": "natural gas-fired power station",
        "powerplant": "http://www.wikidata.org/entity/Q105045687",
        "country_qid": "Q851"
      }
    },
    {
      "type": "Feature",
      "geometry": {
        "type": "Point",
        "coordinates": [
          50.1253902,
          25.8445018
        ]
      },
      "properties": {
        "label": "Qurayyah IPP",
        "type": "combined cycle power station",
        "powerplant": "http://www.wikidata.org/entity/Q16899040",
        "country_qid": "Q851"
      }
    },
    {
      "type": "Feature",
      "geometry": {
        "type": "Point",
        "coordinates": [
          50.1253902,
          25.8445018
        ]
      },
      "properties": {
        "label": "Qurayyah IPP",
        "type": "natural gas-fired power station",
        "powerplant": "http://www.wikidata.org/entity/Q16899040",
        "country_qid": "Q851"
      }
    },
    {
      "type": "Feature",
      "geometry": {
        "type": "Point",
        "coordinates": [
          39.0464401,
          22.6290641
        ]
      },
      "properties": {
        "label": "Rabigh 2 IPP",
        "type": "combined cycle power station",
        "powerplant": "http://www.wikidata.org/entity/Q17069689",
        "country_qid": "Q851"
      }
    },
    {
      "type": "Feature",
      "geometry": {
        "type": "Point",
        "coordinates": [
          39.0464401,
          22.6290641
        ]
      },
      "properties": {
        "label": "Rabigh 2 IPP",
        "type": "natural gas-fired power station",
        "powerplant": "http://www.wikidata.org/entity/Q17069689",
        "country_qid": "Q851"
      }
    },
    {
      "type": "Feature",
      "geometry": {
        "type": "Point",
        "coordinates": [
          38.860343,
          31.6511623
        ]
      },
      "properties": {
        "label": "Waad Al Shamal Power Plant",
        "type": "natural gas-fired power station",
        "powerplant": "http://www.wikidata.org/entity/Q105023710",
        "country_qid": "Q851"
      }
    },
    {
      "type": "Feature",
      "geometry": {
        "type": "Point",
        "coordinates": [
          38.860343,
          31.6511623
        ]
      },
      "properties": {
        "label": "Waad Al Shamal Power Plant",
        "type": "integrated solar combined-cycle power plant",
        "powerplant": "http://www.wikidata.org/entity/Q105023710",
        "country_qid": "Q851"
      }
    },
    {
      "type": "Feature",
      "geometry": {
        "type": "Point",
        "coordinates": [
          35.4420984,
          27.760333
        ]
      },
      "properties": {
        "label": "Green Duba power plant",
        "type": "thermal solar power station",
        "powerplant": "http://www.wikidata.org/entity/Q105029835",
        "country_qid": "Q851"
      }
    },
    {
      "type": "Feature",
      "geometry": {
        "type": "Point",
        "coordinates": [
          35.4420984,
          27.760333
        ]
      },
      "properties": {
        "label": "Green Duba power plant",
        "type": "integrated solar combined-cycle power plant",
        "powerplant": "http://www.wikidata.org/entity/Q105029835",
        "country_qid": "Q851"
      }
    },
    {
      "type": "Feature",
      "geometry": {
        "type": "Point",
        "coordinates": [
          42.0761243,
          17.6599019
        ]
      },
      "properties": {
        "label": "Shuqaiq 2 IWPP",
        "type": "oil-fired power station",
        "powerplant": "http://www.wikidata.org/entity/Q17070437",
        "country_qid": "Q851"
      }
    },
    {
      "type": "Feature",
      "geometry": {
        "type": "Point",
        "coordinates": [
          42.0761243,
          17.6599019
        ]
      },
      "properties": {
        "label": "Shuqaiq 2 IWPP",
        "type": "integrated water and power plant",
        "powerplant": "http://www.wikidata.org/entity/Q17070437",
        "country_qid": "Q851"
      }
    },
    {
      "type": "Feature",
      "geometry": {
        "type": "Point",
        "coordinates": [
          49.138888888,
          27.536666666
        ]
      },
      "properties": {
        "label": "Ras Al-Khair Power and Desalination Plant",
        "type": "thermal power station",
        "powerplant": "http://www.wikidata.org/entity/Q28653972",
        "country_qid": "Q851"
      }
    },
    {
      "type": "Feature",
      "geometry": {
        "type": "Point",
        "coordinates": [
          49.138888888,
          27.536666666
        ]
      },
      "properties": {
        "label": "Ras Al-Khair Power and Desalination Plant",
        "type": "combined cycle power station",
        "powerplant": "http://www.wikidata.org/entity/Q28653972",
        "country_qid": "Q851"
      }
    },
    {
      "type": "Feature",
      "geometry": {
        "type": "Point",
        "coordinates": [
          49.138888888,
          27.536666666
        ]
      },
      "properties": {
        "label": "Ras Al-Khair Power and Desalination Plant",
        "type": "integrated water and power plant",
        "powerplant": "http://www.wikidata.org/entity/Q28653972",
        "country_qid": "Q851"
      }
    },
    {
      "type": "Feature",
      "geometry": {
        "type": "Point",
        "coordinates": [
          39.0215465,
          22.7050749
        ]
      },
      "properties": {
        "label": "Rabigh IWSPP",
        "type": "oil-fired power station",
        "powerplant": "http://www.wikidata.org/entity/Q105033039",
        "country_qid": "Q851"
      }
    },
    {
      "type": "Feature",
      "geometry": {
        "type": "Point",
        "coordinates": [
          39.0215465,
          22.7050749
        ]
      },
      "properties": {
        "label": "Rabigh IWSPP",
        "type": "integrated water and power plant",
        "powerplant": "http://www.wikidata.org/entity/Q105033039",
        "country_qid": "Q851"
      }
    },
    {
      "type": "Feature",
      "geometry": {
        "type": "Point",
        "coordinates": [
          49.6068013,
          27.0699313
        ]
      },
      "properties": {
        "label": "Marafiq IWPP",
        "type": "natural gas-fired power station",
        "powerplant": "http://www.wikidata.org/entity/Q105034357",
        "country_qid": "Q851"
      }
    },
    {
      "type": "Feature",
      "geometry": {
        "type": "Point",
        "coordinates": [
          49.6068013,
          27.0699313
        ]
      },
      "properties": {
        "label": "Marafiq IWPP",
        "type": "integrated water and power plant",
        "powerplant": "http://www.wikidata.org/entity/Q105034357",
        "country_qid": "Q851"
      }
    },
    {
      "type": "Feature",
      "geometry": {
        "type": "Point",
        "coordinates": [
          39.5259332,
          20.6748087
        ]
      },
      "properties": {
        "label": "Shuaiba Power and Desalination Plant",
        "type": "oil-fired power station",
        "powerplant": "http://www.wikidata.org/entity/Q107014914",
        "country_qid": "Q851"
      }
    },
    {
      "type": "Feature",
      "geometry": {
        "type": "Point",
        "coordinates": [
          39.5259332,
          20.6748087
        ]
      },
      "properties": {
        "label": "Shuaiba Power and Desalination Plant",
        "type": "integrated water and power plant",
        "powerplant": "http://www.wikidata.org/entity/Q107014914",
        "country_qid": "Q851"
      }
    },
    {
      "type": "Feature",
      "geometry": {
        "type": "Point",
        "coordinates": [
          39.5212071,
          20.6832765
        ]
      },
      "properties": {
        "label": "Shuaibah IWPP",
        "type": "oil-fired power station",
        "powerplant": "http://www.wikidata.org/entity/Q107014972",
        "country_qid": "Q851"
      }
    },
    {
      "type": "Feature",
      "geometry": {
        "type": "Point",
        "coordinates": [
          39.5212071,
          20.6832765
        ]
      },
      "properties": {
        "label": "Shuaibah IWPP",
        "type": "integrated water and power plant",
        "powerplant": "http://www.wikidata.org/entity/Q107014972",
        "country_qid": "Q851"
      }
    }
  ]
}