{
  "type": "FeatureCollection",
  "features": [
    {
      "type": "Feature",
      "geometry": {
        "type": "Point",
        "coordinates": [
          19.412305555,
          43.9625
        ]
      },
      "properties": {
        "label": "Bajina Bašta pumped-storage power station",
        "type": "pumped-storage power station",
        "powerplant": "http://www.wikidata.org/entity/Q11960010",
        "country_qid": "Q403"
      }
    },
    {
      "type": "Feature",
      "geometry": {
        "type": "Point",
        "coordinates": [
          19.8852217,
          45.2683025
        ]
      },
      "properties": {
        "label": "Novi Sad power plant",
        "type": "combined heat and power station",
        "powerplant": "http://www.wikidata.org/entity/Q19384062",
        "country_qid": "Q403"
      }
    },
    {
      "type": "Feature",
      "geometry": {
        "type": "Point",
        "coordinates": [
          19.8852217,
          45.2683025
        ]
      },
      "properties": {
        "label": "Novi Sad power plant",
        "type": "gas-fired power station",
        "powerplant": "http://www.wikidata.org/entity/Q19384062",
        "country_qid": "Q403"
      }
    },
    {
      "type": "Feature",
      "geometry": {
        "type": "Point",
        "coordinates": [
          20.898693,
          45.05749
        ]
      },
      "properties": {
        "label": "Q97329063",
        "type": "wind farm",
        "powerplant": "http://www.wikidata.org/entity/Q97329063",
        "country_qid": "Q403"
      }
    },
    {
      "type": "Feature",
      "geometry": {
        "type": "Point",
        "coordinates": [
          20.155475,
          43.07159
        ]
      },
      "properties": {
        "label": "Q97329065",
        "type": "wind farm",
        "powerplant": "http://www.wikidata.org/entity/Q97329065",
        "country_qid": "Q403"
      }
    },
    {
      "type": "Feature",
      "geometry": {
        "type": "Point",
        "coordinates": [
          21.683064,
          42.667353
        ]
      },
      "properties": {
        "label": "Q97329067",
        "type": "wind farm",
        "powerplant": "http://www.wikidata.org/entity/Q97329067",
        "country_qid": "Q403"
      }
    },
    {
      "type": "Feature",
      "geometry": {
        "type": "Point",
        "coordinates": [
          20.7008439,
          45.0772672
        ]
      },
      "properties": {
        "label": "Kovačica wind farm",
        "type": "wind farm",
        "powerplant": "http://www.wikidata.org/entity/Q97329070",
        "country_qid": "Q403"
      }
    },
    {
      "type": "Feature",
      "geometry": {
        "type": "Point",
        "coordinates": [
          21.225475,
          44.993502
        ]
      },
      "properties": {
        "label": "Q97329073",
        "type": "wind farm",
        "powerplant": "http://www.wikidata.org/entity/Q97329073",
        "country_qid": "Q403"
      }
    },
    {
      "type": "Feature",
      "geometry": {
        "type": "Point",
        "coordinates": [
          19.583801,
          45.642826
        ]
      },
      "properties": {
        "label": "Q97329075",
        "type": "wind farm",
        "powerplant": "http://www.wikidata.org/entity/Q97329075",
        "country_qid": "Q403"
      }
    },
    {
      "type": "Feature",
      "geometry": {
        "type": "Point",
        "coordinates": [
          21.225281,
          44.99379
        ]
      },
      "properties": {
        "label": "Q97329078",
        "type": "wind farm",
        "powerplant": "http://www.wikidata.org/entity/Q97329078",
        "country_qid": "Q403"
      }
    },
    {
      "type": "Feature",
      "geometry": {
        "type": "Point",
        "coordinates": [
          20.938147,
          45.068801
        ]
      },
      "properties": {
        "label": "Q97329081",
        "type": "wind farm",
        "powerplant": "http://www.wikidata.org/entity/Q97329081",
        "country_qid": "Q403"
      }
    },
    {
      "type": "Feature",
      "geometry": {
        "type": "Point",
        "coordinates": [
          21.122822,
          45.227386
        ]
      },
      "properties": {
        "label": "Q97329083",
        "type": "wind farm",
        "powerplant": "http://www.wikidata.org/entity/Q97329083",
        "country_qid": "Q403"
      }
    },
    {
      "type": "Feature",
      "geometry": {
        "type": "Point",
        "coordinates": [
          20.9297704,
          44.9482622
        ]
      },
      "properties": {
        "label": "Čibuk 1 wind farm",
        "type": "wind farm",
        "powerplant": "http://www.wikidata.org/entity/Q97329086",
        "country_qid": "Q403"
      }
    },
    {
      "type": "Feature",
      "geometry": {
        "type": "Point",
        "coordinates": [
          21.2097394,
          44.7299442
        ]
      },
      "properties": {
        "label": "Kostolac B Power Station",
        "type": "coal-fired power station",
        "powerplant": "http://www.wikidata.org/entity/Q11878022",
        "country_qid": "Q403"
      }
    },
    {
      "type": "Feature",
      "geometry": {
        "type": "Point",
        "coordinates": [
          21.1713088,
          44.722535
        ]
      },
      "properties": {
        "label": "Kostolac A Power Station",
        "type": "coal-fired power station",
        "powerplant": "http://www.wikidata.org/entity/Q11981887",
        "country_qid": "Q403"
      }
    },
    {
      "type": "Feature",
      "geometry": {
        "type": "Point",
        "coordinates": [
          20.0053288,
          44.6548824
        ]
      },
      "properties": {
        "label": "Nikola Tesla B thermal power plant",
        "type": "coal-fired power station",
        "powerplant": "http://www.wikidata.org/entity/Q11991316",
        "country_qid": "Q403"
      }
    },
    {
      "type": "Feature",
      "geometry": {
        "type": "Point",
        "coordinates": [
          20.15963,
          44.6708181
        ]
      },
      "properties": {
        "label": "Nikola Tesla A thermal power plant",
        "type": "coal-fired power station",
        "powerplant": "http://www.wikidata.org/entity/Q11991325",
        "country_qid": "Q403"
      }
    },
    {
      "type": "Feature",
      "geometry": {
        "type": "Point",
        "coordinates": [
          20.2937686,
          44.4808167
        ]
      },
      "properties": {
        "label": "Thermal power plant Kolubara",
        "type": "coal-fired power station",
        "powerplant": "http://www.wikidata.org/entity/Q18394121",
        "country_qid": "Q403"
      }
    },
    {
      "type": "Feature",
      "geometry": {
        "type": "Point",
        "coordinates": [
          19.787666,
          45.120333
        ]
      },
      "properties": {
        "label": "Врдник",
        "type": "coal-fired power station",
        "powerplant": "http://www.wikidata.org/entity/Q20435253",
        "country_qid": "Q403"
      }
    },
    {
      "type": "Feature",
      "geometry": {
        "type": "Point",
        "coordinates": [
          21.1627492,
          44.224673
        ]
      },
      "properties": {
        "label": "Morava thermal power plant",
        "type": "coal-fired power station",
        "powerplant": "http://www.wikidata.org/entity/Q105964305",
        "country_qid": "Q403"
      }
    },
    {
      "type": "Feature",
      "geometry": {
        "type": "Point",
        "coordinates": [
          19.106777777,
          44.367972222
        ]
      },
      "properties": {
        "label": "Zvornik Hydroelectric Power Station",
        "type": "gravity dam",
        "powerplant": "http://www.wikidata.org/entity/Q12011284",
        "country_qid": "Q403"
      }
    },
    {
      "type": "Feature",
      "geometry": {
        "type": "Point",
        "coordinates": [
          19.106777777,
          44.367972222
        ]
      },
      "properties": {
        "label": "Zvornik Hydroelectric Power Station",
        "type": "hydroelectric power station",
        "powerplant": "http://www.wikidata.org/entity/Q12011284",
        "country_qid": "Q403"
      }
    },
    {
      "type": "Feature",
      "geometry": {
        "type": "Point",
        "coordinates": [
          19.654638888,
          43.4705
        ]
      },
      "properties": {
        "label": "Bistrica Hydroelectric Power Plant",
        "type": "hydroelectric power station",
        "powerplant": "http://www.wikidata.org/entity/Q11961176",
        "country_qid": "Q403"
      }
    },
    {
      "type": "Feature",
      "geometry": {
        "type": "Point",
        "coordinates": [
          22.565,
          44.30444444
        ]
      },
      "properties": {
        "label": "Iron Gate II Hydroelectric Power Station",
        "type": "dam",
        "powerplant": "http://www.wikidata.org/entity/Q1136390",
        "country_qid": "Q403"
      }
    },
    {
      "type": "Feature",
      "geometry": {
        "type": "Point",
        "coordinates": [
          22.565,
          44.30444444
        ]
      },
      "properties": {
        "label": "Iron Gate II Hydroelectric Power Station",
        "type": "road bridge",
        "powerplant": "http://www.wikidata.org/entity/Q1136390",
        "country_qid": "Q403"
      }
    },
    {
      "type": "Feature",
      "geometry": {
        "type": "Point",
        "coordinates": [
          22.565,
          44.30444444
        ]
      },
      "properties": {
        "label": "Iron Gate II Hydroelectric Power Station",
        "type": "hydroelectric power station",
        "powerplant": "http://www.wikidata.org/entity/Q1136390",
        "country_qid": "Q403"
      }
    },
    {
      "type": "Feature",
      "geometry": {
        "type": "Point",
        "coordinates": [
          22.52916667,
          44.67083333
        ]
      },
      "properties": {
        "label": "Iron Gate I Hydroelectric Power Station",
        "type": "dam",
        "powerplant": "http://www.wikidata.org/entity/Q1289417",
        "country_qid": "Q403"
      }
    },
    {
      "type": "Feature",
      "geometry": {
        "type": "Point",
        "coordinates": [
          22.52916667,
          44.67083333
        ]
      },
      "properties": {
        "label": "Iron Gate I Hydroelectric Power Station",
        "type": "road bridge",
        "powerplant": "http://www.wikidata.org/entity/Q1289417",
        "country_qid": "Q403"
      }
    },
    {
      "type": "Feature",
      "geometry": {
        "type": "Point",
        "coordinates": [
          22.52916667,
          44.67083333
        ]
      },
      "properties": {
        "label": "Iron Gate I Hydroelectric Power Station",
        "type": "hydroelectric power station",
        "powerplant": "http://www.wikidata.org/entity/Q1289417",
        "country_qid": "Q403"
      }
    },
    {
      "type": "Feature",
      "geometry": {
        "type": "Point",
        "coordinates": [
          19.576722222,
          43.522944444
        ]
      },
      "properties": {
        "label": "Potpeć Hydroelectric Power Station",
        "type": "dam",
        "powerplant": "http://www.wikidata.org/entity/Q12760845",
        "country_qid": "Q403"
      }
    },
    {
      "type": "Feature",
      "geometry": {
        "type": "Point",
        "coordinates": [
          19.576722222,
          43.522944444
        ]
      },
      "properties": {
        "label": "Potpeć Hydroelectric Power Station",
        "type": "hydroelectric power station",
        "powerplant": "http://www.wikidata.org/entity/Q12760845",
        "country_qid": "Q403"
      }
    },
    {
      "type": "Feature",
      "geometry": {
        "type": "Point",
        "coordinates": [
          19.829194,
          43.851264
        ]
      },
      "properties": {
        "label": "Small hydropower plant in Đetina",
        "type": "hydroelectric power station",
        "powerplant": "http://www.wikidata.org/entity/Q12760850",
        "country_qid": "Q403"
      }
    },
    {
      "type": "Feature",
      "geometry": {
        "type": "Point",
        "coordinates": [
          19.8847492,
          44.2405046
        ]
      },
      "properties": {
        "label": "Q16081481",
        "type": "hydroelectric power station",
        "powerplant": "http://www.wikidata.org/entity/Q16081481",
        "country_qid": "Q403"
      }
    },
    {
      "type": "Feature",
      "geometry": {
        "type": "Point",
        "coordinates": [
          19.8852217,
          45.2683025
        ]
      },
      "properties": {
        "label": "Novi Sad power plant",
        "type": "combined heat and power station",
        "powerplant": "http://www.wikidata.org/entity/Q19384062",
        "country_qid": "Q403"
      }
    },
    {
      "type": "Feature",
      "geometry": {
        "type": "Point",
        "coordinates": [
          19.8852217,
          45.2683025
        ]
      },
      "properties": {
        "label": "Novi Sad power plant",
        "type": "gas-fired power station",
        "powerplant": "http://www.wikidata.org/entity/Q19384062",
        "country_qid": "Q403"
      }
    },
    {
      "type": "Feature",
      "geometry": {
        "type": "Point",
        "coordinates": [
          19.813333333,
          43.518888888
        ]
      },
      "properties": {
        "label": "Kokin Brod Hydroelectric Power Plant",
        "type": "reservoir power station",
        "powerplant": "http://www.wikidata.org/entity/Q49627725",
        "country_qid": "Q403"
      }
    },
    {
      "type": "Feature",
      "geometry": {
        "type": "Point",
        "coordinates": [
          19.9298533,
          43.422477
        ]
      },
      "properties": {
        "label": "Uvac Hydroelectric Power Plant",
        "type": "reservoir power station",
        "powerplant": "http://www.wikidata.org/entity/Q105962971",
        "country_qid": "Q403"
      }
    },
    {
      "type": "Feature",
      "geometry": {
        "type": "Point",
        "coordinates": [
          22.287,
          42.672416666
        ]
      },
      "properties": {
        "label": "Vrla 1 Hydroelectric Power Plant",
        "type": "hydroelectric power station",
        "powerplant": "http://www.wikidata.org/entity/Q30974131",
        "country_qid": "Q403"
      }
    },
    {
      "type": "Feature",
      "geometry": {
        "type": "Point",
        "coordinates": [
          22.615388888,
          43.157888888
        ]
      },
      "properties": {
        "label": "Pirot Hydroelectric Power Plant",
        "type": "hydroelectric power station",
        "powerplant": "http://www.wikidata.org/entity/Q30974136",
        "country_qid": "Q403"
      }
    },
    {
      "type": "Feature",
      "geometry": {
        "type": "Point",
        "coordinates": [
          19.41025,
          43.964083333
        ]
      },
      "properties": {
        "label": "Bajina Bašta Hydroelectric Power Plant",
        "type": "dam",
        "powerplant": "http://www.wikidata.org/entity/Q30974191",
        "country_qid": "Q403"
      }
    },
    {
      "type": "Feature",
      "geometry": {
        "type": "Point",
        "coordinates": [
          19.41025,
          43.964083333
        ]
      },
      "properties": {
        "label": "Bajina Bašta Hydroelectric Power Plant",
        "type": "hydroelectric power station",
        "powerplant": "http://www.wikidata.org/entity/Q30974191",
        "country_qid": "Q403"
      }
    },
    {
      "type": "Feature",
      "geometry": {
        "type": "Point",
        "coordinates": [
          22.249444444,
          42.689166666
        ]
      },
      "properties": {
        "label": "Vrla 2 Hydroelectric Power Plant",
        "type": "hydroelectric power station",
        "powerplant": "http://www.wikidata.org/entity/Q49627730",
        "country_qid": "Q403"
      }
    },
    {
      "type": "Feature",
      "geometry": {
        "type": "Point",
        "coordinates": [
          22.123372,
          43.334264
        ]
      },
      "properties": {
        "label": "Q61126559",
        "type": "hydroelectric power station",
        "powerplant": "http://www.wikidata.org/entity/Q61126559",
        "country_qid": "Q403"
      }
    },
    {
      "type": "Feature",
      "geometry": {
        "type": "Point",
        "coordinates": [
          20.233477,
          43.909142
        ]
      },
      "properties": {
        "label": "Međuvršje Hydroelectric Power Plant",
        "type": "hydroelectric power station",
        "powerplant": "http://www.wikidata.org/entity/Q61128476",
        "country_qid": "Q403"
      }
    },
    {
      "type": "Feature",
      "geometry": {
        "type": "Point",
        "coordinates": [
          22.018611111,
          44.578055555
        ]
      },
      "properties": {
        "label": "Iron Gate III Hydroelectric Power Station",
        "type": "hydroelectric power station",
        "powerplant": "http://www.wikidata.org/entity/Q124548094",
        "country_qid": "Q403"
      }
    }
  ]
}