{
  "type": "FeatureCollection",
  "features": [
    {
      "type": "Feature",
      "geometry": {
        "type": "Point",
        "coordinates": [
          27.879444444,
          -21.955277777
        ]
      },
      "properties": {
        "label": "Selebi-Phikwe Solar Power Station",
        "type": "power plant",
        "entity": "http://www.wikidata.org/entity/Q114069409",
        "country_qid": "Q963"
      }
    },
    {
      "type": "Feature",
      "geometry": {
        "type": "Point",
        "coordinates": [
          26.088456,
          -24.408755
        ]
      },
      "properties": {
        "label": "Botswana Power Corporation Mochudi Depot",
        "type": "power plant",
        "entity": "http://www.wikidata.org/entity/Q132202317",
        "country_qid": "Q963"
      }
    },
    {
      "type": "Feature",
      "geometry": {
        "type": "Point",
        "coordinates": [
          26.774952,
          -23.609295
        ]
      },
      "properties": {
        "label": "Mmamabula",
        "type": "power plant",
        "entity": "http://www.wikidata.org/entity/Q6885794",
        "country_qid": "Q963"
      }
    },
    {
      "type": "Feature",
      "geometry": {
        "type": "Point",
        "coordinates": [
          25.612222222,
          -21.439722222
        ]
      },
      "properties": {
        "label": "Letlhakane Concentrated Solar Power Station",
        "type": "power plant",
        "entity": "http://www.wikidata.org/entity/Q114120077",
        "country_qid": "Q963"
      }
    },
    {
      "type": "Feature",
      "geometry": {
        "type": "Point",
        "coordinates": [
          25.182819,
          -17.789483
        ]
      },
      "properties": {
        "label": "kasane BPC",
        "type": "power plant",
        "entity": "http://www.wikidata.org/entity/Q132202636",
        "country_qid": "Q963"
      }
    },
    {
      "type": "Feature",
      "geometry": {
        "type": "Point",
        "coordinates": [
          25.968611,
          -24.573611
        ]
      },
      "properties": {
        "label": "Phakalane power station",
        "type": "power plant",
        "entity": "http://www.wikidata.org/entity/Q60775544",
        "country_qid": "Q963"
      }
    },
    {
      "type": "Feature",
      "geometry": {
        "type": "Point",
        "coordinates": [
          27.03666667,
          -22.52
        ]
      },
      "properties": {
        "label": "Morupule Power Station",
        "type": "power plant",
        "entity": "http://www.wikidata.org/entity/Q915912",
        "country_qid": "Q963"
      }
    },
    {
      "type": "Feature",
      "geometry": {
        "type": "Point",
        "coordinates": [
          27.698611111,
          -21.861944444
        ]
      },
      "properties": {
        "label": "Mmadinare Solar Power Station",
        "type": "power plant",
        "entity": "http://www.wikidata.org/entity/Q124117115",
        "country_qid": "Q963"
      }
    },
    {
      "type": "Feature",
      "geometry": {
        "type": "Point",
        "coordinates": [
          27.804444444,
          -21.52
        ]
      },
      "properties": {
        "label": "Tati Solar Power Station",
        "type": "power plant",
        "entity": "http://www.wikidata.org/entity/Q108281341",
        "country_qid": "Q963"
      }
    },
    {
      "type": "Feature",
      "geometry": {
        "type": "Point",
        "coordinates": [
          25.4175,
          -21.318333
        ]
      },
      "properties": {
        "label": "Orapa Power Station",
        "type": "power plant",
        "entity": "http://www.wikidata.org/entity/Q60745791",
        "country_qid": "Q963"
      }
    },
    {
      "type": "Feature",
      "geometry": {
        "type": "Point",
        "coordinates": [
          24.715937,
          -26.605593
        ]
      },
      "properties": {
        "label": "Jwaneng Solar Power Station",
        "type": "power plant",
        "entity": "http://www.wikidata.org/entity/Q130130713",
        "country_qid": "Q963"
      }
    },
    {
      "type": "Feature",
      "geometry": {
        "type": "Point",
        "coordinates": [
          25.904963,
          -24.664916
        ]
      },
      "properties": {
        "label": "Botswana Power Corporation Head Office",
        "type": "power plant",
        "entity": "http://www.wikidata.org/entity/Q132202227",
        "country_qid": "Q963"
      }
    },
    {
      "type": "Feature",
      "geometry": {
        "type": "Point",
        "coordinates": [
          25.687528,
          -25.193352
        ]
      },
      "properties": {
        "label": "BPC Lobatse",
        "type": "power plant",
        "entity": "http://www.wikidata.org/entity/Q132202601",
        "country_qid": "Q963"
      }
    },
    {
      "type": "Feature",
      "geometry": {
        "type": "Point",
        "coordinates": [
          27.839436,
          -21.962559
        ]
      },
      "properties": {
        "label": "Botswana Power Corporation-Selebi Phikwe",
        "type": "power plant",
        "entity": "http://www.wikidata.org/entity/Q132202508",
        "country_qid": "Q963"
      }
    },
    {
      "type": "Feature",
      "geometry": {
        "type": "Point",
        "coordinates": [
          27.50737,
          -21.199013
        ]
      },
      "properties": {
        "label": "Botswana Power Corporation Francistown Depot",
        "type": "power plant",
        "entity": "http://www.wikidata.org/entity/Q132202277",
        "country_qid": "Q963"
      }
    },
    {
      "type": "Feature",
      "geometry": {
        "type": "Point",
        "coordinates": [
          23.406111111,
          -20.037222222
        ]
      },
      "properties": {
        "label": "Maun Concentrated Solar Power Station",
        "type": "power plant",
        "entity": "http://www.wikidata.org/entity/Q114069386",
        "country_qid": "Q963"
      }
    },
    {
      "type": "Feature",
      "geometry": {
        "type": "Point",
        "coordinates": [
          27.012777777,
          -22.489722222
        ]
      },
      "properties": {
        "label": "Palapye Solar Power Station",
        "type": "power plant",
        "entity": "http://www.wikidata.org/entity/Q124739833",
        "country_qid": "Q963"
      }
    }
  ]
}