{
  "type": "FeatureCollection",
  "features": [
    {
      "type": "Feature",
      "geometry": {
        "type": "Point",
        "coordinates": [
          127.7352691,
          34.8535553
        ]
      },
      "properties": {
        "label": "Honam Coal-Fired Power Plant",
        "type": "power plant",
        "entity": "http://www.wikidata.org/entity/Q11975772",
        "country_qid": "Q884"
      }
    },
    {
      "type": "Feature",
      "geometry": {
        "type": "Point",
        "coordinates": [
          127.280277777,
          37.527944444
        ]
      },
      "properties": {
        "label": "Paldang Dam",
        "type": "power plant",
        "entity": "http://www.wikidata.org/entity/Q12621569",
        "country_qid": "Q884"
      }
    },
    {
      "type": "Feature",
      "geometry": {
        "type": "Point",
        "coordinates": [
          127.5938737,
          34.9122675
        ]
      },
      "properties": {
        "label": "Yulchon Power Plant",
        "type": "power plant",
        "entity": "http://www.wikidata.org/entity/Q19940750",
        "country_qid": "Q884"
      }
    },
    {
      "type": "Feature",
      "geometry": {
        "type": "Point",
        "coordinates": [
          126.7960346,
          37.0051274
        ]
      },
      "properties": {
        "label": "Pyeongtaek Power Plant",
        "type": "power plant",
        "entity": "http://www.wikidata.org/entity/Q19794322",
        "country_qid": "Q884"
      }
    },
    {
      "type": "Feature",
      "geometry": {
        "type": "Point",
        "coordinates": [
          127.0024359,
          37.0254861
        ]
      },
      "properties": {
        "label": "Pyeongtaek Energy Service",
        "type": "power plant",
        "entity": "http://www.wikidata.org/entity/Q19940522",
        "country_qid": "Q884"
      }
    },
    {
      "type": "Feature",
      "geometry": {
        "type": "Point",
        "coordinates": [
          129.1470337,
          37.4796857
        ]
      },
      "properties": {
        "label": "Bukpyeong Power Plant",
        "type": "power plant",
        "entity": "http://www.wikidata.org/entity/Q31180579",
        "country_qid": "Q884"
      }
    },
    {
      "type": "Feature",
      "geometry": {
        "type": "Point",
        "coordinates": [
          128.536944444,
          38.020277777
        ]
      },
      "properties": {
        "label": "Yangyang Pumped Storage Power Station",
        "type": "power plant",
        "entity": "http://www.wikidata.org/entity/Q8048665",
        "country_qid": "Q884"
      }
    },
    {
      "type": "Feature",
      "geometry": {
        "type": "Point",
        "coordinates": [
          126.6093528,
          37.5106961
        ]
      },
      "properties": {
        "label": "Incheon Power Plant",
        "type": "power plant",
        "entity": "http://www.wikidata.org/entity/Q19375535",
        "country_qid": "Q884"
      }
    },
    {
      "type": "Feature",
      "geometry": {
        "type": "Point",
        "coordinates": [
          129.425,
          36.466666666
        ]
      },
      "properties": {
        "label": "Cheonji Nuclear Power Plant",
        "type": "power plant",
        "entity": "http://www.wikidata.org/entity/Q48989767",
        "country_qid": "Q884"
      }
    },
    {
      "type": "Feature",
      "geometry": {
        "type": "Point",
        "coordinates": [
          126.918057,
          37.54416
        ]
      },
      "properties": {
        "label": "Seoul Power Station",
        "type": "power plant",
        "entity": "http://www.wikidata.org/entity/Q16097744",
        "country_qid": "Q884"
      }
    },
    {
      "type": "Feature",
      "geometry": {
        "type": "Point",
        "coordinates": [
          127.1090361,
          35.5412291
        ]
      },
      "properties": {
        "label": "Seomjingang Dam",
        "type": "power plant",
        "entity": "http://www.wikidata.org/entity/Q12601834",
        "country_qid": "Q884"
      }
    },
    {
      "type": "Feature",
      "geometry": {
        "type": "Point",
        "coordinates": [
          126.77845,
          37.2947447
        ]
      },
      "properties": {
        "label": "Ansan LNG Combined Cycle Power Plant",
        "type": "power plant",
        "entity": "http://www.wikidata.org/entity/Q19940342",
        "country_qid": "Q884"
      }
    },
    {
      "type": "Feature",
      "geometry": {
        "type": "Point",
        "coordinates": [
          129.38333333,
          37.1
        ]
      },
      "properties": {
        "label": "Hanul Nuclear Power Plant",
        "type": "power plant",
        "entity": "http://www.wikidata.org/entity/Q496248",
        "country_qid": "Q884"
      }
    },
    {
      "type": "Feature",
      "geometry": {
        "type": "Point",
        "coordinates": [
          128.9999306,
          35.0861724
        ]
      },
      "properties": {
        "label": "Busan Power Plant",
        "type": "power plant",
        "entity": "http://www.wikidata.org/entity/Q16184617",
        "country_qid": "Q884"
      }
    },
    {
      "type": "Feature",
      "geometry": {
        "type": "Point",
        "coordinates": [
          126.7859924,
          37.8297091
        ]
      },
      "properties": {
        "label": "Paju Power Plant",
        "type": "power plant",
        "entity": "http://www.wikidata.org/entity/Q31180582",
        "country_qid": "Q884"
      }
    },
    {
      "type": "Feature",
      "geometry": {
        "type": "Point",
        "coordinates": [
          127.8214679,
          34.9524975
        ]
      },
      "properties": {
        "label": "Hadong Power Plant",
        "type": "power plant",
        "entity": "http://www.wikidata.org/entity/Q12622419",
        "country_qid": "Q884"
      }
    },
    {
      "type": "Feature",
      "geometry": {
        "type": "Point",
        "coordinates": [
          127.7725,
          35.255277777
        ]
      },
      "properties": {
        "label": "Sancheong pumped-storage power station",
        "type": "power plant",
        "entity": "http://www.wikidata.org/entity/Q11999351",
        "country_qid": "Q884"
      }
    },
    {
      "type": "Feature",
      "geometry": {
        "type": "Point",
        "coordinates": [
          126.3649714,
          36.9979172
        ]
      },
      "properties": {
        "label": "Daesan Power Plant",
        "type": "power plant",
        "entity": "http://www.wikidata.org/entity/Q19939692",
        "country_qid": "Q884"
      }
    },
    {
      "type": "Feature",
      "geometry": {
        "type": "Point",
        "coordinates": [
          129.479615,
          35.721483
        ]
      },
      "properties": {
        "label": "Shin Wolsong Nuclear Power Plant",
        "type": "power plant",
        "entity": "http://www.wikidata.org/entity/Q123393",
        "country_qid": "Q884"
      }
    },
    {
      "type": "Feature",
      "geometry": {
        "type": "Point",
        "coordinates": [
          128.491888,
          37.1630184
        ]
      },
      "properties": {
        "label": "Youngwol Power Plant",
        "type": "power plant",
        "entity": "http://www.wikidata.org/entity/Q19794310",
        "country_qid": "Q884"
      }
    },
    {
      "type": "Feature",
      "geometry": {
        "type": "Point",
        "coordinates": [
          126.6022235,
          37.5363302
        ]
      },
      "properties": {
        "label": "Seoincheon Combined Cycle Power Plant",
        "type": "power plant",
        "entity": "http://www.wikidata.org/entity/Q19388231",
        "country_qid": "Q884"
      }
    },
    {
      "type": "Feature",
      "geometry": {
        "type": "Point",
        "coordinates": [
          126.34222222,
          37.49666667
        ]
      },
      "properties": {
        "label": "Incheon Tidal Power Station",
        "type": "power plant",
        "entity": "http://www.wikidata.org/entity/Q6014462",
        "country_qid": "Q884"
      }
    },
    {
      "type": "Feature",
      "geometry": {
        "type": "Point",
        "coordinates": [
          126.42388889,
          35.415
        ]
      },
      "properties": {
        "label": "Hanbit Nuclear Power Plant",
        "type": "power plant",
        "entity": "http://www.wikidata.org/entity/Q496260",
        "country_qid": "Q884"
      }
    },
    {
      "type": "Feature",
      "geometry": {
        "type": "Point",
        "coordinates": [
          126.7306316,
          35.9836581
        ]
      },
      "properties": {
        "label": "Gunsan Power Plant",
        "type": "power plant",
        "entity": "http://www.wikidata.org/entity/Q11973344",
        "country_qid": "Q884"
      }
    },
    {
      "type": "Feature",
      "geometry": {
        "type": "Point",
        "coordinates": [
          126.4959812,
          36.1362371
        ]
      },
      "properties": {
        "label": "Seocheon Power Plant",
        "type": "power plant",
        "entity": "http://www.wikidata.org/entity/Q12601497",
        "country_qid": "Q884"
      }
    },
    {
      "type": "Feature",
      "geometry": {
        "type": "Point",
        "coordinates": [
          129.145875,
          37.4857985
        ]
      },
      "properties": {
        "label": "Donghae Coal-Fired Power Plant",
        "type": "power plant",
        "entity": "http://www.wikidata.org/entity/Q11965928",
        "country_qid": "Q884"
      }
    },
    {
      "type": "Feature",
      "geometry": {
        "type": "Point",
        "coordinates": [
          127.1002614,
          37.8348993
        ]
      },
      "properties": {
        "label": "Daeryun Power",
        "type": "power plant",
        "entity": "http://www.wikidata.org/entity/Q31180578",
        "country_qid": "Q884"
      }
    },
    {
      "type": "Feature",
      "geometry": {
        "type": "Point",
        "coordinates": [
          127.1718496,
          37.9463635
        ]
      },
      "properties": {
        "label": "Pocheon Power Plant",
        "type": "power plant",
        "entity": "http://www.wikidata.org/entity/Q31180583",
        "country_qid": "Q884"
      }
    },
    {
      "type": "Feature",
      "geometry": {
        "type": "Point",
        "coordinates": [
          126.7818403,
          36.956785
        ]
      },
      "properties": {
        "label": "GS Dangjin Power Plant",
        "type": "power plant",
        "entity": "http://www.wikidata.org/entity/Q17760648",
        "country_qid": "Q884"
      }
    },
    {
      "type": "Feature",
      "geometry": {
        "type": "Point",
        "coordinates": [
          127.843333333,
          36.758888888
        ]
      },
      "properties": {
        "label": "Q61356105",
        "type": "power plant",
        "entity": "http://www.wikidata.org/entity/Q61356105",
        "country_qid": "Q884"
      }
    },
    {
      "type": "Feature",
      "geometry": {
        "type": "Point",
        "coordinates": [
          127.2478044,
          36.4684745
        ]
      },
      "properties": {
        "label": "Sejong Power Plant",
        "type": "power plant",
        "entity": "http://www.wikidata.org/entity/Q19940171",
        "country_qid": "Q884"
      }
    },
    {
      "type": "Feature",
      "geometry": {
        "type": "Point",
        "coordinates": [
          129.475,
          35.71111111
        ]
      },
      "properties": {
        "label": "Wolseong Nuclear Power Plant",
        "type": "power plant",
        "entity": "http://www.wikidata.org/entity/Q484896",
        "country_qid": "Q884"
      }
    },
    {
      "type": "Feature",
      "geometry": {
        "type": "Point",
        "coordinates": [
          126.5939678,
          33.5343603
        ]
      },
      "properties": {
        "label": "Jeju Power Plant",
        "type": "power plant",
        "entity": "http://www.wikidata.org/entity/Q16180268",
        "country_qid": "Q884"
      }
    },
    {
      "type": "Feature",
      "geometry": {
        "type": "Point",
        "coordinates": [
          129.3833256,
          35.5130332
        ]
      },
      "properties": {
        "label": "KOSPO Yeongnam Power Plant",
        "type": "power plant",
        "entity": "http://www.wikidata.org/entity/Q55732038",
        "country_qid": "Q884"
      }
    },
    {
      "type": "Feature",
      "geometry": {
        "type": "Point",
        "coordinates": [
          128.4235114,
          36.7535726
        ]
      },
      "properties": {
        "label": "Yecheon pumped-storage power station",
        "type": "power plant",
        "entity": "http://www.wikidata.org/entity/Q12010964",
        "country_qid": "Q884"
      }
    },
    {
      "type": "Feature",
      "geometry": {
        "type": "Point",
        "coordinates": [
          126.6146377,
          37.5075633
        ]
      },
      "properties": {
        "label": "Incheon LNG Combined Cycle Power Plant",
        "type": "power plant",
        "entity": "http://www.wikidata.org/entity/Q19940883",
        "country_qid": "Q884"
      }
    },
    {
      "type": "Feature",
      "geometry": {
        "type": "Point",
        "coordinates": [
          128.1096411,
          34.9117924
        ]
      },
      "properties": {
        "label": "Samcheonpo Power Plant",
        "type": "power plant",
        "entity": "http://www.wikidata.org/entity/Q11999235",
        "country_qid": "Q884"
      }
    },
    {
      "type": "Feature",
      "geometry": {
        "type": "Point",
        "coordinates": [
          126.31,
          34.565555555
        ]
      },
      "properties": {
        "label": "Uldolmok Tidal Power Station",
        "type": "power plant",
        "entity": "http://www.wikidata.org/entity/Q7878823",
        "country_qid": "Q884"
      }
    },
    {
      "type": "Feature",
      "geometry": {
        "type": "Point",
        "coordinates": [
          127.7744615,
          34.8893544
        ]
      },
      "properties": {
        "label": "SK E&S Gwangyang LNG Power Plant",
        "type": "power plant",
        "entity": "http://www.wikidata.org/entity/Q19939374",
        "country_qid": "Q884"
      }
    },
    {
      "type": "Feature",
      "geometry": {
        "type": "Point",
        "coordinates": [
          129.0147413,
          36.4056074
        ]
      },
      "properties": {
        "label": "Cheongsong pumped-storage power station",
        "type": "power plant",
        "entity": "http://www.wikidata.org/entity/Q11963514",
        "country_qid": "Q884"
      }
    },
    {
      "type": "Feature",
      "geometry": {
        "type": "Point",
        "coordinates": [
          126.511302,
          37.055109
        ]
      },
      "properties": {
        "label": "Dangjin Power Station",
        "type": "power plant",
        "entity": "http://www.wikidata.org/entity/Q12591122",
        "country_qid": "Q884"
      }
    },
    {
      "type": "Feature",
      "geometry": {
        "type": "Point",
        "coordinates": [
          127.4877778,
          37.7425
        ]
      },
      "properties": {
        "label": "Cheongpyeong pumped-storage power station",
        "type": "power plant",
        "entity": "http://www.wikidata.org/entity/Q11963512",
        "country_qid": "Q884"
      }
    },
    {
      "type": "Feature",
      "geometry": {
        "type": "Point",
        "coordinates": [
          128.9808018,
          37.7387721
        ]
      },
      "properties": {
        "label": "Yeongdong Thermal Power Plant",
        "type": "power plant",
        "entity": "http://www.wikidata.org/entity/Q19398844",
        "country_qid": "Q884"
      }
    },
    {
      "type": "Feature",
      "geometry": {
        "type": "Point",
        "coordinates": [
          128.5416859,
          36.595038
        ]
      },
      "properties": {
        "label": "Andong Power Plant",
        "type": "power plant",
        "entity": "http://www.wikidata.org/entity/Q19794289",
        "country_qid": "Q884"
      }
    },
    {
      "type": "Feature",
      "geometry": {
        "type": "Point",
        "coordinates": [
          126.4385676,
          37.2410147
        ]
      },
      "properties": {
        "label": "Yonghungdo power station",
        "type": "power plant",
        "entity": "http://www.wikidata.org/entity/Q12011011",
        "country_qid": "Q884"
      }
    },
    {
      "type": "Feature",
      "geometry": {
        "type": "Point",
        "coordinates": [
          129.4061111,
          37.075
        ]
      },
      "properties": {
        "label": "Shin Hanul Nuclear Power Plant",
        "type": "power plant",
        "entity": "http://www.wikidata.org/entity/Q3664625",
        "country_qid": "Q884"
      }
    },
    {
      "type": "Feature",
      "geometry": {
        "type": "Point",
        "coordinates": [
          127.0907128,
          37.9010006
        ]
      },
      "properties": {
        "label": "Dongducheon Power Plant",
        "type": "power plant",
        "entity": "http://www.wikidata.org/entity/Q19939723",
        "country_qid": "Q884"
      }
    },
    {
      "type": "Feature",
      "geometry": {
        "type": "Point",
        "coordinates": [
          129.3814802,
          35.4760793
        ]
      },
      "properties": {
        "label": "Ulsan Oil-Fired & C.C Power Complex",
        "type": "power plant",
        "entity": "http://www.wikidata.org/entity/Q12008323",
        "country_qid": "Q884"
      }
    },
    {
      "type": "Feature",
      "geometry": {
        "type": "Point",
        "coordinates": [
          126.4867329,
          36.3848418
        ]
      },
      "properties": {
        "label": "Shin Boryeong Power Plant",
        "type": "power plant",
        "entity": "http://www.wikidata.org/entity/Q22974294",
        "country_qid": "Q884"
      }
    },
    {
      "type": "Feature",
      "geometry": {
        "type": "Point",
        "coordinates": [
          127.420638888,
          37.723416666
        ]
      },
      "properties": {
        "label": "Cheongpyeong Dam",
        "type": "power plant",
        "entity": "http://www.wikidata.org/entity/Q12619304",
        "country_qid": "Q884"
      }
    },
    {
      "type": "Feature",
      "geometry": {
        "type": "Point",
        "coordinates": [
          126.764009,
          37.5218696
        ]
      },
      "properties": {
        "label": "Bucheon Power Plant",
        "type": "power plant",
        "entity": "http://www.wikidata.org/entity/Q19940031",
        "country_qid": "Q884"
      }
    },
    {
      "type": "Feature",
      "geometry": {
        "type": "Point",
        "coordinates": [
          126.6078615,
          37.5364445
        ]
      },
      "properties": {
        "label": "Shin Incheon Power Plant",
        "type": "power plant",
        "entity": "http://www.wikidata.org/entity/Q19940281",
        "country_qid": "Q884"
      }
    },
    {
      "type": "Feature",
      "geometry": {
        "type": "Point",
        "coordinates": [
          126.7981911,
          37.6467404
        ]
      },
      "properties": {
        "label": "Ilsan Combined Heat & Power Plant",
        "type": "power plant",
        "entity": "http://www.wikidata.org/entity/Q11976968",
        "country_qid": "Q884"
      }
    },
    {
      "type": "Feature",
      "geometry": {
        "type": "Point",
        "coordinates": [
          127.669388888,
          37.968138888
        ]
      },
      "properties": {
        "label": "Chuncheon Dam Sam",
        "type": "power plant",
        "entity": "http://www.wikidata.org/entity/Q16100197",
        "country_qid": "Q884"
      }
    },
    {
      "type": "Feature",
      "geometry": {
        "type": "Point",
        "coordinates": [
          126.49,
          36.402
        ]
      },
      "properties": {
        "label": "Boryeong Power Plant",
        "type": "power plant",
        "entity": "http://www.wikidata.org/entity/Q12598340",
        "country_qid": "Q884"
      }
    },
    {
      "type": "Feature",
      "geometry": {
        "type": "Point",
        "coordinates": [
          129.3410754,
          37.1855016
        ]
      },
      "properties": {
        "label": "Samcheok Power Plant",
        "type": "power plant",
        "entity": "http://www.wikidata.org/entity/Q19940084",
        "country_qid": "Q884"
      }
    },
    {
      "type": "Feature",
      "geometry": {
        "type": "Point",
        "coordinates": [
          126.234722222,
          36.905555555
        ]
      },
      "properties": {
        "label": "Taean Thermal Power Plant",
        "type": "power plant",
        "entity": "http://www.wikidata.org/entity/Q16179275",
        "country_qid": "Q884"
      }
    },
    {
      "type": "Feature",
      "geometry": {
        "type": "Point",
        "coordinates": [
          127.9925,
          37.00611111
        ]
      },
      "properties": {
        "label": "Chungju Dam",
        "type": "power plant",
        "entity": "http://www.wikidata.org/entity/Q5116376",
        "country_qid": "Q884"
      }
    },
    {
      "type": "Feature",
      "geometry": {
        "type": "Point",
        "coordinates": [
          128.8783726,
          35.4128776
        ]
      },
      "properties": {
        "label": "Samrangjin pumped-storage power station",
        "type": "power plant",
        "entity": "http://www.wikidata.org/entity/Q19387521",
        "country_qid": "Q884"
      }
    },
    {
      "type": "Feature",
      "geometry": {
        "type": "Point",
        "coordinates": [
          127.1473739,
          37.3647541
        ]
      },
      "properties": {
        "label": "Bundang Power Plant",
        "type": "power plant",
        "entity": "http://www.wikidata.org/entity/Q11962581",
        "country_qid": "Q884"
      }
    },
    {
      "type": "Feature",
      "geometry": {
        "type": "Point",
        "coordinates": [
          128.82158333,
          37.70686111
        ]
      },
      "properties": {
        "label": "Q84761164",
        "type": "power plant",
        "entity": "http://www.wikidata.org/entity/Q84761164",
        "country_qid": "Q884"
      }
    },
    {
      "type": "Feature",
      "geometry": {
        "type": "Point",
        "coordinates": [
          127.6915491,
          34.8401541
        ]
      },
      "properties": {
        "label": "Yeosu Power Plant",
        "type": "power plant",
        "entity": "http://www.wikidata.org/entity/Q19398848",
        "country_qid": "Q884"
      }
    },
    {
      "type": "Feature",
      "geometry": {
        "type": "Point",
        "coordinates": [
          127.7023818,
          35.9615618
        ]
      },
      "properties": {
        "label": "Muju pumped-storage power plant",
        "type": "power plant",
        "entity": "http://www.wikidata.org/entity/Q11990169",
        "country_qid": "Q884"
      }
    },
    {
      "type": "Feature",
      "geometry": {
        "type": "Point",
        "coordinates": [
          126.612282,
          37.313656
        ]
      },
      "properties": {
        "label": "Sihwa Lake Tidal Power Station",
        "type": "power plant",
        "entity": "http://www.wikidata.org/entity/Q562741",
        "country_qid": "Q884"
      }
    },
    {
      "type": "Feature",
      "geometry": {
        "type": "Point",
        "coordinates": [
          127.1658039,
          37.9897282
        ]
      },
      "properties": {
        "label": "Pocheon Power Plant",
        "type": "power plant",
        "entity": "http://www.wikidata.org/entity/Q19941386",
        "country_qid": "Q884"
      }
    },
    {
      "type": "Feature",
      "geometry": {
        "type": "Point",
        "coordinates": [
          128.0676778,
          35.5455626
        ]
      },
      "properties": {
        "label": "Hapcheon Power Plant",
        "type": "power plant",
        "entity": "http://www.wikidata.org/entity/Q84761182",
        "country_qid": "Q884"
      }
    },
    {
      "type": "Feature",
      "geometry": {
        "type": "Point",
        "coordinates": [
          127.0558333,
          37.1405542
        ]
      },
      "properties": {
        "label": "Osan Power Plant",
        "type": "power plant",
        "entity": "http://www.wikidata.org/entity/Q31180575",
        "country_qid": "Q884"
      }
    },
    {
      "type": "Feature",
      "geometry": {
        "type": "Point",
        "coordinates": [
          128.88333333,
          36.5375
        ]
      },
      "properties": {
        "label": "Imha Dam",
        "type": "power plant",
        "entity": "http://www.wikidata.org/entity/Q12060693",
        "country_qid": "Q884"
      }
    },
    {
      "type": "Feature",
      "geometry": {
        "type": "Point",
        "coordinates": [
          128.77388889,
          36.58472222
        ]
      },
      "properties": {
        "label": "Andong Dam",
        "type": "power plant",
        "entity": "http://www.wikidata.org/entity/Q4754530",
        "country_qid": "Q884"
      }
    },
    {
      "type": "Feature",
      "geometry": {
        "type": "Point",
        "coordinates": [
          126.3415697,
          33.236636
        ]
      },
      "properties": {
        "label": "Namjeju Power Plant",
        "type": "power plant",
        "entity": "http://www.wikidata.org/entity/Q12622688",
        "country_qid": "Q884"
      }
    },
    {
      "type": "Feature",
      "geometry": {
        "type": "Point",
        "coordinates": [
          126.9672668,
          37.3938103
        ]
      },
      "properties": {
        "label": "Anyang Power plant",
        "type": "power plant",
        "entity": "http://www.wikidata.org/entity/Q19940349",
        "country_qid": "Q884"
      }
    },
    {
      "type": "Feature",
      "geometry": {
        "type": "Point",
        "coordinates": [
          129.2946142,
          35.3202246
        ]
      },
      "properties": {
        "label": "Kori Nuclear Power Plant",
        "type": "power plant",
        "entity": "http://www.wikidata.org/entity/Q486898",
        "country_qid": "Q884"
      }
    },
    {
      "type": "Feature",
      "geometry": {
        "type": "Point",
        "coordinates": [
          126.322611,
          36.9585
        ]
      },
      "properties": {
        "label": "Garorim Bay Tidal Power Station",
        "type": "power plant",
        "entity": "http://www.wikidata.org/entity/Q5523745",
        "country_qid": "Q884"
      }
    },
    {
      "type": "Feature",
      "geometry": {
        "type": "Point",
        "coordinates": [
          127.81444444,
          37.94555556
        ]
      },
      "properties": {
        "label": "Soyang Dam",
        "type": "power plant",
        "entity": "http://www.wikidata.org/entity/Q624034",
        "country_qid": "Q884"
      }
    }
  ]
}