{
  "type": "FeatureCollection",
  "features": [
    {
      "type": "Feature",
      "geometry": {
        "type": "Point",
        "coordinates": [
          27.6303,
          39.1936
        ]
      },
      "properties": {
        "label": "Soma A power station",
        "type": "power plant",
        "entity": "http://www.wikidata.org/entity/Q97666430",
        "country_qid": "Q43"
      }
    },
    {
      "type": "Feature",
      "geometry": {
        "type": "Point",
        "coordinates": [
          37.005,
          38.3525
        ]
      },
      "properties": {
        "label": "Afşin-Elbistan C power station",
        "type": "power plant",
        "entity": "http://www.wikidata.org/entity/Q60569577",
        "country_qid": "Q43"
      }
    },
    {
      "type": "Feature",
      "geometry": {
        "type": "Point",
        "coordinates": [
          31.01599,
          40.03315
        ]
      },
      "properties": {
        "label": "Gökçekaya Dam",
        "type": "power plant",
        "entity": "http://www.wikidata.org/entity/Q677072",
        "country_qid": "Q43"
      }
    },
    {
      "type": "Feature",
      "geometry": {
        "type": "Point",
        "coordinates": [
          30.8111143,
          40.2522067
        ]
      },
      "properties": {
        "label": "Bolu Göynük power station",
        "type": "power plant",
        "entity": "http://www.wikidata.org/entity/Q97640811",
        "country_qid": "Q43"
      }
    },
    {
      "type": "Feature",
      "geometry": {
        "type": "Point",
        "coordinates": [
          27.635359833,
          39.19509
        ]
      },
      "properties": {
        "label": "Soma power station",
        "type": "power plant",
        "entity": "http://www.wikidata.org/entity/Q56755056",
        "country_qid": "Q43"
      }
    },
    {
      "type": "Feature",
      "geometry": {
        "type": "Point",
        "coordinates": [
          26.929166666,
          38.741666666
        ]
      },
      "properties": {
        "label": "İzdemir power station",
        "type": "power plant",
        "entity": "http://www.wikidata.org/entity/Q97642134",
        "country_qid": "Q43"
      }
    },
    {
      "type": "Feature",
      "geometry": {
        "type": "Point",
        "coordinates": [
          31.8862295,
          41.5032985
        ]
      },
      "properties": {
        "label": "ZETES 2",
        "type": "power plant",
        "entity": "http://www.wikidata.org/entity/Q97709075",
        "country_qid": "Q43"
      }
    },
    {
      "type": "Feature",
      "geometry": {
        "type": "Point",
        "coordinates": [
          37.2951722,
          39.0777171
        ]
      },
      "properties": {
        "label": "Kangal power station",
        "type": "power plant",
        "entity": "http://www.wikidata.org/entity/Q85773487",
        "country_qid": "Q43"
      }
    },
    {
      "type": "Feature",
      "geometry": {
        "type": "Point",
        "coordinates": [
          27.200277777,
          39.0625
        ]
      },
      "properties": {
        "label": "Bergama Integrated Solid Waste Management Facility",
        "type": "power plant",
        "entity": "http://www.wikidata.org/entity/Q111534586",
        "country_qid": "Q43"
      }
    },
    {
      "type": "Feature",
      "geometry": {
        "type": "Point",
        "coordinates": [
          31.8953651,
          41.5074244
        ]
      },
      "properties": {
        "label": "ZETES 1",
        "type": "power plant",
        "entity": "http://www.wikidata.org/entity/Q97708818",
        "country_qid": "Q43"
      }
    },
    {
      "type": "Feature",
      "geometry": {
        "type": "Point",
        "coordinates": [
          26.9744,
          40.0218
        ]
      },
      "properties": {
        "label": "18 Mart Çan power station",
        "type": "power plant",
        "entity": "http://www.wikidata.org/entity/Q97613544",
        "country_qid": "Q43"
      }
    },
    {
      "type": "Feature",
      "geometry": {
        "type": "Point",
        "coordinates": [
          27.260277777,
          38.060555555
        ]
      },
      "properties": {
        "label": "Menderes Integrated Solid Waste Management Facility",
        "type": "power plant",
        "entity": "http://www.wikidata.org/entity/Q111535081",
        "country_qid": "Q43"
      }
    },
    {
      "type": "Feature",
      "geometry": {
        "type": "Point",
        "coordinates": [
          28.2176,
          39.27226
        ]
      },
      "properties": {
        "label": "Çaygören Dam",
        "type": "power plant",
        "entity": "http://www.wikidata.org/entity/Q598946",
        "country_qid": "Q43"
      }
    },
    {
      "type": "Feature",
      "geometry": {
        "type": "Point",
        "coordinates": [
          31.8895554,
          41.5057492
        ]
      },
      "properties": {
        "label": "ZETES power stations",
        "type": "power plant",
        "entity": "http://www.wikidata.org/entity/Q60313985",
        "country_qid": "Q43"
      }
    },
    {
      "type": "Feature",
      "geometry": {
        "type": "Point",
        "coordinates": [
          37.025,
          38.3475
        ]
      },
      "properties": {
        "label": "Afşin-Elbistan A power station",
        "type": "power plant",
        "entity": "http://www.wikidata.org/entity/Q85967587",
        "country_qid": "Q43"
      }
    },
    {
      "type": "Feature",
      "geometry": {
        "type": "Point",
        "coordinates": [
          39.1357,
          38.22652
        ]
      },
      "properties": {
        "label": "Karakaya Dam",
        "type": "power plant",
        "entity": "http://www.wikidata.org/entity/Q152556",
        "country_qid": "Q43"
      }
    },
    {
      "type": "Feature",
      "geometry": {
        "type": "Point",
        "coordinates": [
          27.9007,
          37.0355
        ]
      },
      "properties": {
        "label": "Kemerköy power station",
        "type": "power plant",
        "entity": "http://www.wikidata.org/entity/Q31191365",
        "country_qid": "Q43"
      }
    },
    {
      "type": "Feature",
      "geometry": {
        "type": "Point",
        "coordinates": [
          27.1305334,
          40.4435505
        ]
      },
      "properties": {
        "label": "Bekirli‑1",
        "type": "power plant",
        "entity": "http://www.wikidata.org/entity/Q97640059",
        "country_qid": "Q43"
      }
    },
    {
      "type": "Feature",
      "geometry": {
        "type": "Point",
        "coordinates": [
          35.85481,
          36.81609
        ]
      },
      "properties": {
        "label": "Emba Hunutlu power station",
        "type": "power plant",
        "entity": "http://www.wikidata.org/entity/Q63656905",
        "country_qid": "Q43"
      }
    },
    {
      "type": "Feature",
      "geometry": {
        "type": "Point",
        "coordinates": [
          36.2686157,
          38.1856784
        ]
      },
      "properties": {
        "label": "Tufanbeyli power station",
        "type": "power plant",
        "entity": "http://www.wikidata.org/entity/Q97666447",
        "country_qid": "Q43"
      }
    },
    {
      "type": "Feature",
      "geometry": {
        "type": "Point",
        "coordinates": [
          38.18708,
          40.24205
        ]
      },
      "properties": {
        "label": "Kılıçkaya Dam",
        "type": "power plant",
        "entity": "http://www.wikidata.org/entity/Q674535",
        "country_qid": "Q43"
      }
    },
    {
      "type": "Feature",
      "geometry": {
        "type": "Point",
        "coordinates": [
          29.882336833,
          39.574254
        ]
      },
      "properties": {
        "label": "Seyitömer power station",
        "type": "power plant",
        "entity": "http://www.wikidata.org/entity/Q85800540",
        "country_qid": "Q43"
      }
    },
    {
      "type": "Feature",
      "geometry": {
        "type": "Point",
        "coordinates": [
          26.9504928,
          40.0344576
        ]
      },
      "properties": {
        "label": "Çan-2 power station",
        "type": "power plant",
        "entity": "http://www.wikidata.org/entity/Q97641152",
        "country_qid": "Q43"
      }
    },
    {
      "type": "Feature",
      "geometry": {
        "type": "Point",
        "coordinates": [
          36.20909,
          36.69028
        ]
      },
      "properties": {
        "label": "Atlas power station",
        "type": "power plant",
        "entity": "http://www.wikidata.org/entity/Q97613608",
        "country_qid": "Q43"
      }
    },
    {
      "type": "Feature",
      "geometry": {
        "type": "Point",
        "coordinates": [
          27.7479887,
          39.3169103
        ]
      },
      "properties": {
        "label": "Soma Kolin power station",
        "type": "power plant",
        "entity": "http://www.wikidata.org/entity/Q97666426",
        "country_qid": "Q43"
      }
    },
    {
      "type": "Feature",
      "geometry": {
        "type": "Point",
        "coordinates": [
          40.08808,
          39.13011
        ]
      },
      "properties": {
        "label": "Özlüce Dam",
        "type": "power plant",
        "entity": "http://www.wikidata.org/entity/Q307943",
        "country_qid": "Q43"
      }
    },
    {
      "type": "Feature",
      "geometry": {
        "type": "Point",
        "coordinates": [
          35.84206,
          41.4613
        ]
      },
      "properties": {
        "label": "Derbent Dam",
        "type": "power plant",
        "entity": "http://www.wikidata.org/entity/Q738309",
        "country_qid": "Q43"
      }
    },
    {
      "type": "Feature",
      "geometry": {
        "type": "Point",
        "coordinates": [
          29.4431877,
          39.6160695
        ]
      },
      "properties": {
        "label": "Polat power station",
        "type": "power plant",
        "entity": "http://www.wikidata.org/entity/Q97666406",
        "country_qid": "Q43"
      }
    },
    {
      "type": "Feature",
      "geometry": {
        "type": "Point",
        "coordinates": [
          28.90225,
          36.89782
        ]
      },
      "properties": {
        "label": "Akköprü Dam",
        "type": "power plant",
        "entity": "http://www.wikidata.org/entity/Q420151",
        "country_qid": "Q43"
      }
    },
    {
      "type": "Feature",
      "geometry": {
        "type": "Point",
        "coordinates": [
          29.4626,
          39.6281
        ]
      },
      "properties": {
        "label": "Tunçbilek power station",
        "type": "power plant",
        "entity": "http://www.wikidata.org/entity/Q85811080",
        "country_qid": "Q43"
      }
    },
    {
      "type": "Feature",
      "geometry": {
        "type": "Point",
        "coordinates": [
          28.8708,
          39.9515
        ]
      },
      "properties": {
        "label": "Orhaneli power station",
        "type": "power plant",
        "entity": "http://www.wikidata.org/entity/Q85973759",
        "country_qid": "Q43"
      }
    },
    {
      "type": "Feature",
      "geometry": {
        "type": "Point",
        "coordinates": [
          42.594696,
          37.3100249
        ]
      },
      "properties": {
        "label": "Şırnak Silopi power station",
        "type": "power plant",
        "entity": "http://www.wikidata.org/entity/Q85817274",
        "country_qid": "Q43"
      }
    },
    {
      "type": "Feature",
      "geometry": {
        "type": "Point",
        "coordinates": [
          31.636111111,
          39.985
        ]
      },
      "properties": {
        "label": "Yunus Emre Power Station",
        "type": "power plant",
        "entity": "http://www.wikidata.org/entity/Q97285076",
        "country_qid": "Q43"
      }
    },
    {
      "type": "Feature",
      "geometry": {
        "type": "Point",
        "coordinates": [
          27.04973,
          40.399529833
        ]
      },
      "properties": {
        "label": "Bekirli-2",
        "type": "power plant",
        "entity": "http://www.wikidata.org/entity/Q97640270",
        "country_qid": "Q43"
      }
    },
    {
      "type": "Feature",
      "geometry": {
        "type": "Point",
        "coordinates": [
          41.68661,
          41.34959
        ]
      },
      "properties": {
        "label": "Borçka Dam",
        "type": "power plant",
        "entity": "http://www.wikidata.org/entity/Q256099",
        "country_qid": "Q43"
      }
    },
    {
      "type": "Feature",
      "geometry": {
        "type": "Point",
        "coordinates": [
          31.9007027,
          41.5172137
        ]
      },
      "properties": {
        "label": "ZETES 3",
        "type": "power plant",
        "entity": "http://www.wikidata.org/entity/Q97709205",
        "country_qid": "Q43"
      }
    },
    {
      "type": "Feature",
      "geometry": {
        "type": "Point",
        "coordinates": [
          27.3195,
          40.4201
        ]
      },
      "properties": {
        "label": "Cenal power station",
        "type": "power plant",
        "entity": "http://www.wikidata.org/entity/Q97641013",
        "country_qid": "Q43"
      }
    },
    {
      "type": "Feature",
      "geometry": {
        "type": "Point",
        "coordinates": [
          27.962222222,
          38.198333333
        ]
      },
      "properties": {
        "label": "Ödemiş Integrated Solid Waste Management Facility",
        "type": "power plant",
        "entity": "http://www.wikidata.org/entity/Q111534555",
        "country_qid": "Q43"
      }
    },
    {
      "type": "Feature",
      "geometry": {
        "type": "Point",
        "coordinates": [
          35.88,
          36.835
        ]
      },
      "properties": {
        "label": "İsken Sugözü power station",
        "type": "power plant",
        "entity": "http://www.wikidata.org/entity/Q85817252",
        "country_qid": "Q43"
      }
    },
    {
      "type": "Feature",
      "geometry": {
        "type": "Point",
        "coordinates": [
          28.12865,
          37.4948
        ]
      },
      "properties": {
        "label": "Çine Dam",
        "type": "power plant",
        "entity": "http://www.wikidata.org/entity/Q2885384",
        "country_qid": "Q43"
      }
    },
    {
      "type": "Feature",
      "geometry": {
        "type": "Point",
        "coordinates": [
          33.54111111,
          36.14444444
        ]
      },
      "properties": {
        "label": "Akkuyu Nuclear Power Plant",
        "type": "power plant",
        "entity": "http://www.wikidata.org/entity/Q1630042",
        "country_qid": "Q43"
      }
    },
    {
      "type": "Feature",
      "geometry": {
        "type": "Point",
        "coordinates": [
          27.6,
          39.17997222
        ]
      },
      "properties": {
        "label": "Soma Wind Farm",
        "type": "power plant",
        "entity": "http://www.wikidata.org/entity/Q21523734",
        "country_qid": "Q43"
      }
    },
    {
      "type": "Feature",
      "geometry": {
        "type": "Point",
        "coordinates": [
          36.291866,
          38.676628
        ]
      },
      "properties": {
        "label": "Bahçelik Dam",
        "type": "power plant",
        "entity": "http://www.wikidata.org/entity/Q4843099",
        "country_qid": "Q43"
      }
    },
    {
      "type": "Feature",
      "geometry": {
        "type": "Point",
        "coordinates": [
          40.17661,
          38.23123
        ]
      },
      "properties": {
        "label": "Dicle Dam",
        "type": "power plant",
        "entity": "http://www.wikidata.org/entity/Q2611551",
        "country_qid": "Q43"
      }
    },
    {
      "type": "Feature",
      "geometry": {
        "type": "Point",
        "coordinates": [
          36.67102,
          41.07469
        ]
      },
      "properties": {
        "label": "Suat Uğurlu Dam",
        "type": "power plant",
        "entity": "http://www.wikidata.org/entity/Q2885305",
        "country_qid": "Q43"
      }
    },
    {
      "type": "Feature",
      "geometry": {
        "type": "Point",
        "coordinates": [
          28.0583,
          41.1139
        ]
      },
      "properties": {
        "label": "Çanta Wind Farm",
        "type": "power plant",
        "entity": "http://www.wikidata.org/entity/Q19457548",
        "country_qid": "Q43"
      }
    },
    {
      "type": "Feature",
      "geometry": {
        "type": "Point",
        "coordinates": [
          30.85664,
          40.06344
        ]
      },
      "properties": {
        "label": "Yenice Dam",
        "type": "power plant",
        "entity": "http://www.wikidata.org/entity/Q1090288",
        "country_qid": "Q43"
      }
    },
    {
      "type": "Feature",
      "geometry": {
        "type": "Point",
        "coordinates": [
          26.9564165,
          38.7465325
        ]
      },
      "properties": {
        "label": "İzmir natural gas fired CCPP",
        "type": "power plant",
        "entity": "http://www.wikidata.org/entity/Q11977769",
        "country_qid": "Q43"
      }
    },
    {
      "type": "Feature",
      "geometry": {
        "type": "Point",
        "coordinates": [
          36.59599,
          37.50098
        ]
      },
      "properties": {
        "label": "Sır Dam",
        "type": "power plant",
        "entity": "http://www.wikidata.org/entity/Q1090245",
        "country_qid": "Q43"
      }
    },
    {
      "type": "Feature",
      "geometry": {
        "type": "Point",
        "coordinates": [
          41.06452,
          40.18675
        ]
      },
      "properties": {
        "label": "Kuzgun Dam",
        "type": "power plant",
        "entity": "http://www.wikidata.org/entity/Q1091478",
        "country_qid": "Q43"
      }
    },
    {
      "type": "Feature",
      "geometry": {
        "type": "Point",
        "coordinates": [
          32.40219,
          39.7769381
        ]
      },
      "properties": {
        "label": "Baymina Ankara gas power station",
        "type": "power plant",
        "entity": "http://www.wikidata.org/entity/Q17750010",
        "country_qid": "Q43"
      }
    },
    {
      "type": "Feature",
      "geometry": {
        "type": "Point",
        "coordinates": [
          27.5597083,
          41.2911734
        ]
      },
      "properties": {
        "label": "Delta gas power station",
        "type": "power plant",
        "entity": "http://www.wikidata.org/entity/Q12007279",
        "country_qid": "Q43"
      }
    },
    {
      "type": "Feature",
      "geometry": {
        "type": "Point",
        "coordinates": [
          36.0517001,
          36.9260007
        ]
      },
      "properties": {
        "label": "Erzin gas power plant",
        "type": "power plant",
        "entity": "http://www.wikidata.org/entity/Q106671564",
        "country_qid": "Q43"
      }
    },
    {
      "type": "Feature",
      "geometry": {
        "type": "Point",
        "coordinates": [
          29.074,
          40.296
        ]
      },
      "properties": {
        "label": "Bursa gas power plant",
        "type": "power plant",
        "entity": "http://www.wikidata.org/entity/Q106670546",
        "country_qid": "Q43"
      }
    },
    {
      "type": "Feature",
      "geometry": {
        "type": "Point",
        "coordinates": [
          32.5011259,
          40.105317
        ]
      },
      "properties": {
        "label": "Kazan gas cogeneration power plant",
        "type": "power plant",
        "entity": "http://www.wikidata.org/entity/Q106695968",
        "country_qid": "Q43"
      }
    },
    {
      "type": "Feature",
      "geometry": {
        "type": "Point",
        "coordinates": [
          38.02989,
          36.87052
        ]
      },
      "properties": {
        "label": "Karkamış Dam",
        "type": "power plant",
        "entity": "http://www.wikidata.org/entity/Q1927376",
        "country_qid": "Q43"
      }
    },
    {
      "type": "Feature",
      "geometry": {
        "type": "Point",
        "coordinates": [
          32.14035,
          36.55122
        ]
      },
      "properties": {
        "label": "Dim Dam",
        "type": "power plant",
        "entity": "http://www.wikidata.org/entity/Q4161647",
        "country_qid": "Q43"
      }
    },
    {
      "type": "Feature",
      "geometry": {
        "type": "Point",
        "coordinates": [
          29.20588,
          38.15901
        ]
      },
      "properties": {
        "label": "Adıgüzel Dam",
        "type": "power plant",
        "entity": "http://www.wikidata.org/entity/Q1090380",
        "country_qid": "Q43"
      }
    },
    {
      "type": "Feature",
      "geometry": {
        "type": "Point",
        "coordinates": [
          27.7645647,
          40.2959838
        ]
      },
      "properties": {
        "label": "Bandırma II gas power plant",
        "type": "power plant",
        "entity": "http://www.wikidata.org/entity/Q106692522",
        "country_qid": "Q43"
      }
    },
    {
      "type": "Feature",
      "geometry": {
        "type": "Point",
        "coordinates": [
          27.973473,
          41.007564
        ]
      },
      "properties": {
        "label": "Tekirdağ gas power plant A",
        "type": "power plant",
        "entity": "http://www.wikidata.org/entity/Q30621654",
        "country_qid": "Q43"
      }
    },
    {
      "type": "Feature",
      "geometry": {
        "type": "Point",
        "coordinates": [
          41.02194,
          38.29371
        ]
      },
      "properties": {
        "label": "Silvan Dam",
        "type": "power plant",
        "entity": "http://www.wikidata.org/entity/Q1674132",
        "country_qid": "Q43"
      }
    },
    {
      "type": "Feature",
      "geometry": {
        "type": "Point",
        "coordinates": [
          41.81866,
          39.04911
        ]
      },
      "properties": {
        "label": "Alpaslan-1 Dam",
        "type": "power plant",
        "entity": "http://www.wikidata.org/entity/Q4734770",
        "country_qid": "Q43"
      }
    },
    {
      "type": "Feature",
      "geometry": {
        "type": "Point",
        "coordinates": [
          30.601111111,
          37.124444444
        ]
      },
      "properties": {
        "label": "Aksa Antalya power plant",
        "type": "power plant",
        "entity": "http://www.wikidata.org/entity/Q11958366",
        "country_qid": "Q43"
      }
    },
    {
      "type": "Feature",
      "geometry": {
        "type": "Point",
        "coordinates": [
          37.88986,
          37.05392
        ]
      },
      "properties": {
        "label": "Birecik Dam",
        "type": "power plant",
        "entity": "http://www.wikidata.org/entity/Q1374176",
        "country_qid": "Q43"
      }
    },
    {
      "type": "Feature",
      "geometry": {
        "type": "Point",
        "coordinates": [
          41.71404,
          41.46651
        ]
      },
      "properties": {
        "label": "Muratlı Dam",
        "type": "power plant",
        "entity": "http://www.wikidata.org/entity/Q2885244",
        "country_qid": "Q43"
      }
    },
    {
      "type": "Feature",
      "geometry": {
        "type": "Point",
        "coordinates": [
          41.20252,
          38.16053
        ]
      },
      "properties": {
        "label": "Batman Dam",
        "type": "power plant",
        "entity": "http://www.wikidata.org/entity/Q810848",
        "country_qid": "Q43"
      }
    },
    {
      "type": "Feature",
      "geometry": {
        "type": "Point",
        "coordinates": [
          38.756944444,
          38.806944444
        ]
      },
      "properties": {
        "label": "Keban Dam",
        "type": "power plant",
        "entity": "http://www.wikidata.org/entity/Q1737672",
        "country_qid": "Q43"
      }
    },
    {
      "type": "Feature",
      "geometry": {
        "type": "Point",
        "coordinates": [
          27.344305555,
          38.616527777
        ]
      },
      "properties": {
        "label": "Manisa industrial park power station",
        "type": "power plant",
        "entity": "http://www.wikidata.org/entity/Q108800378",
        "country_qid": "Q43"
      }
    },
    {
      "type": "Feature",
      "geometry": {
        "type": "Point",
        "coordinates": [
          32.74988,
          41.82777
        ]
      },
      "properties": {
        "label": "Kirazlıköprü Dam",
        "type": "power plant",
        "entity": "http://www.wikidata.org/entity/Q6414879",
        "country_qid": "Q43"
      }
    },
    {
      "type": "Feature",
      "geometry": {
        "type": "Point",
        "coordinates": [
          32.89491,
          36.18176
        ]
      },
      "properties": {
        "label": "Alaköprü Dam",
        "type": "power plant",
        "entity": "http://www.wikidata.org/entity/Q2636533",
        "country_qid": "Q43"
      }
    },
    {
      "type": "Feature",
      "geometry": {
        "type": "Point",
        "coordinates": [
          29.5723736,
          40.8163183
        ]
      },
      "properties": {
        "label": "Yeni Elektrik Combined Cycle Power Plant",
        "type": "power plant",
        "entity": "http://www.wikidata.org/entity/Q106689096",
        "country_qid": "Q43"
      }
    },
    {
      "type": "Feature",
      "geometry": {
        "type": "Point",
        "coordinates": [
          41.87027,
          41.16995
        ]
      },
      "properties": {
        "label": "Deriner Dam",
        "type": "power plant",
        "entity": "http://www.wikidata.org/entity/Q1200190",
        "country_qid": "Q43"
      }
    },
    {
      "type": "Feature",
      "geometry": {
        "type": "Point",
        "coordinates": [
          31.53168,
          36.90872
        ]
      },
      "properties": {
        "label": "Oymapinar Dam",
        "type": "power plant",
        "entity": "http://www.wikidata.org/entity/Q1934539",
        "country_qid": "Q43"
      }
    },
    {
      "type": "Feature",
      "geometry": {
        "type": "Point",
        "coordinates": [
          30.80888,
          37.30672
        ]
      },
      "properties": {
        "label": "Karacaören-2 Dam",
        "type": "power plant",
        "entity": "http://www.wikidata.org/entity/Q1090372",
        "country_qid": "Q43"
      }
    },
    {
      "type": "Feature",
      "geometry": {
        "type": "Point",
        "coordinates": [
          28.1022,
          37.3314
        ]
      },
      "properties": {
        "label": "Yatağan Thermal Power Plant",
        "type": "power plant",
        "entity": "http://www.wikidata.org/entity/Q12010956",
        "country_qid": "Q43"
      }
    },
    {
      "type": "Feature",
      "geometry": {
        "type": "Point",
        "coordinates": [
          28.52498,
          37.57218
        ]
      },
      "properties": {
        "label": "Kemer Dam",
        "type": "power plant",
        "entity": "http://www.wikidata.org/entity/Q1089503",
        "country_qid": "Q43"
      }
    },
    {
      "type": "Feature",
      "geometry": {
        "type": "Point",
        "coordinates": [
          35.0,
          42.0
        ]
      },
      "properties": {
        "label": "Sinop Nuclear Power Plant",
        "type": "power plant",
        "entity": "http://www.wikidata.org/entity/Q13220866",
        "country_qid": "Q43"
      }
    },
    {
      "type": "Feature",
      "geometry": {
        "type": "Point",
        "coordinates": [
          41.556475,
          38.25188889
        ]
      },
      "properties": {
        "label": "Garzan Dam",
        "type": "power plant",
        "entity": "http://www.wikidata.org/entity/Q2885118",
        "country_qid": "Q43"
      }
    },
    {
      "type": "Feature",
      "geometry": {
        "type": "Point",
        "coordinates": [
          27.87275,
          37.141
        ]
      },
      "properties": {
        "label": "Yeniköy power station",
        "type": "power plant",
        "entity": "http://www.wikidata.org/entity/Q6022911",
        "country_qid": "Q43"
      }
    },
    {
      "type": "Feature",
      "geometry": {
        "type": "Point",
        "coordinates": [
          42.3772,
          37.9744
        ]
      },
      "properties": {
        "label": "Çetin Dam",
        "type": "power plant",
        "entity": "http://www.wikidata.org/entity/Q8077672",
        "country_qid": "Q43"
      }
    },
    {
      "type": "Feature",
      "geometry": {
        "type": "Point",
        "coordinates": [
          38.07614,
          40.22902
        ]
      },
      "properties": {
        "label": "Çamlıgöze Dam",
        "type": "power plant",
        "entity": "http://www.wikidata.org/entity/Q1090346",
        "country_qid": "Q43"
      }
    },
    {
      "type": "Feature",
      "geometry": {
        "type": "Point",
        "coordinates": [
          36.4413232,
          41.2357609
        ]
      },
      "properties": {
        "label": "Yeşilyurt industrial park gas power plant",
        "type": "power plant",
        "entity": "http://www.wikidata.org/entity/Q106727591",
        "country_qid": "Q43"
      }
    },
    {
      "type": "Feature",
      "geometry": {
        "type": "Point",
        "coordinates": [
          27.155833333,
          38.439722222
        ]
      },
      "properties": {
        "label": "İzmir Historical Electricity Power Plant",
        "type": "power plant",
        "entity": "http://www.wikidata.org/entity/Q6024513",
        "country_qid": "Q43"
      }
    },
    {
      "type": "Feature",
      "geometry": {
        "type": "Point",
        "coordinates": [
          35.00183,
          41.33864
        ]
      },
      "properties": {
        "label": "Boyabat Dam",
        "type": "power plant",
        "entity": "http://www.wikidata.org/entity/Q895864",
        "country_qid": "Q43"
      }
    },
    {
      "type": "Feature",
      "geometry": {
        "type": "Point",
        "coordinates": [
          40.02138,
          38.34897
        ]
      },
      "properties": {
        "label": "Kralkızı Dam",
        "type": "power plant",
        "entity": "http://www.wikidata.org/entity/Q2506536",
        "country_qid": "Q43"
      }
    },
    {
      "type": "Feature",
      "geometry": {
        "type": "Point",
        "coordinates": [
          28.94583333,
          41.06722222
        ]
      },
      "properties": {
        "label": "Silahtarağa Power Station",
        "type": "power plant",
        "entity": "http://www.wikidata.org/entity/Q4817892",
        "country_qid": "Q43"
      }
    },
    {
      "type": "Feature",
      "geometry": {
        "type": "Point",
        "coordinates": [
          38.5492,
          38.0353
        ]
      },
      "properties": {
        "label": "Sırımtaş Dam",
        "type": "power plant",
        "entity": "http://www.wikidata.org/entity/Q2885299",
        "country_qid": "Q43"
      }
    },
    {
      "type": "Feature",
      "geometry": {
        "type": "Point",
        "coordinates": [
          33.209722222,
          38.163888888
        ]
      },
      "properties": {
        "label": "Q25476853",
        "type": "power plant",
        "entity": "http://www.wikidata.org/entity/Q25476853",
        "country_qid": "Q43"
      }
    },
    {
      "type": "Feature",
      "geometry": {
        "type": "Point",
        "coordinates": [
          34.895261111,
          36.966016666
        ]
      },
      "properties": {
        "label": "Berdan Dam",
        "type": "power plant",
        "entity": "http://www.wikidata.org/entity/Q1090431",
        "country_qid": "Q43"
      }
    },
    {
      "type": "Feature",
      "geometry": {
        "type": "Point",
        "coordinates": [
          33.25,
          36.73333333
        ]
      },
      "properties": {
        "label": "Mut Wind Farm",
        "type": "power plant",
        "entity": "http://www.wikidata.org/entity/Q6943630",
        "country_qid": "Q43"
      }
    },
    {
      "type": "Feature",
      "geometry": {
        "type": "Point",
        "coordinates": [
          29.03516,
          38.11529
        ]
      },
      "properties": {
        "label": "Cindere Dam",
        "type": "power plant",
        "entity": "http://www.wikidata.org/entity/Q5120420",
        "country_qid": "Q43"
      }
    },
    {
      "type": "Feature",
      "geometry": {
        "type": "Point",
        "coordinates": [
          39.53072,
          38.983
        ]
      },
      "properties": {
        "label": "Uzunçayır Dam",
        "type": "power plant",
        "entity": "http://www.wikidata.org/entity/Q7905245",
        "country_qid": "Q43"
      }
    },
    {
      "type": "Feature",
      "geometry": {
        "type": "Point",
        "coordinates": [
          42.154713,
          37.362926
        ]
      },
      "properties": {
        "label": "Cizre Dam",
        "type": "power plant",
        "entity": "http://www.wikidata.org/entity/Q2885099",
        "country_qid": "Q43"
      }
    },
    {
      "type": "Feature",
      "geometry": {
        "type": "Point",
        "coordinates": [
          28.9520699,
          40.2394686
        ]
      },
      "properties": {
        "label": "Bis Enerji gas power plant",
        "type": "power plant",
        "entity": "http://www.wikidata.org/entity/Q11961154",
        "country_qid": "Q43"
      }
    },
    {
      "type": "Feature",
      "geometry": {
        "type": "Point",
        "coordinates": [
          31.9007778,
          41.5173181
        ]
      },
      "properties": {
        "label": "Çatalağzı power station",
        "type": "power plant",
        "entity": "http://www.wikidata.org/entity/Q6099668",
        "country_qid": "Q43"
      }
    },
    {
      "type": "Feature",
      "geometry": {
        "type": "Point",
        "coordinates": [
          36.46135,
          37.37291
        ]
      },
      "properties": {
        "label": "Berke Dam",
        "type": "power plant",
        "entity": "http://www.wikidata.org/entity/Q820828",
        "country_qid": "Q43"
      }
    },
    {
      "type": "Feature",
      "geometry": {
        "type": "Point",
        "coordinates": [
          43.65681,
          38.35561
        ]
      },
      "properties": {
        "label": "Zernek Dam",
        "type": "power plant",
        "entity": "http://www.wikidata.org/entity/Q921621",
        "country_qid": "Q43"
      }
    },
    {
      "type": "Feature",
      "geometry": {
        "type": "Point",
        "coordinates": [
          42.09261,
          37.95892
        ]
      },
      "properties": {
        "label": "Alkumru Dam",
        "type": "power plant",
        "entity": "http://www.wikidata.org/entity/Q4727729",
        "country_qid": "Q43"
      }
    },
    {
      "type": "Feature",
      "geometry": {
        "type": "Point",
        "coordinates": [
          30.3918765,
          40.8655316
        ]
      },
      "properties": {
        "label": "Enka Gebze gas power plant",
        "type": "power plant",
        "entity": "http://www.wikidata.org/entity/Q11971656",
        "country_qid": "Q43"
      }
    },
    {
      "type": "Feature",
      "geometry": {
        "type": "Point",
        "coordinates": [
          26.9463,
          38.7413
        ]
      },
      "properties": {
        "label": "Habaş/Aliağa gas power plant",
        "type": "power plant",
        "entity": "http://www.wikidata.org/entity/Q106727971",
        "country_qid": "Q43"
      }
    },
    {
      "type": "Feature",
      "geometry": {
        "type": "Point",
        "coordinates": [
          36.85041,
          37.67692
        ]
      },
      "properties": {
        "label": "Menzelet Dam",
        "type": "power plant",
        "entity": "http://www.wikidata.org/entity/Q1548059",
        "country_qid": "Q43"
      }
    },
    {
      "type": "Feature",
      "geometry": {
        "type": "Point",
        "coordinates": [
          33.48368,
          39.73045
        ]
      },
      "properties": {
        "label": "Kapulukaya Dam",
        "type": "power plant",
        "entity": "http://www.wikidata.org/entity/Q2885173",
        "country_qid": "Q43"
      }
    },
    {
      "type": "Feature",
      "geometry": {
        "type": "Point",
        "coordinates": [
          34.997222222,
          38.799333333
        ]
      },
      "properties": {
        "label": "Bayramhacı Dam",
        "type": "power plant",
        "entity": "http://www.wikidata.org/entity/Q116676991",
        "country_qid": "Q43"
      }
    },
    {
      "type": "Feature",
      "geometry": {
        "type": "Point",
        "coordinates": [
          41.84931,
          37.5311
        ]
      },
      "properties": {
        "label": "Ilısu Dam",
        "type": "power plant",
        "entity": "http://www.wikidata.org/entity/Q1659316",
        "country_qid": "Q43"
      }
    },
    {
      "type": "Feature",
      "geometry": {
        "type": "Point",
        "coordinates": [
          27.073888888,
          38.532777777
        ]
      },
      "properties": {
        "label": "Harmandalı Biogas Plant",
        "type": "power plant",
        "entity": "http://www.wikidata.org/entity/Q111535165",
        "country_qid": "Q43"
      }
    },
    {
      "type": "Feature",
      "geometry": {
        "type": "Point",
        "coordinates": [
          43.32905,
          39.12195
        ]
      },
      "properties": {
        "label": "Koçköprü Dam",
        "type": "power plant",
        "entity": "http://www.wikidata.org/entity/Q1090262",
        "country_qid": "Q43"
      }
    },
    {
      "type": "Feature",
      "geometry": {
        "type": "Point",
        "coordinates": [
          28.6989874,
          40.979732
        ]
      },
      "properties": {
        "label": "Ambarlı B gas power plant",
        "type": "power plant",
        "entity": "http://www.wikidata.org/entity/Q106692363",
        "country_qid": "Q43"
      }
    },
    {
      "type": "Feature",
      "geometry": {
        "type": "Point",
        "coordinates": [
          31.78515,
          39.88999
        ]
      },
      "properties": {
        "label": "Gürsöğüt Dam",
        "type": "power plant",
        "entity": "http://www.wikidata.org/entity/Q5627154",
        "country_qid": "Q43"
      }
    },
    {
      "type": "Feature",
      "geometry": {
        "type": "Point",
        "coordinates": [
          34.6097,
          36.8658
        ]
      },
      "properties": {
        "label": "Greenway CSP Mersin Solar Tower Plant",
        "type": "power plant",
        "entity": "http://www.wikidata.org/entity/Q18639255",
        "country_qid": "Q43"
      }
    },
    {
      "type": "Feature",
      "geometry": {
        "type": "Point",
        "coordinates": [
          31.74012,
          39.96617
        ]
      },
      "properties": {
        "label": "Kargı Dam",
        "type": "power plant",
        "entity": "http://www.wikidata.org/entity/Q6370304",
        "country_qid": "Q43"
      }
    },
    {
      "type": "Feature",
      "geometry": {
        "type": "Point",
        "coordinates": [
          31.695,
          40.097
        ]
      },
      "properties": {
        "label": "Çayırhan power station",
        "type": "power plant",
        "entity": "http://www.wikidata.org/entity/Q6077955",
        "country_qid": "Q43"
      }
    },
    {
      "type": "Feature",
      "geometry": {
        "type": "Point",
        "coordinates": [
          27.007777777,
          38.815
        ]
      },
      "properties": {
        "label": "Aliağa Wind Farm",
        "type": "power plant",
        "entity": "http://www.wikidata.org/entity/Q4725615",
        "country_qid": "Q43"
      }
    },
    {
      "type": "Feature",
      "geometry": {
        "type": "Point",
        "coordinates": [
          34.78805556,
          40.77027778
        ]
      },
      "properties": {
        "label": "Obruk Dam",
        "type": "power plant",
        "entity": "http://www.wikidata.org/entity/Q7075372",
        "country_qid": "Q43"
      }
    },
    {
      "type": "Feature",
      "geometry": {
        "type": "Point",
        "coordinates": [
          28.690555555,
          40.982222222
        ]
      },
      "properties": {
        "label": "Ambarlı power station",
        "type": "power plant",
        "entity": "http://www.wikidata.org/entity/Q6023095",
        "country_qid": "Q43"
      }
    },
    {
      "type": "Feature",
      "geometry": {
        "type": "Point",
        "coordinates": [
          36.80302,
          37.62595
        ]
      },
      "properties": {
        "label": "Kılavuzlu Dam",
        "type": "power plant",
        "entity": "http://www.wikidata.org/entity/Q2885200",
        "country_qid": "Q43"
      }
    },
    {
      "type": "Feature",
      "geometry": {
        "type": "Point",
        "coordinates": [
          31.27673,
          40.91025
        ]
      },
      "properties": {
        "label": "Hasanlar Dam",
        "type": "power plant",
        "entity": "http://www.wikidata.org/entity/Q1089396",
        "country_qid": "Q43"
      }
    },
    {
      "type": "Feature",
      "geometry": {
        "type": "Point",
        "coordinates": [
          33.584722222,
          37.790833333
        ]
      },
      "properties": {
        "label": "Karapınar Photovoltaic Power Station",
        "type": "power plant",
        "entity": "http://www.wikidata.org/entity/Q30595343",
        "country_qid": "Q43"
      }
    },
    {
      "type": "Feature",
      "geometry": {
        "type": "Point",
        "coordinates": [
          27.7817,
          39.97474
        ]
      },
      "properties": {
        "label": "Manyas Dam",
        "type": "power plant",
        "entity": "http://www.wikidata.org/entity/Q2885225",
        "country_qid": "Q43"
      }
    },
    {
      "type": "Feature",
      "geometry": {
        "type": "Point",
        "coordinates": [
          38.6595529,
          37.1001539
        ]
      },
      "properties": {
        "label": "Şanlıurfa industrial park power plant",
        "type": "power plant",
        "entity": "http://www.wikidata.org/entity/Q106696184",
        "country_qid": "Q43"
      }
    },
    {
      "type": "Feature",
      "geometry": {
        "type": "Point",
        "coordinates": [
          30.82912,
          37.37001
        ]
      },
      "properties": {
        "label": "Karacaören-1 Dam",
        "type": "power plant",
        "entity": "http://www.wikidata.org/entity/Q1091457",
        "country_qid": "Q43"
      }
    },
    {
      "type": "Feature",
      "geometry": {
        "type": "Point",
        "coordinates": [
          41.65962,
          40.65662
        ]
      },
      "properties": {
        "label": "Tortum Dam",
        "type": "power plant",
        "entity": "http://www.wikidata.org/entity/Q2885318",
        "country_qid": "Q43"
      }
    },
    {
      "type": "Feature",
      "geometry": {
        "type": "Point",
        "coordinates": [
          28.080252,
          40.366855
        ]
      },
      "properties": {
        "label": "Bandırma Wind Farm",
        "type": "power plant",
        "entity": "http://www.wikidata.org/entity/Q6073573",
        "country_qid": "Q43"
      }
    },
    {
      "type": "Feature",
      "geometry": {
        "type": "Point",
        "coordinates": [
          31.90812,
          40.98916
        ]
      },
      "properties": {
        "label": "Köprübaşı Dam",
        "type": "power plant",
        "entity": "http://www.wikidata.org/entity/Q6453946",
        "country_qid": "Q43"
      }
    },
    {
      "type": "Feature",
      "geometry": {
        "type": "Point",
        "coordinates": [
          33.4500861,
          39.7571294
        ]
      },
      "properties": {
        "label": "İç Anadolu CCGT Plant",
        "type": "power plant",
        "entity": "http://www.wikidata.org/entity/Q106691337",
        "country_qid": "Q43"
      }
    },
    {
      "type": "Feature",
      "geometry": {
        "type": "Point",
        "coordinates": [
          35.33201,
          37.03934
        ]
      },
      "properties": {
        "label": "Seyhan Dam",
        "type": "power plant",
        "entity": "http://www.wikidata.org/entity/Q1518263",
        "country_qid": "Q43"
      }
    },
    {
      "type": "Feature",
      "geometry": {
        "type": "Point",
        "coordinates": [
          36.27096,
          37.27288
        ]
      },
      "properties": {
        "label": "Aslantaş Dam",
        "type": "power plant",
        "entity": "http://www.wikidata.org/entity/Q1090378",
        "country_qid": "Q43"
      }
    },
    {
      "type": "Feature",
      "geometry": {
        "type": "Point",
        "coordinates": [
          35.271,
          38.904
        ]
      },
      "properties": {
        "label": "Yamula Dam and Hydroelectric Plant",
        "type": "power plant",
        "entity": "http://www.wikidata.org/entity/Q6045094",
        "country_qid": "Q43"
      }
    },
    {
      "type": "Feature",
      "geometry": {
        "type": "Point",
        "coordinates": [
          33.46666667,
          36.83333333
        ]
      },
      "properties": {
        "label": "Dağpazarı Wind Farm",
        "type": "power plant",
        "entity": "http://www.wikidata.org/entity/Q5243722",
        "country_qid": "Q43"
      }
    },
    {
      "type": "Feature",
      "geometry": {
        "type": "Point",
        "coordinates": [
          40.40038,
          39.75157
        ]
      },
      "properties": {
        "label": "Tercan Dam",
        "type": "power plant",
        "entity": "http://www.wikidata.org/entity/Q1090567",
        "country_qid": "Q43"
      }
    },
    {
      "type": "Feature",
      "geometry": {
        "type": "Point",
        "coordinates": [
          27.3371465,
          41.4816852
        ]
      },
      "properties": {
        "label": "Hamitabat CCGT Power Plant",
        "type": "power plant",
        "entity": "http://www.wikidata.org/entity/Q17781997",
        "country_qid": "Q43"
      }
    },
    {
      "type": "Feature",
      "geometry": {
        "type": "Point",
        "coordinates": [
          27.7685666,
          40.3081508
        ]
      },
      "properties": {
        "label": "Bandırma gas power plant",
        "type": "power plant",
        "entity": "http://www.wikidata.org/entity/Q106670839",
        "country_qid": "Q43"
      }
    },
    {
      "type": "Feature",
      "geometry": {
        "type": "Point",
        "coordinates": [
          26.45,
          38.233333333
        ]
      },
      "properties": {
        "label": "Alaçatı Wind Farm",
        "type": "power plant",
        "entity": "http://www.wikidata.org/entity/Q121242749",
        "country_qid": "Q43"
      }
    },
    {
      "type": "Feature",
      "geometry": {
        "type": "Point",
        "coordinates": [
          33.518333333,
          36.513888888
        ]
      },
      "properties": {
        "label": "Kayraktepe Dam",
        "type": "power plant",
        "entity": "http://www.wikidata.org/entity/Q985220",
        "country_qid": "Q43"
      }
    },
    {
      "type": "Feature",
      "geometry": {
        "type": "Point",
        "coordinates": [
          27.44474,
          39.96984
        ]
      },
      "properties": {
        "label": "Gönen Dam",
        "type": "power plant",
        "entity": "http://www.wikidata.org/entity/Q1090408",
        "country_qid": "Q43"
      }
    },
    {
      "type": "Feature",
      "geometry": {
        "type": "Point",
        "coordinates": [
          28.6679596,
          41.0650309
        ]
      },
      "properties": {
        "label": "Esenyurt power plant",
        "type": "power plant",
        "entity": "http://www.wikidata.org/entity/Q106769930",
        "country_qid": "Q43"
      }
    },
    {
      "type": "Feature",
      "geometry": {
        "type": "Point",
        "coordinates": [
          27.8843093,
          39.9246796
        ]
      },
      "properties": {
        "label": "Şamlı Wind Farm",
        "type": "power plant",
        "entity": "http://www.wikidata.org/entity/Q8082415",
        "country_qid": "Q43"
      }
    },
    {
      "type": "Feature",
      "geometry": {
        "type": "Point",
        "coordinates": [
          36.64638,
          40.93615
        ]
      },
      "properties": {
        "label": "Hasan Uğurlu Dam",
        "type": "power plant",
        "entity": "http://www.wikidata.org/entity/Q1588084",
        "country_qid": "Q43"
      }
    },
    {
      "type": "Feature",
      "geometry": {
        "type": "Point",
        "coordinates": [
          27.9792649,
          40.9976258
        ]
      },
      "properties": {
        "label": "Tekirdağ gas power plant B",
        "type": "power plant",
        "entity": "http://www.wikidata.org/entity/Q19381100",
        "country_qid": "Q43"
      }
    },
    {
      "type": "Feature",
      "geometry": {
        "type": "Point",
        "coordinates": [
          35.2827,
          37.1984
        ]
      },
      "properties": {
        "label": "Çatalan Dam",
        "type": "power plant",
        "entity": "http://www.wikidata.org/entity/Q1090270",
        "country_qid": "Q43"
      }
    },
    {
      "type": "Feature",
      "geometry": {
        "type": "Point",
        "coordinates": [
          35.54972,
          40.04363
        ]
      },
      "properties": {
        "label": "Süreyyabey Dam",
        "type": "power plant",
        "entity": "http://www.wikidata.org/entity/Q7666764",
        "country_qid": "Q43"
      }
    },
    {
      "type": "Feature",
      "geometry": {
        "type": "Point",
        "coordinates": [
          27.191944444,
          41.778055555
        ]
      },
      "properties": {
        "label": "Kirklareli gas power plant",
        "type": "power plant",
        "entity": "http://www.wikidata.org/entity/Q19377221",
        "country_qid": "Q43"
      }
    },
    {
      "type": "Feature",
      "geometry": {
        "type": "Point",
        "coordinates": [
          33.4082329,
          39.8847713
        ]
      },
      "properties": {
        "label": "Acwa Power Kırıkkale gas power plant",
        "type": "power plant",
        "entity": "http://www.wikidata.org/entity/Q106671514",
        "country_qid": "Q43"
      }
    },
    {
      "type": "Feature",
      "geometry": {
        "type": "Point",
        "coordinates": [
          38.3175,
          37.481666666
        ]
      },
      "properties": {
        "label": "Atatürk Dam",
        "type": "power plant",
        "entity": "http://www.wikidata.org/entity/Q753776",
        "country_qid": "Q43"
      }
    },
    {
      "type": "Feature",
      "geometry": {
        "type": "Point",
        "coordinates": [
          31.51809,
          36.83473
        ]
      },
      "properties": {
        "label": "Manavgat Dam",
        "type": "power plant",
        "entity": "http://www.wikidata.org/entity/Q1569719",
        "country_qid": "Q43"
      }
    },
    {
      "type": "Feature",
      "geometry": {
        "type": "Point",
        "coordinates": [
          39.12786,
          40.68178
        ]
      },
      "properties": {
        "label": "Kürtün Dam",
        "type": "power plant",
        "entity": "http://www.wikidata.org/entity/Q6454185",
        "country_qid": "Q43"
      }
    },
    {
      "type": "Feature",
      "geometry": {
        "type": "Point",
        "coordinates": [
          36.90347,
          40.40797
        ]
      },
      "properties": {
        "label": "Almus Dam",
        "type": "power plant",
        "entity": "http://www.wikidata.org/entity/Q1089548",
        "country_qid": "Q43"
      }
    },
    {
      "type": "Feature",
      "geometry": {
        "type": "Point",
        "coordinates": [
          36.98,
          38.3525
        ]
      },
      "properties": {
        "label": "Afşin-Elbistan B power station",
        "type": "power plant",
        "entity": "http://www.wikidata.org/entity/Q6101862",
        "country_qid": "Q43"
      }
    },
    {
      "type": "Feature",
      "geometry": {
        "type": "Point",
        "coordinates": [
          36.60971,
          37.17988
        ]
      },
      "properties": {
        "label": "Bahçe Wind Farm",
        "type": "power plant",
        "entity": "http://www.wikidata.org/entity/Q4843079",
        "country_qid": "Q43"
      }
    },
    {
      "type": "Feature",
      "geometry": {
        "type": "Point",
        "coordinates": [
          35.61363056,
          37.6202
        ]
      },
      "properties": {
        "label": "Köprü Dam",
        "type": "power plant",
        "entity": "http://www.wikidata.org/entity/Q6453938",
        "country_qid": "Q43"
      }
    },
    {
      "type": "Feature",
      "geometry": {
        "type": "Point",
        "coordinates": [
          41.644722222,
          40.816111111
        ]
      },
      "properties": {
        "label": "Yusufeli Dam",
        "type": "power plant",
        "entity": "http://www.wikidata.org/entity/Q8062008",
        "country_qid": "Q43"
      }
    },
    {
      "type": "Feature",
      "geometry": {
        "type": "Point",
        "coordinates": [
          35.4453,
          37.4015
        ]
      },
      "properties": {
        "label": "Yedigöze Dam",
        "type": "power plant",
        "entity": "http://www.wikidata.org/entity/Q6049583",
        "country_qid": "Q43"
      }
    },
    {
      "type": "Feature",
      "geometry": {
        "type": "Point",
        "coordinates": [
          33.5187,
          39.27281
        ]
      },
      "properties": {
        "label": "Hirfanlı Dam",
        "type": "power plant",
        "entity": "http://www.wikidata.org/entity/Q2260764",
        "country_qid": "Q43"
      }
    },
    {
      "type": "Feature",
      "geometry": {
        "type": "Point",
        "coordinates": [
          33.42092,
          39.3956
        ]
      },
      "properties": {
        "label": "Kesikköprü Dam",
        "type": "power plant",
        "entity": "http://www.wikidata.org/entity/Q1089366",
        "country_qid": "Q43"
      }
    },
    {
      "type": "Feature",
      "geometry": {
        "type": "Point",
        "coordinates": [
          34.65905556,
          41.10633333
        ]
      },
      "properties": {
        "label": "Q65213056",
        "type": "power plant",
        "entity": "http://www.wikidata.org/entity/Q65213056",
        "country_qid": "Q43"
      }
    },
    {
      "type": "Feature",
      "geometry": {
        "type": "Point",
        "coordinates": [
          39.81689167,
          38.86307222
        ]
      },
      "properties": {
        "label": "Tatar Dam",
        "type": "power plant",
        "entity": "http://www.wikidata.org/entity/Q23763135",
        "country_qid": "Q43"
      }
    },
    {
      "type": "Feature",
      "geometry": {
        "type": "Point",
        "coordinates": [
          27.4633,
          37.8556
        ]
      },
      "properties": {
        "label": "Gümüşköy Geothermal Power Plant",
        "type": "power plant",
        "entity": "http://www.wikidata.org/entity/Q16060094",
        "country_qid": "Q43"
      }
    },
    {
      "type": "Feature",
      "geometry": {
        "type": "Point",
        "coordinates": [
          36.9693519,
          37.932876
        ]
      },
      "properties": {
        "label": "Sarıgüzel hydro power plant",
        "type": "power plant",
        "entity": "http://www.wikidata.org/entity/Q84761358",
        "country_qid": "Q43"
      }
    },
    {
      "type": "Feature",
      "geometry": {
        "type": "Point",
        "coordinates": [
          28.815,
          41.225
        ]
      },
      "properties": {
        "label": "Istanbul Waste Power Plant",
        "type": "power plant",
        "entity": "http://www.wikidata.org/entity/Q109975092",
        "country_qid": "Q43"
      }
    },
    {
      "type": "Feature",
      "geometry": {
        "type": "Point",
        "coordinates": [
          39.89466667,
          39.08386111
        ]
      },
      "properties": {
        "label": "Pembelik Dam",
        "type": "power plant",
        "entity": "http://www.wikidata.org/entity/Q23763134",
        "country_qid": "Q43"
      }
    },
    {
      "type": "Feature",
      "geometry": {
        "type": "Point",
        "coordinates": [
          29.1,
          40.033333333
        ]
      },
      "properties": {
        "label": "Egemen HES",
        "type": "power plant",
        "entity": "http://www.wikidata.org/entity/Q48838248",
        "country_qid": "Q43"
      }
    },
    {
      "type": "Feature",
      "geometry": {
        "type": "Point",
        "coordinates": [
          35.529775,
          37.56458611
        ]
      },
      "properties": {
        "label": "Kavşak Bendi Dam",
        "type": "power plant",
        "entity": "http://www.wikidata.org/entity/Q15234764",
        "country_qid": "Q43"
      }
    },
    {
      "type": "Feature",
      "geometry": {
        "type": "Point",
        "coordinates": [
          35.125871,
          37.363777
        ]
      },
      "properties": {
        "label": "Q19287571",
        "type": "power plant",
        "entity": "http://www.wikidata.org/entity/Q19287571",
        "country_qid": "Q43"
      }
    },
    {
      "type": "Feature",
      "geometry": {
        "type": "Point",
        "coordinates": [
          42.95711111,
          41.16783333
        ]
      },
      "properties": {
        "label": "Q65214289",
        "type": "power plant",
        "entity": "http://www.wikidata.org/entity/Q65214289",
        "country_qid": "Q43"
      }
    },
    {
      "type": "Feature",
      "geometry": {
        "type": "Point",
        "coordinates": [
          38.170615,
          37.468466
        ]
      },
      "properties": {
        "label": "Burç Bendi Dam",
        "type": "power plant",
        "entity": "http://www.wikidata.org/entity/Q19276220",
        "country_qid": "Q43"
      }
    },
    {
      "type": "Feature",
      "geometry": {
        "type": "Point",
        "coordinates": [
          38.81652778,
          37.18683333
        ]
      },
      "properties": {
        "label": "Q65212858",
        "type": "power plant",
        "entity": "http://www.wikidata.org/entity/Q65212858",
        "country_qid": "Q43"
      }
    },
    {
      "type": "Feature",
      "geometry": {
        "type": "Point",
        "coordinates": [
          31.21777778,
          37.38686111
        ]
      },
      "properties": {
        "label": "Kasımlar hydro power plant",
        "type": "power plant",
        "entity": "http://www.wikidata.org/entity/Q65212854",
        "country_qid": "Q43"
      }
    },
    {
      "type": "Feature",
      "geometry": {
        "type": "Point",
        "coordinates": [
          40.6074,
          40.3945
        ]
      },
      "properties": {
        "label": "Laleli Dam",
        "type": "power plant",
        "entity": "http://www.wikidata.org/entity/Q16893932",
        "country_qid": "Q43"
      }
    },
    {
      "type": "Feature",
      "geometry": {
        "type": "Point",
        "coordinates": [
          40.37289167,
          39.27641389
        ]
      },
      "properties": {
        "label": "Yedisu Dam",
        "type": "power plant",
        "entity": "http://www.wikidata.org/entity/Q24037489",
        "country_qid": "Q43"
      }
    },
    {
      "type": "Feature",
      "geometry": {
        "type": "Point",
        "coordinates": [
          35.57813889,
          37.62311111
        ]
      },
      "properties": {
        "label": "Göktaş 2 hydro power plant",
        "type": "power plant",
        "entity": "http://www.wikidata.org/entity/Q65214312",
        "country_qid": "Q43"
      }
    },
    {
      "type": "Feature",
      "geometry": {
        "type": "Point",
        "coordinates": [
          32.776666666,
          36.303888888
        ]
      },
      "properties": {
        "label": "Otluca HES",
        "type": "power plant",
        "entity": "http://www.wikidata.org/entity/Q48837796",
        "country_qid": "Q43"
      }
    },
    {
      "type": "Feature",
      "geometry": {
        "type": "Point",
        "coordinates": [
          31.41352778,
          40.05222222
        ]
      },
      "properties": {
        "label": "Sarıyar Hasan Polatkan Power Plant",
        "type": "power plant",
        "entity": "http://www.wikidata.org/entity/Q65213074",
        "country_qid": "Q43"
      }
    },
    {
      "type": "Feature",
      "geometry": {
        "type": "Point",
        "coordinates": [
          33.05797222,
          36.57636111
        ]
      },
      "properties": {
        "label": "Q65212853",
        "type": "power plant",
        "entity": "http://www.wikidata.org/entity/Q65212853",
        "country_qid": "Q43"
      }
    },
    {
      "type": "Feature",
      "geometry": {
        "type": "Point",
        "coordinates": [
          35.52055556,
          37.393
        ]
      },
      "properties": {
        "label": "Q65214318",
        "type": "power plant",
        "entity": "http://www.wikidata.org/entity/Q65214318",
        "country_qid": "Q43"
      }
    },
    {
      "type": "Feature",
      "geometry": {
        "type": "Point",
        "coordinates": [
          38.87904,
          40.64498
        ]
      },
      "properties": {
        "label": "Q20473685",
        "type": "power plant",
        "entity": "http://www.wikidata.org/entity/Q20473685",
        "country_qid": "Q43"
      }
    },
    {
      "type": "Feature",
      "geometry": {
        "type": "Point",
        "coordinates": [
          33.443333333,
          36.720277777
        ]
      },
      "properties": {
        "label": "Birkapılı HES",
        "type": "power plant",
        "entity": "http://www.wikidata.org/entity/Q48837510",
        "country_qid": "Q43"
      }
    },
    {
      "type": "Feature",
      "geometry": {
        "type": "Point",
        "coordinates": [
          37.79547222,
          40.65472222
        ]
      },
      "properties": {
        "label": "Topçam hydro power plant",
        "type": "power plant",
        "entity": "http://www.wikidata.org/entity/Q65213065",
        "country_qid": "Q43"
      }
    },
    {
      "type": "Feature",
      "geometry": {
        "type": "Point",
        "coordinates": [
          36.70055556,
          40.65986111
        ]
      },
      "properties": {
        "label": "Q65213064",
        "type": "power plant",
        "entity": "http://www.wikidata.org/entity/Q65213064",
        "country_qid": "Q43"
      }
    },
    {
      "type": "Feature",
      "geometry": {
        "type": "Point",
        "coordinates": [
          35.729113888,
          41.362563888
        ]
      },
      "properties": {
        "label": "Altinkaya Hydroelectric Power Plant",
        "type": "power plant",
        "entity": "http://www.wikidata.org/entity/Q106525757",
        "country_qid": "Q43"
      }
    },
    {
      "type": "Feature",
      "geometry": {
        "type": "Point",
        "coordinates": [
          34.883333333,
          35.933333333
        ]
      },
      "properties": {
        "label": "Historical Tarsus hydroelectric power plant",
        "type": "power plant",
        "entity": "http://www.wikidata.org/entity/Q28220914",
        "country_qid": "Q43"
      }
    },
    {
      "type": "Feature",
      "geometry": {
        "type": "Point",
        "coordinates": [
          36.92705556,
          40.494
        ]
      },
      "properties": {
        "label": "Q65213059",
        "type": "power plant",
        "entity": "http://www.wikidata.org/entity/Q65213059",
        "country_qid": "Q43"
      }
    },
    {
      "type": "Feature",
      "geometry": {
        "type": "Point",
        "coordinates": [
          35.864971,
          37.744674
        ]
      },
      "properties": {
        "label": "Feke-2 dam",
        "type": "power plant",
        "entity": "http://www.wikidata.org/entity/Q19279516",
        "country_qid": "Q43"
      }
    },
    {
      "type": "Feature",
      "geometry": {
        "type": "Point",
        "coordinates": [
          30.96413,
          41.00445
        ]
      },
      "properties": {
        "label": "Q20472105",
        "type": "power plant",
        "entity": "http://www.wikidata.org/entity/Q20472105",
        "country_qid": "Q43"
      }
    },
    {
      "type": "Feature",
      "geometry": {
        "type": "Point",
        "coordinates": [
          41.83436111,
          40.755
        ]
      },
      "properties": {
        "label": "Ayvalı hydro power plant",
        "type": "power plant",
        "entity": "http://www.wikidata.org/entity/Q65213066",
        "country_qid": "Q43"
      }
    },
    {
      "type": "Feature",
      "geometry": {
        "type": "Point",
        "coordinates": [
          38.8465,
          40.91025
        ]
      },
      "properties": {
        "label": "Q65213044",
        "type": "power plant",
        "entity": "http://www.wikidata.org/entity/Q65213044",
        "country_qid": "Q43"
      }
    },
    {
      "type": "Feature",
      "geometry": {
        "type": "Point",
        "coordinates": [
          39.11211111,
          40.63366667
        ]
      },
      "properties": {
        "label": "Q65213048",
        "type": "power plant",
        "entity": "http://www.wikidata.org/entity/Q65213048",
        "country_qid": "Q43"
      }
    },
    {
      "type": "Feature",
      "geometry": {
        "type": "Point",
        "coordinates": [
          36.15166667,
          37.88111111
        ]
      },
      "properties": {
        "label": "Yamanlı II hydro power plant",
        "type": "power plant",
        "entity": "http://www.wikidata.org/entity/Q65214327",
        "country_qid": "Q43"
      }
    },
    {
      "type": "Feature",
      "geometry": {
        "type": "Point",
        "coordinates": [
          40.76625,
          40.90180556
        ]
      },
      "properties": {
        "label": "Q65213076",
        "type": "power plant",
        "entity": "http://www.wikidata.org/entity/Q65213076",
        "country_qid": "Q43"
      }
    },
    {
      "type": "Feature",
      "geometry": {
        "type": "Point",
        "coordinates": [
          33.27383333,
          36.56166667
        ]
      },
      "properties": {
        "label": "Gezende hydro power plant",
        "type": "power plant",
        "entity": "http://www.wikidata.org/entity/Q65212851",
        "country_qid": "Q43"
      }
    },
    {
      "type": "Feature",
      "geometry": {
        "type": "Point",
        "coordinates": [
          34.839972222,
          37.032194444
        ]
      },
      "properties": {
        "label": "Kadıncık 2 hydroelectric power plant",
        "type": "power plant",
        "entity": "http://www.wikidata.org/entity/Q28220810",
        "country_qid": "Q43"
      }
    },
    {
      "type": "Feature",
      "geometry": {
        "type": "Point",
        "coordinates": [
          40.37183333,
          39.29869444
        ]
      },
      "properties": {
        "label": "Kiğı hydro power plant",
        "type": "power plant",
        "entity": "http://www.wikidata.org/entity/Q65212843",
        "country_qid": "Q43"
      }
    },
    {
      "type": "Feature",
      "geometry": {
        "type": "Point",
        "coordinates": [
          38.46691667,
          40.26830556
        ]
      },
      "properties": {
        "label": "Burçak hydro power plant",
        "type": "power plant",
        "entity": "http://www.wikidata.org/entity/Q65213047",
        "country_qid": "Q43"
      }
    },
    {
      "type": "Feature",
      "geometry": {
        "type": "Point",
        "coordinates": [
          41.0425,
          38.81381
        ]
      },
      "properties": {
        "label": "Upper Kaleköy Dam",
        "type": "power plant",
        "entity": "http://www.wikidata.org/entity/Q24914326",
        "country_qid": "Q43"
      }
    },
    {
      "type": "Feature",
      "geometry": {
        "type": "Point",
        "coordinates": [
          40.47533333,
          40.84452778
        ]
      },
      "properties": {
        "label": "Q65213049",
        "type": "power plant",
        "entity": "http://www.wikidata.org/entity/Q65213049",
        "country_qid": "Q43"
      }
    },
    {
      "type": "Feature",
      "geometry": {
        "type": "Point",
        "coordinates": [
          28.29055556,
          38.60280556
        ]
      },
      "properties": {
        "label": "Demirköprü Power Plant",
        "type": "power plant",
        "entity": "http://www.wikidata.org/entity/Q65213053",
        "country_qid": "Q43"
      }
    },
    {
      "type": "Feature",
      "geometry": {
        "type": "Point",
        "coordinates": [
          42.64825,
          37.96497222
        ]
      },
      "properties": {
        "label": "Q65214291",
        "type": "power plant",
        "entity": "http://www.wikidata.org/entity/Q65214291",
        "country_qid": "Q43"
      }
    },
    {
      "type": "Feature",
      "geometry": {
        "type": "Point",
        "coordinates": [
          39.891897,
          39.021106
        ]
      },
      "properties": {
        "label": "Seyrantepe Dam",
        "type": "power plant",
        "entity": "http://www.wikidata.org/entity/Q19309070",
        "country_qid": "Q43"
      }
    },
    {
      "type": "Feature",
      "geometry": {
        "type": "Point",
        "coordinates": [
          35.49386111,
          37.92105556
        ]
      },
      "properties": {
        "label": "Q65214314",
        "type": "power plant",
        "entity": "http://www.wikidata.org/entity/Q65214314",
        "country_qid": "Q43"
      }
    },
    {
      "type": "Feature",
      "geometry": {
        "type": "Point",
        "coordinates": [
          34.60911,
          37.115417
        ]
      },
      "properties": {
        "label": "Pamuk hydro power plant",
        "type": "power plant",
        "entity": "http://www.wikidata.org/entity/Q19311375",
        "country_qid": "Q43"
      }
    },
    {
      "type": "Feature",
      "geometry": {
        "type": "Point",
        "coordinates": [
          41.0455,
          40.54294444
        ]
      },
      "properties": {
        "label": "Güllübağ hydro power plant",
        "type": "power plant",
        "entity": "http://www.wikidata.org/entity/Q65214313",
        "country_qid": "Q43"
      }
    },
    {
      "type": "Feature",
      "geometry": {
        "type": "Point",
        "coordinates": [
          28.5753858,
          39.8755748
        ]
      },
      "properties": {
        "label": "Devecikonağı Dam",
        "type": "power plant",
        "entity": "http://www.wikidata.org/entity/Q16835121",
        "country_qid": "Q43"
      }
    },
    {
      "type": "Feature",
      "geometry": {
        "type": "Point",
        "coordinates": [
          41.15685833,
          40.60152778
        ]
      },
      "properties": {
        "label": "Aksu Dam",
        "type": "power plant",
        "entity": "http://www.wikidata.org/entity/Q15178781",
        "country_qid": "Q43"
      }
    },
    {
      "type": "Feature",
      "geometry": {
        "type": "Point",
        "coordinates": [
          39.18583333,
          40.64425
        ]
      },
      "properties": {
        "label": "Torul hydro power plant",
        "type": "power plant",
        "entity": "http://www.wikidata.org/entity/Q65213075",
        "country_qid": "Q43"
      }
    },
    {
      "type": "Feature",
      "geometry": {
        "type": "Point",
        "coordinates": [
          30.83005556,
          37.60052778
        ]
      },
      "properties": {
        "label": "Q65212855",
        "type": "power plant",
        "entity": "http://www.wikidata.org/entity/Q65212855",
        "country_qid": "Q43"
      }
    },
    {
      "type": "Feature",
      "geometry": {
        "type": "Point",
        "coordinates": [
          36.25322222,
          37.22433333
        ]
      },
      "properties": {
        "label": "Q84761412",
        "type": "power plant",
        "entity": "http://www.wikidata.org/entity/Q84761412",
        "country_qid": "Q43"
      }
    },
    {
      "type": "Feature",
      "geometry": {
        "type": "Point",
        "coordinates": [
          37.86286111,
          40.72111111
        ]
      },
      "properties": {
        "label": "Q65213051",
        "type": "power plant",
        "entity": "http://www.wikidata.org/entity/Q65213051",
        "country_qid": "Q43"
      }
    },
    {
      "type": "Feature",
      "geometry": {
        "type": "Point",
        "coordinates": [
          41.28919167,
          40.67618056
        ]
      },
      "properties": {
        "label": "Arkun Dam",
        "type": "power plant",
        "entity": "http://www.wikidata.org/entity/Q15188545",
        "country_qid": "Q43"
      }
    },
    {
      "type": "Feature",
      "geometry": {
        "type": "Point",
        "coordinates": [
          41.52038,
          39.0354
        ]
      },
      "properties": {
        "label": "Alpaslan-2 Dam",
        "type": "power plant",
        "entity": "http://www.wikidata.org/entity/Q15179528",
        "country_qid": "Q43"
      }
    },
    {
      "type": "Feature",
      "geometry": {
        "type": "Point",
        "coordinates": [
          37.85883333,
          40.71413889
        ]
      },
      "properties": {
        "label": "Q65213052",
        "type": "power plant",
        "entity": "http://www.wikidata.org/entity/Q65213052",
        "country_qid": "Q43"
      }
    },
    {
      "type": "Feature",
      "geometry": {
        "type": "Point",
        "coordinates": [
          37.7825,
          40.29069444
        ]
      },
      "properties": {
        "label": "Q65213057",
        "type": "power plant",
        "entity": "http://www.wikidata.org/entity/Q65213057",
        "country_qid": "Q43"
      }
    },
    {
      "type": "Feature",
      "geometry": {
        "type": "Point",
        "coordinates": [
          38.91566667,
          40.80388889
        ]
      },
      "properties": {
        "label": "Q65213069",
        "type": "power plant",
        "entity": "http://www.wikidata.org/entity/Q65213069",
        "country_qid": "Q43"
      }
    },
    {
      "type": "Feature",
      "geometry": {
        "type": "Point",
        "coordinates": [
          37.0224345,
          37.9755045
        ]
      },
      "properties": {
        "label": "Kandil Power plant",
        "type": "power plant",
        "entity": "http://www.wikidata.org/entity/Q84761375",
        "country_qid": "Q43"
      }
    },
    {
      "type": "Feature",
      "geometry": {
        "type": "Point",
        "coordinates": [
          38.96866667,
          40.74533333
        ]
      },
      "properties": {
        "label": "Q65213040",
        "type": "power plant",
        "entity": "http://www.wikidata.org/entity/Q65213040",
        "country_qid": "Q43"
      }
    },
    {
      "type": "Feature",
      "geometry": {
        "type": "Point",
        "coordinates": [
          38.96866667,
          40.74533333
        ]
      },
      "properties": {
        "label": "Q65213041",
        "type": "power plant",
        "entity": "http://www.wikidata.org/entity/Q65213041",
        "country_qid": "Q43"
      }
    },
    {
      "type": "Feature",
      "geometry": {
        "type": "Point",
        "coordinates": [
          32.62836111,
          36.56147222
        ]
      },
      "properties": {
        "label": "Daran hydro power plant",
        "type": "power plant",
        "entity": "http://www.wikidata.org/entity/Q65212852",
        "country_qid": "Q43"
      }
    },
    {
      "type": "Feature",
      "geometry": {
        "type": "Point",
        "coordinates": [
          40.70988,
          38.83133
        ]
      },
      "properties": {
        "label": "Lower Kaleköy Dam",
        "type": "power plant",
        "entity": "http://www.wikidata.org/entity/Q28220562",
        "country_qid": "Q43"
      }
    },
    {
      "type": "Feature",
      "geometry": {
        "type": "Point",
        "coordinates": [
          37.81972222,
          40.84111111
        ]
      },
      "properties": {
        "label": "Q65213058",
        "type": "power plant",
        "entity": "http://www.wikidata.org/entity/Q65213058",
        "country_qid": "Q43"
      }
    },
    {
      "type": "Feature",
      "geometry": {
        "type": "Point",
        "coordinates": [
          37.47816667,
          40.34827778
        ]
      },
      "properties": {
        "label": "Reşadiye hydro power plant",
        "type": "power plant",
        "entity": "http://www.wikidata.org/entity/Q65213073",
        "country_qid": "Q43"
      }
    },
    {
      "type": "Feature",
      "geometry": {
        "type": "Point",
        "coordinates": [
          29.4017422,
          36.7679649
        ]
      },
      "properties": {
        "label": "Q61077756",
        "type": "power plant",
        "entity": "http://www.wikidata.org/entity/Q61077756",
        "country_qid": "Q43"
      }
    },
    {
      "type": "Feature",
      "geometry": {
        "type": "Point",
        "coordinates": [
          37.117,
          40.44002778
        ]
      },
      "properties": {
        "label": "Q65213043",
        "type": "power plant",
        "entity": "http://www.wikidata.org/entity/Q65213043",
        "country_qid": "Q43"
      }
    },
    {
      "type": "Feature",
      "geometry": {
        "type": "Point",
        "coordinates": [
          43.10352778,
          41.22363889
        ]
      },
      "properties": {
        "label": "Q65214286",
        "type": "power plant",
        "entity": "http://www.wikidata.org/entity/Q65214286",
        "country_qid": "Q43"
      }
    },
    {
      "type": "Feature",
      "geometry": {
        "type": "Point",
        "coordinates": [
          34.78794,
          37.08483
        ]
      },
      "properties": {
        "label": "Kadıncık 1 hydroelectric power plant",
        "type": "power plant",
        "entity": "http://www.wikidata.org/entity/Q28220806",
        "country_qid": "Q43"
      }
    },
    {
      "type": "Feature",
      "geometry": {
        "type": "Point",
        "coordinates": [
          34.99991667,
          37.28097222
        ]
      },
      "properties": {
        "label": "Q65214325",
        "type": "power plant",
        "entity": "http://www.wikidata.org/entity/Q65214325",
        "country_qid": "Q43"
      }
    },
    {
      "type": "Feature",
      "geometry": {
        "type": "Point",
        "coordinates": [
          28.8431,
          37.95
        ]
      },
      "properties": {
        "label": "Kızıldere Geothermal Power Plant",
        "type": "power plant",
        "entity": "http://www.wikidata.org/entity/Q16893510",
        "country_qid": "Q43"
      }
    },
    {
      "type": "Feature",
      "geometry": {
        "type": "Point",
        "coordinates": [
          35.723493,
          37.704855
        ]
      },
      "properties": {
        "label": "Menge Dam",
        "type": "power plant",
        "entity": "http://www.wikidata.org/entity/Q19296210",
        "country_qid": "Q43"
      }
    },
    {
      "type": "Feature",
      "geometry": {
        "type": "Point",
        "coordinates": [
          41.76922,
          40.9324
        ]
      },
      "properties": {
        "label": "Artvin Dam",
        "type": "power plant",
        "entity": "http://www.wikidata.org/entity/Q15191796",
        "country_qid": "Q43"
      }
    },
    {
      "type": "Feature",
      "geometry": {
        "type": "Point",
        "coordinates": [
          29.50082,
          36.83456
        ]
      },
      "properties": {
        "label": "Q20472019",
        "type": "power plant",
        "entity": "http://www.wikidata.org/entity/Q20472019",
        "country_qid": "Q43"
      }
    },
    {
      "type": "Feature",
      "geometry": {
        "type": "Point",
        "coordinates": [
          36.9645944,
          37.8919814
        ]
      },
      "properties": {
        "label": "Hacınınoğlu hydro power plant",
        "type": "power plant",
        "entity": "http://www.wikidata.org/entity/Q84761392",
        "country_qid": "Q43"
      }
    },
    {
      "type": "Feature",
      "geometry": {
        "type": "Point",
        "coordinates": [
          38.52294722,
          39.44931667
        ]
      },
      "properties": {
        "label": "Bağıştaş 1 Dam",
        "type": "power plant",
        "entity": "http://www.wikidata.org/entity/Q23763131",
        "country_qid": "Q43"
      }
    },
    {
      "type": "Feature",
      "geometry": {
        "type": "Point",
        "coordinates": [
          28.72383333,
          40.15308333
        ]
      },
      "properties": {
        "label": "Uluabat hydro power plant",
        "type": "power plant",
        "entity": "http://www.wikidata.org/entity/Q65213077",
        "country_qid": "Q43"
      }
    },
    {
      "type": "Feature",
      "geometry": {
        "type": "Point",
        "coordinates": [
          40.13577222,
          38.75193333
        ]
      },
      "properties": {
        "label": "Beyhan I Dam",
        "type": "power plant",
        "entity": "http://www.wikidata.org/entity/Q23763125",
        "country_qid": "Q43"
      }
    },
    {
      "type": "Feature",
      "geometry": {
        "type": "Point",
        "coordinates": [
          35.47313889,
          37.72558333
        ]
      },
      "properties": {
        "label": "Göktaş 1 hydro power plant",
        "type": "power plant",
        "entity": "http://www.wikidata.org/entity/Q65214311",
        "country_qid": "Q43"
      }
    },
    {
      "type": "Feature",
      "geometry": {
        "type": "Point",
        "coordinates": [
          39.90327778,
          40.66886111
        ]
      },
      "properties": {
        "label": "Q65213042",
        "type": "power plant",
        "entity": "http://www.wikidata.org/entity/Q65213042",
        "country_qid": "Q43"
      }
    },
    {
      "type": "Feature",
      "geometry": {
        "type": "Point",
        "coordinates": [
          42.06083333,
          37.92277778
        ]
      },
      "properties": {
        "label": "Kirazlık Dam",
        "type": "power plant",
        "entity": "http://www.wikidata.org/entity/Q15238573",
        "country_qid": "Q43"
      }
    },
    {
      "type": "Feature",
      "geometry": {
        "type": "Point",
        "coordinates": [
          43.02411111,
          41.16325
        ]
      },
      "properties": {
        "label": "Kotanlı 2 Hydroelectric Power Plant",
        "type": "power plant",
        "entity": "http://www.wikidata.org/entity/Q65214290",
        "country_qid": "Q43"
      }
    }
  ]
}