{
  "type": "FeatureCollection",
  "features": [
    {
      "type": "Feature",
      "geometry": {
        "type": "Point",
        "coordinates": [
          117.330252054,
          -35.033432243
        ]
      },
      "properties": {
        "label": "DCWL DENMARK WF1",
        "type": "Wind farm",
        "entity": "http://www.wikidata.org/entity/Q125446829",
        "country_qid": "Q408"
      }
    },
    {
      "type": "Feature",
      "geometry": {
        "type": "Point",
        "coordinates": [
          145.177861572,
          -34.844710185
        ]
      },
      "properties": {
        "label": "Bullawah Wind Farm",
        "type": "Wind farm",
        "entity": "http://www.wikidata.org/entity/Q134211071",
        "country_qid": "Q408"
      }
    },
    {
      "type": "Feature",
      "geometry": {
        "type": "Point",
        "coordinates": [
          149.393424,
          -34.840682
        ]
      },
      "properties": {
        "label": "Collector Wind Farm",
        "type": "Wind farm",
        "entity": "http://www.wikidata.org/entity/Q131057326",
        "country_qid": "Q408"
      }
    },
    {
      "type": "Feature",
      "geometry": {
        "type": "Point",
        "coordinates": [
          117.006,
          -32.976
        ]
      },
      "properties": {
        "label": "Narrogin wind farm",
        "type": "Wind farm",
        "entity": "http://www.wikidata.org/entity/Q130389041",
        "country_qid": "Q408"
      }
    },
    {
      "type": "Feature",
      "geometry": {
        "type": "Point",
        "coordinates": [
          115.3705,
          -30.5106
        ]
      },
      "properties": {
        "label": "Parron Wind Farm",
        "type": "Wind farm",
        "entity": "http://www.wikidata.org/entity/Q134951833",
        "country_qid": "Q408"
      }
    },
    {
      "type": "Feature",
      "geometry": {
        "type": "Point",
        "coordinates": [
          141.754166666,
          -36.400277777
        ]
      },
      "properties": {
        "label": "Kiata Wind Farm",
        "type": "Wind farm",
        "entity": "http://www.wikidata.org/entity/Q55392046",
        "country_qid": "Q408"
      }
    },
    {
      "type": "Feature",
      "geometry": {
        "type": "Point",
        "coordinates": [
          151.41,
          -29.7
        ]
      },
      "properties": {
        "label": "Sapphire Wind Farm",
        "type": "Wind farm",
        "entity": "http://www.wikidata.org/entity/Q67446408",
        "country_qid": "Q408"
      }
    },
    {
      "type": "Feature",
      "geometry": {
        "type": "Point",
        "coordinates": [
          115.533972004,
          -29.932554991
        ]
      },
      "properties": {
        "label": "Warradarge Wind Farm",
        "type": "Wind farm",
        "entity": "http://www.wikidata.org/entity/Q125421457",
        "country_qid": "Q408"
      }
    },
    {
      "type": "Feature",
      "geometry": {
        "type": "Point",
        "coordinates": [
          115.5156,
          -30.5778
        ]
      },
      "properties": {
        "label": "Waddi Wind Farm",
        "type": "Wind farm",
        "entity": "http://www.wikidata.org/entity/Q130476512",
        "country_qid": "Q408"
      }
    },
    {
      "type": "Feature",
      "geometry": {
        "type": "Point",
        "coordinates": [
          150.285,
          -23.66
        ]
      },
      "properties": {
        "label": "Boulder Creek Wind Project",
        "type": "Wind farm",
        "entity": "http://www.wikidata.org/entity/Q130719949",
        "country_qid": "Q408"
      }
    },
    {
      "type": "Feature",
      "geometry": {
        "type": "Point",
        "coordinates": [
          119.391559868,
          -34.39882481
        ]
      },
      "properties": {
        "label": "BREMER BAY WF1",
        "type": "Wind farm",
        "entity": "http://www.wikidata.org/entity/Q125498522",
        "country_qid": "Q408"
      }
    },
    {
      "type": "Feature",
      "geometry": {
        "type": "Point",
        "coordinates": [
          143.4116193,
          -37.967607
        ]
      },
      "properties": {
        "label": "Berrybank wind farm",
        "type": "Wind farm",
        "entity": "http://www.wikidata.org/entity/Q128880934",
        "country_qid": "Q408"
      }
    },
    {
      "type": "Feature",
      "geometry": {
        "type": "Point",
        "coordinates": [
          116.5,
          -33.3333
        ]
      },
      "properties": {
        "label": "Bellwether Wind Farm",
        "type": "Wind farm",
        "entity": "http://www.wikidata.org/entity/Q130720051",
        "country_qid": "Q408"
      }
    },
    {
      "type": "Feature",
      "geometry": {
        "type": "Point",
        "coordinates": [
          115.643003083,
          -30.768101119
        ]
      },
      "properties": {
        "label": "Yandin Wind Farm",
        "type": "Wind farm",
        "entity": "http://www.wikidata.org/entity/Q125421395",
        "country_qid": "Q408"
      }
    },
    {
      "type": "Feature",
      "geometry": {
        "type": "Point",
        "coordinates": [
          128.801944444,
          -31.608055555
        ]
      },
      "properties": {
        "label": "Western Green Energy Hub",
        "type": "Wind farm",
        "entity": "http://www.wikidata.org/entity/Q109255372",
        "country_qid": "Q408"
      }
    },
    {
      "type": "Feature",
      "geometry": {
        "type": "Point",
        "coordinates": [
          116.42021,
          -33.78644
        ]
      },
      "properties": {
        "label": "Ambrosia Wind Farm",
        "type": "Wind farm",
        "entity": "http://www.wikidata.org/entity/Q126900452",
        "country_qid": "Q408"
      }
    },
    {
      "type": "Feature",
      "geometry": {
        "type": "Point",
        "coordinates": [
          143.7830196,
          -37.972868
        ]
      },
      "properties": {
        "label": "Golden Plains Wind Farm",
        "type": "Wind farm",
        "entity": "http://www.wikidata.org/entity/Q130527371",
        "country_qid": "Q408"
      }
    },
    {
      "type": "Feature",
      "geometry": {
        "type": "Point",
        "coordinates": [
          115.381219539,
          -30.475512775
        ]
      },
      "properties": {
        "label": "Emu Downs Wind Farm",
        "type": "Wind farm",
        "entity": "http://www.wikidata.org/entity/Q125447081",
        "country_qid": "Q408"
      }
    },
    {
      "type": "Feature",
      "geometry": {
        "type": "Point",
        "coordinates": [
          115.456413815,
          -30.956151344
        ]
      },
      "properties": {
        "label": "Karakin Wind Farm",
        "type": "Wind farm",
        "entity": "http://www.wikidata.org/entity/Q125498471",
        "country_qid": "Q408"
      }
    },
    {
      "type": "Feature",
      "geometry": {
        "type": "Point",
        "coordinates": [
          117.799640639,
          -35.065689943
        ]
      },
      "properties": {
        "label": "ALBANY_WF1",
        "type": "Wind farm",
        "entity": "http://www.wikidata.org/entity/Q125498336",
        "country_qid": "Q408"
      }
    },
    {
      "type": "Feature",
      "geometry": {
        "type": "Point",
        "coordinates": [
          145.788805555,
          -35.057388888
        ]
      },
      "properties": {
        "label": "Dinawan Energy Hub",
        "type": "Wind farm",
        "entity": "http://www.wikidata.org/entity/Q134210188",
        "country_qid": "Q408"
      }
    },
    {
      "type": "Feature",
      "geometry": {
        "type": "Point",
        "coordinates": [
          119.163153615,
          -32.237456097
        ]
      },
      "properties": {
        "label": "King Rocks Wind Farm",
        "type": "Wind farm",
        "entity": "http://www.wikidata.org/entity/Q127375703",
        "country_qid": "Q408"
      }
    },
    {
      "type": "Feature",
      "geometry": {
        "type": "Point",
        "coordinates": [
          114.892791598,
          -28.902341995
        ]
      },
      "properties": {
        "label": "Alinta Wind Farm",
        "type": "Wind farm",
        "entity": "http://www.wikidata.org/entity/Q125420366",
        "country_qid": "Q408"
      }
    },
    {
      "type": "Feature",
      "geometry": {
        "type": "Point",
        "coordinates": [
          115.642778,
          -30.767889
        ]
      },
      "properties": {
        "label": "Yandin Wind Farm",
        "type": "Wind farm",
        "entity": "http://www.wikidata.org/entity/Q97354001",
        "country_qid": "Q408"
      }
    },
    {
      "type": "Feature",
      "geometry": {
        "type": "Point",
        "coordinates": [
          143.3616,
          -36.4362
        ]
      },
      "properties": {
        "label": "Coonooer Bridge Wind Farm",
        "type": "Wind farm",
        "entity": "http://www.wikidata.org/entity/Q56276143",
        "country_qid": "Q408"
      }
    },
    {
      "type": "Feature",
      "geometry": {
        "type": "Point",
        "coordinates": [
          115.544304435,
          -29.895159783
        ]
      },
      "properties": {
        "label": "BLAIRFOX_BEROSRD_WF1",
        "type": "Wind farm",
        "entity": "http://www.wikidata.org/entity/Q125498440",
        "country_qid": "Q408"
      }
    },
    {
      "type": "Feature",
      "geometry": {
        "type": "Point",
        "coordinates": [
          115.385027036,
          -30.841089596
        ]
      },
      "properties": {
        "label": "West Hills Wind Farm",
        "type": "Wind farm",
        "entity": "http://www.wikidata.org/entity/Q125498502",
        "country_qid": "Q408"
      }
    },
    {
      "type": "Feature",
      "geometry": {
        "type": "Point",
        "coordinates": [
          149.2718,
          -22.365
        ]
      },
      "properties": {
        "label": "Lotus Creek Wind Farm",
        "type": "Wind farm",
        "entity": "http://www.wikidata.org/entity/Q129284749",
        "country_qid": "Q408"
      }
    },
    {
      "type": "Feature",
      "geometry": {
        "type": "Point",
        "coordinates": [
          114.992755495,
          -28.960609657
        ]
      },
      "properties": {
        "label": "Mumbida Wind Farm",
        "type": "Wind farm",
        "entity": "http://www.wikidata.org/entity/Q125495174",
        "country_qid": "Q408"
      }
    },
    {
      "type": "Feature",
      "geometry": {
        "type": "Point",
        "coordinates": [
          117.354291396,
          -33.992509456
        ]
      },
      "properties": {
        "label": "FLATROCKS WF1",
        "type": "Wind farm",
        "entity": "http://www.wikidata.org/entity/Q125447171",
        "country_qid": "Q408"
      }
    },
    {
      "type": "Feature",
      "geometry": {
        "type": "Point",
        "coordinates": [
          149.8576,
          -34.4271
        ]
      },
      "properties": {
        "label": "Taralga Wind Farm",
        "type": "Wind farm",
        "entity": "http://www.wikidata.org/entity/Q28183809",
        "country_qid": "Q408"
      }
    },
    {
      "type": "Feature",
      "geometry": {
        "type": "Point",
        "coordinates": [
          117.646195056,
          -34.60099508
        ]
      },
      "properties": {
        "label": "SKYFRM_MTBARKER_WF1",
        "type": "Wind farm",
        "entity": "http://www.wikidata.org/entity/Q125476724",
        "country_qid": "Q408"
      }
    },
    {
      "type": "Feature",
      "geometry": {
        "type": "Point",
        "coordinates": [
          117.7975,
          -35.0658
        ]
      },
      "properties": {
        "label": "Grasmere Wind Farm 1",
        "type": "Wind farm",
        "entity": "http://www.wikidata.org/entity/Q125688650",
        "country_qid": "Q408"
      }
    },
    {
      "type": "Feature",
      "geometry": {
        "type": "Point",
        "coordinates": [
          145.26,
          -37.1
        ]
      },
      "properties": {
        "label": "Cherry Tree Wind Farm",
        "type": "Wind farm",
        "entity": "http://www.wikidata.org/entity/Q104867464",
        "country_qid": "Q408"
      }
    },
    {
      "type": "Feature",
      "geometry": {
        "type": "Point",
        "coordinates": [
          138.544,
          -33.058
        ]
      },
      "properties": {
        "label": "Hornsdale Wind Farm",
        "type": "Wind farm",
        "entity": "http://www.wikidata.org/entity/Q38250951",
        "country_qid": "Q408"
      }
    },
    {
      "type": "Feature",
      "geometry": {
        "type": "Point",
        "coordinates": [
          115.32,
          -30.41
        ]
      },
      "properties": {
        "label": "Badgingarra wind farm",
        "type": "Wind farm",
        "entity": "http://www.wikidata.org/entity/Q104637674",
        "country_qid": "Q408"
      }
    },
    {
      "type": "Feature",
      "geometry": {
        "type": "Point",
        "coordinates": [
          118.2585,
          -32.3798
        ]
      },
      "properties": {
        "label": "Kondinin Wind & Solar Project",
        "type": "Wind farm",
        "entity": "http://www.wikidata.org/entity/Q133295781",
        "country_qid": "Q408"
      }
    },
    {
      "type": "Feature",
      "geometry": {
        "type": "Point",
        "coordinates": [
          118.430992953,
          -31.385015872
        ]
      },
      "properties": {
        "label": "INVESTEC COLLGAR WF1",
        "type": "Wind farm",
        "entity": "http://www.wikidata.org/entity/Q125446743",
        "country_qid": "Q408"
      }
    },
    {
      "type": "Feature",
      "geometry": {
        "type": "Point",
        "coordinates": [
          142.98,
          -37.24
        ]
      },
      "properties": {
        "label": "Ararat Wind Farm",
        "type": "Wind farm",
        "entity": "http://www.wikidata.org/entity/Q55604135",
        "country_qid": "Q408"
      }
    },
    {
      "type": "Feature",
      "geometry": {
        "type": "Point",
        "coordinates": [
          143.874,
          -39.9413
        ]
      },
      "properties": {
        "label": "Huxley Hill Wind Farm",
        "type": "Wind farm",
        "entity": "http://www.wikidata.org/entity/Q3509881",
        "country_qid": "Q408"
      }
    },
    {
      "type": "Feature",
      "geometry": {
        "type": "Point",
        "coordinates": [
          151.54,
          -29.79
        ]
      },
      "properties": {
        "label": "White Rock Wind Farm",
        "type": "Wind farm",
        "entity": "http://www.wikidata.org/entity/Q67509188",
        "country_qid": "Q408"
      }
    },
    {
      "type": "Feature",
      "geometry": {
        "type": "Point",
        "coordinates": [
          142.321,
          -36.431
        ]
      },
      "properties": {
        "label": "Murra Warra Wind Farm",
        "type": "Wind farm",
        "entity": "http://www.wikidata.org/entity/Q56278495",
        "country_qid": "Q408"
      }
    },
    {
      "type": "Feature",
      "geometry": {
        "type": "Point",
        "coordinates": [
          148.79,
          -34.56
        ]
      },
      "properties": {
        "label": "Bango Wind Farm",
        "type": "Wind farm",
        "entity": "http://www.wikidata.org/entity/Q107997419",
        "country_qid": "Q408"
      }
    },
    {
      "type": "Feature",
      "geometry": {
        "type": "Point",
        "coordinates": [
          146.347,
          -38.6446
        ]
      },
      "properties": {
        "label": "Toora Wind Farm",
        "type": "Wind farm",
        "entity": "http://www.wikidata.org/entity/Q7824199",
        "country_qid": "Q408"
      }
    },
    {
      "type": "Feature",
      "geometry": {
        "type": "Point",
        "coordinates": [
          145.541,
          -38.6031
        ]
      },
      "properties": {
        "label": "Wonthaggi Wind Farm",
        "type": "Wind farm",
        "entity": "http://www.wikidata.org/entity/Q8032105",
        "country_qid": "Q408"
      }
    },
    {
      "type": "Feature",
      "geometry": {
        "type": "Point",
        "coordinates": [
          142.973608,
          -37.097439
        ]
      },
      "properties": {
        "label": "Bulgana Green Power Hub",
        "type": "Wind farm",
        "entity": "http://www.wikidata.org/entity/Q74520480",
        "country_qid": "Q408"
      }
    },
    {
      "type": "Feature",
      "geometry": {
        "type": "Point",
        "coordinates": [
          141.96,
          -38.28
        ]
      },
      "properties": {
        "label": "Codrington Wind Farm",
        "type": "Wind farm",
        "entity": "http://www.wikidata.org/entity/Q5140367",
        "country_qid": "Q408"
      }
    },
    {
      "type": "Feature",
      "geometry": {
        "type": "Point",
        "coordinates": [
          150.05,
          -33.6497
        ]
      },
      "properties": {
        "label": "Hampton Wind Park",
        "type": "Wind farm",
        "entity": "http://www.wikidata.org/entity/Q5646330",
        "country_qid": "Q408"
      }
    },
    {
      "type": "Feature",
      "geometry": {
        "type": "Point",
        "coordinates": [
          142.97,
          -37.87
        ]
      },
      "properties": {
        "label": "Dundonnell Wind Farm",
        "type": "Wind farm",
        "entity": "http://www.wikidata.org/entity/Q69215337",
        "country_qid": "Q408"
      }
    },
    {
      "type": "Feature",
      "geometry": {
        "type": "Point",
        "coordinates": [
          149.567,
          -35.1458
        ]
      },
      "properties": {
        "label": "Capital Wind Farm",
        "type": "Wind farm",
        "entity": "http://www.wikidata.org/entity/Q5035686",
        "country_qid": "Q408"
      }
    },
    {
      "type": "Feature",
      "geometry": {
        "type": "Point",
        "coordinates": [
          138.0987,
          -33.4809
        ]
      },
      "properties": {
        "label": "Clements Gap Wind Farm",
        "type": "Wind farm",
        "entity": "http://www.wikidata.org/entity/Q5131513",
        "country_qid": "Q408"
      }
    },
    {
      "type": "Feature",
      "geometry": {
        "type": "Point",
        "coordinates": [
          149.636,
          -32.966
        ]
      },
      "properties": {
        "label": "Crudine Ridge Wind Farm",
        "type": "Wind farm",
        "entity": "http://www.wikidata.org/entity/Q108936091",
        "country_qid": "Q408"
      }
    },
    {
      "type": "Feature",
      "geometry": {
        "type": "Point",
        "coordinates": [
          145.531,
          -17.5922
        ]
      },
      "properties": {
        "label": "Windy Hill Wind Farm",
        "type": "Wind farm",
        "entity": "http://www.wikidata.org/entity/Q8024845",
        "country_qid": "Q408"
      }
    },
    {
      "type": "Feature",
      "geometry": {
        "type": "Point",
        "coordinates": [
          141.307,
          -31.7627
        ]
      },
      "properties": {
        "label": "Silverton Wind Farm",
        "type": "Wind farm",
        "entity": "http://www.wikidata.org/entity/Q7516853",
        "country_qid": "Q408"
      }
    },
    {
      "type": "Feature",
      "geometry": {
        "type": "Point",
        "coordinates": [
          143.871,
          -37.8411
        ]
      },
      "properties": {
        "label": "Mount Mercer Wind Farm",
        "type": "Wind farm",
        "entity": "http://www.wikidata.org/entity/Q6922156",
        "country_qid": "Q408"
      }
    },
    {
      "type": "Feature",
      "geometry": {
        "type": "Point",
        "coordinates": [
          143.11,
          -37.38
        ]
      },
      "properties": {
        "label": "Challicum Hills Wind Farm",
        "type": "Wind farm",
        "entity": "http://www.wikidata.org/entity/Q5068983",
        "country_qid": "Q408"
      }
    },
    {
      "type": "Feature",
      "geometry": {
        "type": "Point",
        "coordinates": [
          149.198,
          -33.6219
        ]
      },
      "properties": {
        "label": "Blayney Wind Farm",
        "type": "Wind farm",
        "entity": "http://www.wikidata.org/entity/Q4925581",
        "country_qid": "Q408"
      }
    },
    {
      "type": "Feature",
      "geometry": {
        "type": "Point",
        "coordinates": [
          145.31,
          -15.58
        ]
      },
      "properties": {
        "label": "Archer Point Wind Farm",
        "type": "Wind farm",
        "entity": "http://www.wikidata.org/entity/Q4785963",
        "country_qid": "Q408"
      }
    },
    {
      "type": "Feature",
      "geometry": {
        "type": "Point",
        "coordinates": [
          117.783,
          -35.0581
        ]
      },
      "properties": {
        "label": "Albany Wind Farm",
        "type": "Wind farm",
        "entity": "http://www.wikidata.org/entity/Q4709403",
        "country_qid": "Q408"
      }
    },
    {
      "type": "Feature",
      "geometry": {
        "type": "Point",
        "coordinates": [
          138.729,
          -33.3678
        ]
      },
      "properties": {
        "label": "Hallett Wind Farm",
        "type": "Wind farm",
        "entity": "http://www.wikidata.org/entity/Q5642928",
        "country_qid": "Q408"
      }
    },
    {
      "type": "Feature",
      "geometry": {
        "type": "Point",
        "coordinates": [
          141.587,
          -38.3524
        ]
      },
      "properties": {
        "label": "Portland Wind Farm",
        "type": "Wind farm",
        "entity": "http://www.wikidata.org/entity/Q7232076",
        "country_qid": "Q408"
      }
    },
    {
      "type": "Feature",
      "geometry": {
        "type": "Point",
        "coordinates": [
          138.455,
          -35.4
        ]
      },
      "properties": {
        "label": "Myponga Wind Farm",
        "type": "Wind farm",
        "entity": "http://www.wikidata.org/entity/Q6948076",
        "country_qid": "Q408"
      }
    },
    {
      "type": "Feature",
      "geometry": {
        "type": "Point",
        "coordinates": [
          144.2,
          -37.7
        ]
      },
      "properties": {
        "label": "Moorabool Wind Farm",
        "type": "Wind farm",
        "entity": "http://www.wikidata.org/entity/Q69740192",
        "country_qid": "Q408"
      }
    },
    {
      "type": "Feature",
      "geometry": {
        "type": "Point",
        "coordinates": [
          137.58,
          -32.619
        ]
      },
      "properties": {
        "label": "Lincoln Gap Wind Farm",
        "type": "Wind farm",
        "entity": "http://www.wikidata.org/entity/Q48811763",
        "country_qid": "Q408"
      }
    },
    {
      "type": "Feature",
      "geometry": {
        "type": "Point",
        "coordinates": [
          114.869,
          -28.8981
        ]
      },
      "properties": {
        "label": "Walkaway Wind Farm",
        "type": "Wind farm",
        "entity": "http://www.wikidata.org/entity/Q7962166",
        "country_qid": "Q408"
      }
    },
    {
      "type": "Feature",
      "geometry": {
        "type": "Point",
        "coordinates": [
          118.454583333,
          -31.543055555
        ]
      },
      "properties": {
        "label": "Collgar Wind Farm",
        "type": "Wind farm",
        "entity": "http://www.wikidata.org/entity/Q5147127",
        "country_qid": "Q408"
      }
    },
    {
      "type": "Feature",
      "geometry": {
        "type": "Point",
        "coordinates": [
          145.056,
          -41.802
        ]
      },
      "properties": {
        "label": "Granville Harbour Wind Farm",
        "type": "Wind farm",
        "entity": "http://www.wikidata.org/entity/Q65041560",
        "country_qid": "Q408"
      }
    },
    {
      "type": "Feature",
      "geometry": {
        "type": "Point",
        "coordinates": [
          140.4,
          -37.76
        ]
      },
      "properties": {
        "label": "Lake Bonney Wind Farm",
        "type": "Wind farm",
        "entity": "http://www.wikidata.org/entity/Q6475039",
        "country_qid": "Q408"
      }
    },
    {
      "type": "Feature",
      "geometry": {
        "type": "Point",
        "coordinates": [
          136.70369,
          -33.624526
        ]
      },
      "properties": {
        "label": "Mount Millar Wind Farm",
        "type": "Wind farm",
        "entity": "http://www.wikidata.org/entity/Q17014513",
        "country_qid": "Q408"
      }
    },
    {
      "type": "Feature",
      "geometry": {
        "type": "Point",
        "coordinates": [
          115.49,
          -29.98
        ]
      },
      "properties": {
        "label": "Warradarge Wind Farm",
        "type": "Wind farm",
        "entity": "http://www.wikidata.org/entity/Q78439596",
        "country_qid": "Q408"
      }
    },
    {
      "type": "Feature",
      "geometry": {
        "type": "Point",
        "coordinates": [
          138.9,
          -33.98333333
        ]
      },
      "properties": {
        "label": "Waterloo Wind Farm",
        "type": "Wind farm",
        "entity": "http://www.wikidata.org/entity/Q7974307",
        "country_qid": "Q408"
      }
    },
    {
      "type": "Feature",
      "geometry": {
        "type": "Point",
        "coordinates": [
          149.08,
          -36.58
        ]
      },
      "properties": {
        "label": "Boco Rock Wind Farm",
        "type": "Wind farm",
        "entity": "http://www.wikidata.org/entity/Q68781022",
        "country_qid": "Q408"
      }
    },
    {
      "type": "Feature",
      "geometry": {
        "type": "Point",
        "coordinates": [
          121.762,
          -33.8772
        ]
      },
      "properties": {
        "label": "Ten Mile Lagoon Wind Farm",
        "type": "Wind farm",
        "entity": "http://www.wikidata.org/entity/Q7699237",
        "country_qid": "Q408"
      }
    },
    {
      "type": "Feature",
      "geometry": {
        "type": "Point",
        "coordinates": [
          145.0,
          -21.0
        ]
      },
      "properties": {
        "label": "Kennedy Energy Park",
        "type": "Wind farm",
        "entity": "http://www.wikidata.org/entity/Q28428137",
        "country_qid": "Q408"
      }
    },
    {
      "type": "Feature",
      "geometry": {
        "type": "Point",
        "coordinates": [
          146.688,
          -42.151
        ]
      },
      "properties": {
        "label": "Cattle Hill Wind Farm",
        "type": "Wind farm",
        "entity": "http://www.wikidata.org/entity/Q65075725",
        "country_qid": "Q408"
      }
    },
    {
      "type": "Feature",
      "geometry": {
        "type": "Point",
        "coordinates": [
          151.485,
          -26.745
        ]
      },
      "properties": {
        "label": "Coopers Gap Wind Farm",
        "type": "Wind farm",
        "entity": "http://www.wikidata.org/entity/Q5167946",
        "country_qid": "Q408"
      }
    },
    {
      "type": "Feature",
      "geometry": {
        "type": "Point",
        "coordinates": [
          137.856,
          -32.567
        ]
      },
      "properties": {
        "label": "Port Augusta Renewable Energy Park",
        "type": "Wind farm",
        "entity": "http://www.wikidata.org/entity/Q82235743",
        "country_qid": "Q408"
      }
    },
    {
      "type": "Feature",
      "geometry": {
        "type": "Point",
        "coordinates": [
          144.0,
          -37.75
        ]
      },
      "properties": {
        "label": "Lal Lal Wind Farm",
        "type": "Wind farm",
        "entity": "http://www.wikidata.org/entity/Q67899687",
        "country_qid": "Q408"
      }
    },
    {
      "type": "Feature",
      "geometry": {
        "type": "Point",
        "coordinates": [
          140.395,
          -37.734
        ]
      },
      "properties": {
        "label": "Canunda Wind Farm",
        "type": "Wind farm",
        "entity": "http://www.wikidata.org/entity/Q5034104",
        "country_qid": "Q408"
      }
    },
    {
      "type": "Feature",
      "geometry": {
        "type": "Point",
        "coordinates": [
          145.926,
          -38.789
        ]
      },
      "properties": {
        "label": "Bald Hills Wind Farm",
        "type": "Wind farm",
        "entity": "http://www.wikidata.org/entity/Q4850323",
        "country_qid": "Q408"
      }
    },
    {
      "type": "Feature",
      "geometry": {
        "type": "Point",
        "coordinates": [
          149.62,
          -35.084
        ]
      },
      "properties": {
        "label": "Woodlawn Wind Farm",
        "type": "Wind farm",
        "entity": "http://www.wikidata.org/entity/Q14935044",
        "country_qid": "Q408"
      }
    },
    {
      "type": "Feature",
      "geometry": {
        "type": "Point",
        "coordinates": [
          149.396,
          -34.814
        ]
      },
      "properties": {
        "label": "Cullerin Range Wind Farm",
        "type": "Wind farm",
        "entity": "http://www.wikidata.org/entity/Q5193014",
        "country_qid": "Q408"
      }
    },
    {
      "type": "Feature",
      "geometry": {
        "type": "Point",
        "coordinates": [
          148.0,
          -40.7667
        ]
      },
      "properties": {
        "label": "Musselroe Wind Farm",
        "type": "Wind farm",
        "entity": "http://www.wikidata.org/entity/Q6943113",
        "country_qid": "Q408"
      }
    },
    {
      "type": "Feature",
      "geometry": {
        "type": "Point",
        "coordinates": [
          138.118611111,
          -33.83
        ]
      },
      "properties": {
        "label": "Snowtown Wind Farm",
        "type": "Wind farm",
        "entity": "http://www.wikidata.org/entity/Q7548732",
        "country_qid": "Q408"
      }
    },
    {
      "type": "Feature",
      "geometry": {
        "type": "Point",
        "coordinates": [
          143.609,
          -37.3256
        ]
      },
      "properties": {
        "label": "Waubra Wind Farm",
        "type": "Wind farm",
        "entity": "http://www.wikidata.org/entity/Q7975111",
        "country_qid": "Q408"
      }
    },
    {
      "type": "Feature",
      "geometry": {
        "type": "Point",
        "coordinates": [
          144.119,
          -37.4221
        ]
      },
      "properties": {
        "label": "Hepburn Wind Project",
        "type": "Wind farm",
        "entity": "http://www.wikidata.org/entity/Q5731833",
        "country_qid": "Q408"
      }
    },
    {
      "type": "Feature",
      "geometry": {
        "type": "Point",
        "coordinates": [
          149.066666666,
          -32.395611111
        ]
      },
      "properties": {
        "label": "Bodangora Wind Farm",
        "type": "Wind farm",
        "entity": "http://www.wikidata.org/entity/Q68532324",
        "country_qid": "Q408"
      }
    },
    {
      "type": "Feature",
      "geometry": {
        "type": "Point",
        "coordinates": [
          115.33333333,
          -30.5
        ]
      },
      "properties": {
        "label": "Emu Downs Wind Farm",
        "type": "Wind farm",
        "entity": "http://www.wikidata.org/entity/Q5374851",
        "country_qid": "Q408"
      }
    },
    {
      "type": "Feature",
      "geometry": {
        "type": "Point",
        "coordinates": [
          137.715,
          -35.1225
        ]
      },
      "properties": {
        "label": "Wattle Point Wind Farm",
        "type": "Wind farm",
        "entity": "http://www.wikidata.org/entity/Q7974989",
        "country_qid": "Q408"
      }
    },
    {
      "type": "Feature",
      "geometry": {
        "type": "Point",
        "coordinates": [
          135.583,
          -34.85
        ]
      },
      "properties": {
        "label": "Cathedral Rocks Wind Farm",
        "type": "Wind farm",
        "entity": "http://www.wikidata.org/entity/Q5052277",
        "country_qid": "Q408"
      }
    },
    {
      "type": "Feature",
      "geometry": {
        "type": "Point",
        "coordinates": [
          151.6,
          -29.73
        ]
      },
      "properties": {
        "label": "Glen Innes Wind Farm",
        "type": "Wind farm",
        "entity": "http://www.wikidata.org/entity/Q67511053",
        "country_qid": "Q408"
      }
    },
    {
      "type": "Feature",
      "geometry": {
        "type": "Point",
        "coordinates": [
          138.92,
          -33.75
        ]
      },
      "properties": {
        "label": "Goyder South Wind Farm",
        "type": "Wind farm",
        "entity": "http://www.wikidata.org/entity/Q110974283",
        "country_qid": "Q408"
      }
    },
    {
      "type": "Feature",
      "geometry": {
        "type": "Point",
        "coordinates": [
          138.14,
          -35.5843
        ]
      },
      "properties": {
        "label": "Starfish Hill Wind Farm",
        "type": "Wind farm",
        "entity": "http://www.wikidata.org/entity/Q7601839",
        "country_qid": "Q408"
      }
    },
    {
      "type": "Feature",
      "geometry": {
        "type": "Point",
        "coordinates": [
          145.36666667,
          -17.18333333
        ]
      },
      "properties": {
        "label": "Mount Emerald Wind Farm",
        "type": "Wind farm",
        "entity": "http://www.wikidata.org/entity/Q14935511",
        "country_qid": "Q408"
      }
    },
    {
      "type": "Feature",
      "geometry": {
        "type": "Point",
        "coordinates": [
          149.4,
          -34.8132
        ]
      },
      "properties": {
        "label": "Gunning Wind Farm",
        "type": "Wind farm",
        "entity": "http://www.wikidata.org/entity/Q5619261",
        "country_qid": "Q408"
      }
    },
    {
      "type": "Feature",
      "geometry": {
        "type": "Point",
        "coordinates": [
          142.2,
          -38.03
        ]
      },
      "properties": {
        "label": "Macarthur Wind Farm",
        "type": "Wind farm",
        "entity": "http://www.wikidata.org/entity/Q6722670",
        "country_qid": "Q408"
      }
    },
    {
      "type": "Feature",
      "geometry": {
        "type": "Point",
        "coordinates": [
          144.717,
          -40.685
        ]
      },
      "properties": {
        "label": "Woolnorth Wind Farm",
        "type": "Wind farm",
        "entity": "http://www.wikidata.org/entity/Q8033896",
        "country_qid": "Q408"
      }
    },
    {
      "type": "Feature",
      "geometry": {
        "type": "Point",
        "coordinates": [
          143.76,
          -38.23
        ]
      },
      "properties": {
        "label": "Mount Gellibrand Wind Farm",
        "type": "Wind farm",
        "entity": "http://www.wikidata.org/entity/Q109847288",
        "country_qid": "Q408"
      }
    },
    {
      "type": "Feature",
      "geometry": {
        "type": "Point",
        "coordinates": [
          121.78083333,
          -33.895
        ]
      },
      "properties": {
        "label": "Nine Mile Beach Wind Farm",
        "type": "Wind farm",
        "entity": "http://www.wikidata.org/entity/Q7038372",
        "country_qid": "Q408"
      }
    },
    {
      "type": "Feature",
      "geometry": {
        "type": "Point",
        "coordinates": [
          143.251,
          -37.5358
        ]
      },
      "properties": {
        "label": "Stockyard Hill Wind Farm",
        "type": "Wind farm",
        "entity": "http://www.wikidata.org/entity/Q16900724",
        "country_qid": "Q408"
      }
    },
    {
      "type": "Feature",
      "geometry": {
        "type": "Point",
        "coordinates": [
          149.542,
          -34.5165
        ]
      },
      "properties": {
        "label": "Crookwell Wind Farm",
        "type": "Wind farm",
        "entity": "http://www.wikidata.org/entity/Q5187920",
        "country_qid": "Q408"
      }
    },
    {
      "type": "Feature",
      "geometry": {
        "type": "Point",
        "coordinates": [
          150.27,
          -26.8
        ]
      },
      "properties": {
        "label": "Dulacca Wind Farm",
        "type": "Wind farm",
        "entity": "http://www.wikidata.org/entity/Q120808775",
        "country_qid": "Q408"
      }
    },
    {
      "type": "Feature",
      "geometry": {
        "type": "Point",
        "coordinates": [
          138.848,
          -33.393
        ]
      },
      "properties": {
        "label": "Willogoleche Wind Farm",
        "type": "Wind farm",
        "entity": "http://www.wikidata.org/entity/Q48811781",
        "country_qid": "Q408"
      }
    },
    {
      "type": "Feature",
      "geometry": {
        "type": "Point",
        "coordinates": [
          149.45,
          -34.566666666
        ]
      },
      "properties": {
        "label": "Gullen Range Wind Farm",
        "type": "Wind farm",
        "entity": "http://www.wikidata.org/entity/Q68050784",
        "country_qid": "Q408"
      }
    }
  ]
}