{
  "type": "FeatureCollection",
  "features": [
    {
      "type": "Feature",
      "geometry": {
        "type": "Point",
        "coordinates": [
          -3.36,
          57.53
        ]
      },
      "properties": {
        "label": "Rothes Wind Farm",
        "type": "Wind farm",
        "entity": "http://www.wikidata.org/entity/Q116875376",
        "country_qid": "Q145"
      }
    },
    {
      "type": "Feature",
      "geometry": {
        "type": "Point",
        "coordinates": [
          -1.35,
          57.48333333
        ]
      },
      "properties": {
        "label": "Hywind Scotland",
        "type": "Wind farm",
        "entity": "http://www.wikidata.org/entity/Q6989526",
        "country_qid": "Q145"
      }
    },
    {
      "type": "Feature",
      "geometry": {
        "type": "Point",
        "coordinates": [
          -0.8822,
          53.6643
        ]
      },
      "properties": {
        "label": "Goole Fields Wind Farms",
        "type": "Wind farm",
        "entity": "http://www.wikidata.org/entity/Q116883962",
        "country_qid": "Q145"
      }
    },
    {
      "type": "Feature",
      "geometry": {
        "type": "Point",
        "coordinates": [
          -2.65,
          57.414
        ]
      },
      "properties": {
        "label": "Glens of Foudland Wind Farm",
        "type": "Wind farm",
        "entity": "http://www.wikidata.org/entity/Q116877955",
        "country_qid": "Q145"
      }
    },
    {
      "type": "Feature",
      "geometry": {
        "type": "Point",
        "coordinates": [
          -5.5583,
          55.6397
        ]
      },
      "properties": {
        "label": "Deucheran Hill Wind Farm",
        "type": "Wind farm",
        "entity": "http://www.wikidata.org/entity/Q117803592",
        "country_qid": "Q145"
      }
    },
    {
      "type": "Feature",
      "geometry": {
        "type": "Point",
        "coordinates": [
          -1.8596,
          57.0046
        ]
      },
      "properties": {
        "label": "Kincardine Offshore Wind Farm",
        "type": "Wind farm",
        "entity": "http://www.wikidata.org/entity/Q117034625",
        "country_qid": "Q145"
      }
    },
    {
      "type": "Feature",
      "geometry": {
        "type": "Point",
        "coordinates": [
          -3.9185,
          55.3142
        ]
      },
      "properties": {
        "label": "Twentyshilling Hill Wind Farm",
        "type": "Wind farm",
        "entity": "http://www.wikidata.org/entity/Q116877573",
        "country_qid": "Q145"
      }
    },
    {
      "type": "Feature",
      "geometry": {
        "type": "Point",
        "coordinates": [
          -5.335,
          56.1292
        ]
      },
      "properties": {
        "label": "A’Chruach Wind Farm",
        "type": "Wind farm",
        "entity": "http://www.wikidata.org/entity/Q116861544",
        "country_qid": "Q145"
      }
    },
    {
      "type": "Feature",
      "geometry": {
        "type": "Point",
        "coordinates": [
          1.5518,
          53.91
        ]
      },
      "properties": {
        "label": "Hornsea Two Offshore Wind Farm",
        "type": "Wind farm",
        "entity": "http://www.wikidata.org/entity/Q113663075",
        "country_qid": "Q145"
      }
    },
    {
      "type": "Feature",
      "geometry": {
        "type": "Point",
        "coordinates": [
          1.791,
          53.885
        ]
      },
      "properties": {
        "label": "Hornsea One Offshore Wind Farm",
        "type": "Wind farm",
        "entity": "http://www.wikidata.org/entity/Q84277667",
        "country_qid": "Q145"
      }
    },
    {
      "type": "Feature",
      "geometry": {
        "type": "Point",
        "coordinates": [
          0.753,
          53.154
        ]
      },
      "properties": {
        "label": "Docking Shoal wind farm",
        "type": "Wind farm",
        "entity": "http://www.wikidata.org/entity/Q5287221",
        "country_qid": "Q145"
      }
    },
    {
      "type": "Feature",
      "geometry": {
        "type": "Point",
        "coordinates": [
          -3.452454,
          53.3907
        ]
      },
      "properties": {
        "label": "North Hoyle Offshore Wind Farm",
        "type": "Wind farm",
        "entity": "http://www.wikidata.org/entity/Q833917",
        "country_qid": "Q145"
      }
    },
    {
      "type": "Feature",
      "geometry": {
        "type": "Point",
        "coordinates": [
          -1.6474,
          53.9981
        ]
      },
      "properties": {
        "label": "Knabs Ridge Wind Farm",
        "type": "Wind farm",
        "entity": "http://www.wikidata.org/entity/Q60741175",
        "country_qid": "Q145"
      }
    },
    {
      "type": "Feature",
      "geometry": {
        "type": "Point",
        "coordinates": [
          -4.43777778,
          57.70994444
        ]
      },
      "properties": {
        "label": "Novar Wind Farm",
        "type": "Wind farm",
        "entity": "http://www.wikidata.org/entity/Q60772556",
        "country_qid": "Q145"
      }
    },
    {
      "type": "Feature",
      "geometry": {
        "type": "Point",
        "coordinates": [
          -3.522,
          54.044
        ]
      },
      "properties": {
        "label": "Walney Wind Farm",
        "type": "Wind farm",
        "entity": "http://www.wikidata.org/entity/Q1330226",
        "country_qid": "Q145"
      }
    },
    {
      "type": "Feature",
      "geometry": {
        "type": "Point",
        "coordinates": [
          0.43611111,
          53.1275
        ]
      },
      "properties": {
        "label": "Lynn and Inner Dowsing Wind Farm",
        "type": "Wind farm",
        "entity": "http://www.wikidata.org/entity/Q6709310",
        "country_qid": "Q145"
      }
    },
    {
      "type": "Feature",
      "geometry": {
        "type": "Point",
        "coordinates": [
          -3.1459321,
          59.114923
        ]
      },
      "properties": {
        "label": "Burgar Hill Wind Farm",
        "type": "Wind farm",
        "entity": "http://www.wikidata.org/entity/Q114030627",
        "country_qid": "Q145"
      }
    },
    {
      "type": "Feature",
      "geometry": {
        "type": "Point",
        "coordinates": [
          -4.76527778,
          55.05
        ]
      },
      "properties": {
        "label": "Kilgallioch Wind Farm",
        "type": "Wind farm",
        "entity": "http://www.wikidata.org/entity/Q29018007",
        "country_qid": "Q145"
      }
    },
    {
      "type": "Feature",
      "geometry": {
        "type": "Point",
        "coordinates": [
          0.293,
          53.644
        ]
      },
      "properties": {
        "label": "Humber Gateway Wind Farm",
        "type": "Wind farm",
        "entity": "http://www.wikidata.org/entity/Q15226770",
        "country_qid": "Q145"
      }
    },
    {
      "type": "Feature",
      "geometry": {
        "type": "Point",
        "coordinates": [
          -3.58333333,
          53.45
        ]
      },
      "properties": {
        "label": "Gwynt y Môr Wind Farm",
        "type": "Wind farm",
        "entity": "http://www.wikidata.org/entity/Q455472",
        "country_qid": "Q145"
      }
    },
    {
      "type": "Feature",
      "geometry": {
        "type": "Point",
        "coordinates": [
          1.79028,
          52.6489
        ]
      },
      "properties": {
        "label": "Scroby Sands Wind Farm",
        "type": "Wind farm",
        "entity": "http://www.wikidata.org/entity/Q7439264",
        "country_qid": "Q145"
      }
    },
    {
      "type": "Feature",
      "geometry": {
        "type": "Point",
        "coordinates": [
          -1.49028,
          55.1358
        ]
      },
      "properties": {
        "label": "Blyth Offshore Wind Farm",
        "type": "Wind farm",
        "entity": "http://www.wikidata.org/entity/Q4930860",
        "country_qid": "Q145"
      }
    },
    {
      "type": "Feature",
      "geometry": {
        "type": "Point",
        "coordinates": [
          1.39,
          53.249
        ]
      },
      "properties": {
        "label": "Dudgeon Offshore Wind Farm",
        "type": "Wind farm",
        "entity": "http://www.wikidata.org/entity/Q5311735",
        "country_qid": "Q145"
      }
    },
    {
      "type": "Feature",
      "geometry": {
        "type": "Point",
        "coordinates": [
          1.9301,
          54.7489
        ]
      },
      "properties": {
        "label": "Dogger Bank A Wind Farm",
        "type": "Wind farm",
        "entity": "http://www.wikidata.org/entity/Q115952211",
        "country_qid": "Q145"
      }
    },
    {
      "type": "Feature",
      "geometry": {
        "type": "Point",
        "coordinates": [
          -0.22944444,
          54.05055556
        ]
      },
      "properties": {
        "label": "Fraisthorpe Wind Farm",
        "type": "Wind farm",
        "entity": "http://www.wikidata.org/entity/Q55611961",
        "country_qid": "Q145"
      }
    },
    {
      "type": "Feature",
      "geometry": {
        "type": "Point",
        "coordinates": [
          -3.463,
          53.983
        ]
      },
      "properties": {
        "label": "West of Duddon Sands Wind Farm",
        "type": "Wind farm",
        "entity": "http://www.wikidata.org/entity/Q7987061",
        "country_qid": "Q145"
      }
    },
    {
      "type": "Feature",
      "geometry": {
        "type": "Point",
        "coordinates": [
          1.09,
          51.46
        ]
      },
      "properties": {
        "label": "Kentish Flats Offshore Wind Farm",
        "type": "Wind farm",
        "entity": "http://www.wikidata.org/entity/Q1308246",
        "country_qid": "Q145"
      }
    },
    {
      "type": "Feature",
      "geometry": {
        "type": "Point",
        "coordinates": [
          -2.69852,
          58.16708
        ]
      },
      "properties": {
        "label": "Moray East Offshore Wind Farm",
        "type": "Wind farm",
        "entity": "http://www.wikidata.org/entity/Q3364833",
        "country_qid": "Q145"
      }
    },
    {
      "type": "Feature",
      "geometry": {
        "type": "Point",
        "coordinates": [
          0.83333333,
          53.275
        ]
      },
      "properties": {
        "label": "Race Bank Wind Farm",
        "type": "Wind farm",
        "entity": "http://www.wikidata.org/entity/Q3364824",
        "country_qid": "Q145"
      }
    },
    {
      "type": "Feature",
      "geometry": {
        "type": "Point",
        "coordinates": [
          -1.095,
          54.648
        ]
      },
      "properties": {
        "label": "Teesside Wind Farm",
        "type": "Wind farm",
        "entity": "http://www.wikidata.org/entity/Q7694582",
        "country_qid": "Q145"
      }
    },
    {
      "type": "Feature",
      "geometry": {
        "type": "Point",
        "coordinates": [
          4.0,
          55.4
        ]
      },
      "properties": {
        "label": "North Sea Wind Power Hub",
        "type": "Wind farm",
        "entity": "http://www.wikidata.org/entity/Q29017981",
        "country_qid": "Q145"
      }
    },
    {
      "type": "Feature",
      "geometry": {
        "type": "Point",
        "coordinates": [
          2.3,
          52.66
        ]
      },
      "properties": {
        "label": "East Anglia ONE",
        "type": "Wind farm",
        "entity": "http://www.wikidata.org/entity/Q17347013",
        "country_qid": "Q145"
      }
    },
    {
      "type": "Feature",
      "geometry": {
        "type": "Point",
        "coordinates": [
          1.6331,
          51.4306
        ]
      },
      "properties": {
        "label": "Thanet Wind Farm",
        "type": "Wind farm",
        "entity": "http://www.wikidata.org/entity/Q1576615",
        "country_qid": "Q145"
      }
    },
    {
      "type": "Feature",
      "geometry": {
        "type": "Point",
        "coordinates": [
          -2.32083333,
          56.26777778
        ]
      },
      "properties": {
        "label": "Neart na Gaoithe Offshore Wind Farm",
        "type": "Wind farm",
        "entity": "http://www.wikidata.org/entity/Q15261442",
        "country_qid": "Q145"
      }
    },
    {
      "type": "Feature",
      "geometry": {
        "type": "Point",
        "coordinates": [
          1.13333,
          53.1167
        ]
      },
      "properties": {
        "label": "Sheringham Shoal Offshore Wind Farm",
        "type": "Wind farm",
        "entity": "http://www.wikidata.org/entity/Q7495028",
        "country_qid": "Q145"
      }
    },
    {
      "type": "Feature",
      "geometry": {
        "type": "Point",
        "coordinates": [
          1.992222222,
          51.771111111
        ]
      },
      "properties": {
        "label": "Galloper Offshore Wind Farm",
        "type": "Wind farm",
        "entity": "http://www.wikidata.org/entity/Q56026054",
        "country_qid": "Q145"
      }
    },
    {
      "type": "Feature",
      "geometry": {
        "type": "Point",
        "coordinates": [
          1.55361,
          51.6439
        ]
      },
      "properties": {
        "label": "London Array",
        "type": "Wind farm",
        "entity": "http://www.wikidata.org/entity/Q914264",
        "country_qid": "Q145"
      }
    },
    {
      "type": "Feature",
      "geometry": {
        "type": "Point",
        "coordinates": [
          -3.16667,
          53.4833
        ]
      },
      "properties": {
        "label": "Burbo Bank Offshore Wind Farm",
        "type": "Wind farm",
        "entity": "http://www.wikidata.org/entity/Q2583856",
        "country_qid": "Q145"
      }
    },
    {
      "type": "Feature",
      "geometry": {
        "type": "Point",
        "coordinates": [
          -3.71667,
          54.75
        ]
      },
      "properties": {
        "label": "Robin Rigg Wind Farm",
        "type": "Wind farm",
        "entity": "http://www.wikidata.org/entity/Q1724197",
        "country_qid": "Q145"
      }
    },
    {
      "type": "Feature",
      "geometry": {
        "type": "Point",
        "coordinates": [
          -3.07,
          58.13
        ]
      },
      "properties": {
        "label": "Beatrice Wind Farm",
        "type": "Wind farm",
        "entity": "http://www.wikidata.org/entity/Q4877211",
        "country_qid": "Q145"
      }
    },
    {
      "type": "Feature",
      "geometry": {
        "type": "Point",
        "coordinates": [
          0.149,
          53.805
        ]
      },
      "properties": {
        "label": "Westermost Rough Wind Farm",
        "type": "Wind farm",
        "entity": "http://www.wikidata.org/entity/Q7987427",
        "country_qid": "Q145"
      }
    },
    {
      "type": "Feature",
      "geometry": {
        "type": "Point",
        "coordinates": [
          1.6622,
          54.9866
        ]
      },
      "properties": {
        "label": "Dogger Bank B Wind Farm",
        "type": "Wind farm",
        "entity": "http://www.wikidata.org/entity/Q117337478",
        "country_qid": "Q145"
      }
    },
    {
      "type": "Feature",
      "geometry": {
        "type": "Point",
        "coordinates": [
          0.483333,
          53.1833
        ]
      },
      "properties": {
        "label": "Lincs Wind Farm",
        "type": "Wind farm",
        "entity": "http://www.wikidata.org/entity/Q6551320",
        "country_qid": "Q145"
      }
    },
    {
      "type": "Feature",
      "geometry": {
        "type": "Point",
        "coordinates": [
          -2.988,
          58.094
        ]
      },
      "properties": {
        "label": "Moray West Offshore Wind Farm",
        "type": "Wind farm",
        "entity": "http://www.wikidata.org/entity/Q115981381",
        "country_qid": "Q145"
      }
    },
    {
      "type": "Feature",
      "geometry": {
        "type": "Point",
        "coordinates": [
          -0.278888888,
          50.664722222
        ]
      },
      "properties": {
        "label": "Rampion Wind Farm",
        "type": "Wind farm",
        "entity": "http://www.wikidata.org/entity/Q7290043",
        "country_qid": "Q145"
      }
    },
    {
      "type": "Feature",
      "geometry": {
        "type": "Point",
        "coordinates": [
          1.17444,
          51.7394
        ]
      },
      "properties": {
        "label": "Gunfleet Sands Offshore Wind Farm",
        "type": "Wind farm",
        "entity": "http://www.wikidata.org/entity/Q5618736",
        "country_qid": "Q145"
      }
    },
    {
      "type": "Feature",
      "geometry": {
        "type": "Point",
        "coordinates": [
          -1.37,
          55.17
        ]
      },
      "properties": {
        "label": "Blyth offshore wind farm test site",
        "type": "Wind farm",
        "entity": "http://www.wikidata.org/entity/Q56026057",
        "country_qid": "Q145"
      }
    },
    {
      "type": "Feature",
      "geometry": {
        "type": "Point",
        "coordinates": [
          0.9,
          53.4
        ]
      },
      "properties": {
        "label": "Triton Knoll Wind Farm",
        "type": "Wind farm",
        "entity": "http://www.wikidata.org/entity/Q7844328",
        "country_qid": "Q145"
      }
    },
    {
      "type": "Feature",
      "geometry": {
        "type": "Point",
        "coordinates": [
          -3.66194,
          51.2719
        ]
      },
      "properties": {
        "label": "Atlantic Array wind farm",
        "type": "Wind farm",
        "entity": "http://www.wikidata.org/entity/Q4816287",
        "country_qid": "Q145"
      }
    },
    {
      "type": "Feature",
      "geometry": {
        "type": "Point",
        "coordinates": [
          1.94,
          51.88
        ]
      },
      "properties": {
        "label": "Greater Gabbard wind farm",
        "type": "Wind farm",
        "entity": "http://www.wikidata.org/entity/Q820613",
        "country_qid": "Q145"
      }
    },
    {
      "type": "Feature",
      "geometry": {
        "type": "Point",
        "coordinates": [
          2.2301,
          54.9794
        ]
      },
      "properties": {
        "label": "Sofia Wind Farm",
        "type": "Wind farm",
        "entity": "http://www.wikidata.org/entity/Q115952416",
        "country_qid": "Q145"
      }
    },
    {
      "type": "Feature",
      "geometry": {
        "type": "Point",
        "coordinates": [
          -1.93694444,
          53.77555556
        ]
      },
      "properties": {
        "label": "Ovenden Moor Wind Farm",
        "type": "Wind farm",
        "entity": "http://www.wikidata.org/entity/Q48785414",
        "country_qid": "Q145"
      }
    },
    {
      "type": "Feature",
      "geometry": {
        "type": "Point",
        "coordinates": [
          -3.65,
          53.366666666
        ]
      },
      "properties": {
        "label": "Rhyl Flats",
        "type": "Wind farm",
        "entity": "http://www.wikidata.org/entity/Q833910",
        "country_qid": "Q145"
      }
    },
    {
      "type": "Feature",
      "geometry": {
        "type": "Point",
        "coordinates": [
          -3.4,
          54.1
        ]
      },
      "properties": {
        "label": "Ormonde Wind Farm",
        "type": "Wind farm",
        "entity": "http://www.wikidata.org/entity/Q763941",
        "country_qid": "Q145"
      }
    },
    {
      "type": "Feature",
      "geometry": {
        "type": "Point",
        "coordinates": [
          -1.600833333,
          57.551666666
        ]
      },
      "properties": {
        "label": "Green Volt offshore wind farm",
        "type": "Wind farm",
        "entity": "http://www.wikidata.org/entity/Q131412020",
        "country_qid": "Q145"
      }
    },
    {
      "type": "Feature",
      "geometry": {
        "type": "Point",
        "coordinates": [
          -1.741,
          56.588
        ]
      },
      "properties": {
        "label": "Seagreen Wind Farm",
        "type": "Wind farm",
        "entity": "http://www.wikidata.org/entity/Q115794582",
        "country_qid": "Q145"
      }
    },
    {
      "type": "Feature",
      "geometry": {
        "type": "Point",
        "coordinates": [
          -3.28333,
          53.9833
        ]
      },
      "properties": {
        "label": "Barrow Offshore Wind Farm",
        "type": "Wind farm",
        "entity": "http://www.wikidata.org/entity/Q2016017",
        "country_qid": "Q145"
      }
    },
    {
      "type": "Feature",
      "geometry": {
        "type": "Point",
        "coordinates": [
          -1.98333,
          57.2167
        ]
      },
      "properties": {
        "label": "European Offshore Wind Deployment Centre",
        "type": "Wind farm",
        "entity": "http://www.wikidata.org/entity/Q17509465",
        "country_qid": "Q145"
      }
    },
    {
      "type": "Feature",
      "geometry": {
        "type": "Point",
        "coordinates": [
          0.820278,
          50.9625
        ]
      },
      "properties": {
        "label": "Little Cheyne Court Wind Farm",
        "type": "Wind farm",
        "entity": "http://www.wikidata.org/entity/Q6649514",
        "country_qid": "Q145"
      }
    },
    {
      "type": "Feature",
      "geometry": {
        "type": "Point",
        "coordinates": [
          -2.9640069,
          57.363336
        ]
      },
      "properties": {
        "label": "Clashindarroch Wind Farm",
        "type": "Wind farm",
        "entity": "http://www.wikidata.org/entity/Q114030635",
        "country_qid": "Q145"
      }
    },
    {
      "type": "Feature",
      "geometry": {
        "type": "Point",
        "coordinates": [
          -2.6908634,
          59.190597
        ]
      },
      "properties": {
        "label": "Spurness Wind Farm",
        "type": "Wind farm",
        "entity": "http://www.wikidata.org/entity/Q114030653",
        "country_qid": "Q145"
      }
    },
    {
      "type": "Feature",
      "geometry": {
        "type": "Point",
        "coordinates": [
          -3.60028,
          52.5503
        ]
      },
      "properties": {
        "label": "Carno wind farm",
        "type": "Wind farm",
        "entity": "http://www.wikidata.org/entity/Q5044153",
        "country_qid": "Q145"
      }
    },
    {
      "type": "Feature",
      "geometry": {
        "type": "Point",
        "coordinates": [
          -3.7435659,
          56.583251
        ]
      },
      "properties": {
        "label": "Griffin Wind Farm",
        "type": "Wind farm",
        "entity": "http://www.wikidata.org/entity/Q114030619",
        "country_qid": "Q145"
      }
    },
    {
      "type": "Feature",
      "geometry": {
        "type": "Point",
        "coordinates": [
          -2.8512555,
          55.805307
        ]
      },
      "properties": {
        "label": "Dun Law wind farm",
        "type": "Wind farm",
        "entity": "http://www.wikidata.org/entity/Q114030639",
        "country_qid": "Q145"
      }
    },
    {
      "type": "Feature",
      "geometry": {
        "type": "Point",
        "coordinates": [
          -4.72306,
          55.2458
        ]
      },
      "properties": {
        "label": "Hadyard Hill Wind Farm",
        "type": "Wind farm",
        "entity": "http://www.wikidata.org/entity/Q5638120",
        "country_qid": "Q145"
      }
    },
    {
      "type": "Feature",
      "geometry": {
        "type": "Point",
        "coordinates": [
          -4.25083,
          51.9733
        ]
      },
      "properties": {
        "label": "Alltwalis Wind Farm",
        "type": "Wind farm",
        "entity": "http://www.wikidata.org/entity/Q4733319",
        "country_qid": "Q145"
      }
    },
    {
      "type": "Feature",
      "geometry": {
        "type": "Point",
        "coordinates": [
          -3.5596388,
          55.244384
        ]
      },
      "properties": {
        "label": "Harestanes Wind Farm",
        "type": "Wind farm",
        "entity": "http://www.wikidata.org/entity/Q114030644",
        "country_qid": "Q145"
      }
    },
    {
      "type": "Feature",
      "geometry": {
        "type": "Point",
        "coordinates": [
          -4.64928,
          57.53186
        ]
      },
      "properties": {
        "label": "Fairburn Wind Farm",
        "type": "Wind farm",
        "entity": "http://www.wikidata.org/entity/Q115962649",
        "country_qid": "Q145"
      }
    },
    {
      "type": "Feature",
      "geometry": {
        "type": "Point",
        "coordinates": [
          -4.7633,
          54.9643
        ]
      },
      "properties": {
        "label": "Artfield Fell Wind Farm",
        "type": "Wind farm",
        "entity": "http://www.wikidata.org/entity/Q115956531",
        "country_qid": "Q145"
      }
    },
    {
      "type": "Feature",
      "geometry": {
        "type": "Point",
        "coordinates": [
          1.66694,
          52.7119
        ]
      },
      "properties": {
        "label": "Blood Hill wind farm",
        "type": "Wind farm",
        "entity": "http://www.wikidata.org/entity/Q4927617",
        "country_qid": "Q145"
      }
    },
    {
      "type": "Feature",
      "geometry": {
        "type": "Point",
        "coordinates": [
          -4.7158,
          57.2456
        ]
      },
      "properties": {
        "label": "Bhlaraidh Wind Farm",
        "type": "Wind farm",
        "entity": "http://www.wikidata.org/entity/Q115929575",
        "country_qid": "Q145"
      }
    },
    {
      "type": "Feature",
      "geometry": {
        "type": "Point",
        "coordinates": [
          -4.708,
          50.633
        ]
      },
      "properties": {
        "label": "Delabole wind farm",
        "type": "Wind farm",
        "entity": "http://www.wikidata.org/entity/Q5253056",
        "country_qid": "Q145"
      }
    },
    {
      "type": "Feature",
      "geometry": {
        "type": "Point",
        "coordinates": [
          -4.7778,
          54.9675
        ]
      },
      "properties": {
        "label": "Balmurrie Fell Wind Farm",
        "type": "Wind farm",
        "entity": "http://www.wikidata.org/entity/Q115956610",
        "country_qid": "Q145"
      }
    },
    {
      "type": "Feature",
      "geometry": {
        "type": "Point",
        "coordinates": [
          -3.65444,
          55.4672
        ]
      },
      "properties": {
        "label": "Clyde Wind Farm",
        "type": "Wind farm",
        "entity": "http://www.wikidata.org/entity/Q5137058",
        "country_qid": "Q145"
      }
    },
    {
      "type": "Feature",
      "geometry": {
        "type": "Point",
        "coordinates": [
          -0.66444444,
          52.13622222
        ]
      },
      "properties": {
        "label": "Milton Keynes Wind Farm",
        "type": "Wind farm",
        "entity": "http://www.wikidata.org/entity/Q15253429",
        "country_qid": "Q145"
      }
    },
    {
      "type": "Feature",
      "geometry": {
        "type": "Point",
        "coordinates": [
          -3.8748,
          56.5648
        ]
      },
      "properties": {
        "label": "Calliachar Wind Farm",
        "type": "Wind farm",
        "entity": "http://www.wikidata.org/entity/Q115960566",
        "country_qid": "Q145"
      }
    },
    {
      "type": "Feature",
      "geometry": {
        "type": "Point",
        "coordinates": [
          -1.14666667,
          53.11611111
        ]
      },
      "properties": {
        "label": "Lindhurst Wind Farm",
        "type": "Wind farm",
        "entity": "http://www.wikidata.org/entity/Q6552497",
        "country_qid": "Q145"
      }
    },
    {
      "type": "Feature",
      "geometry": {
        "type": "Point",
        "coordinates": [
          -6.45472,
          55.1531
        ]
      },
      "properties": {
        "label": "Garves Wind Farm",
        "type": "Wind farm",
        "entity": "http://www.wikidata.org/entity/Q5524517",
        "country_qid": "Q145"
      }
    },
    {
      "type": "Feature",
      "geometry": {
        "type": "Point",
        "coordinates": [
          -2.152,
          53.749
        ]
      },
      "properties": {
        "label": "Coal Clough Wind Farm",
        "type": "Wind farm",
        "entity": "http://www.wikidata.org/entity/Q5137710",
        "country_qid": "Q145"
      }
    },
    {
      "type": "Feature",
      "geometry": {
        "type": "Point",
        "coordinates": [
          -2.872,
          55.768
        ]
      },
      "properties": {
        "label": "Toddleburn Wind Farm",
        "type": "Wind farm",
        "entity": "http://www.wikidata.org/entity/Q115963110",
        "country_qid": "Q145"
      }
    },
    {
      "type": "Feature",
      "geometry": {
        "type": "Point",
        "coordinates": [
          -2.25194,
          53.6594
        ]
      },
      "properties": {
        "label": "Scout Moor Wind Farm",
        "type": "Wind farm",
        "entity": "http://www.wikidata.org/entity/Q3364831",
        "country_qid": "Q145"
      }
    },
    {
      "type": "Feature",
      "geometry": {
        "type": "Point",
        "coordinates": [
          -2.55,
          55.9
        ]
      },
      "properties": {
        "label": "Crystal Rig Wind Farm",
        "type": "Wind farm",
        "entity": "http://www.wikidata.org/entity/Q5191333",
        "country_qid": "Q145"
      }
    },
    {
      "type": "Feature",
      "geometry": {
        "type": "Point",
        "coordinates": [
          -3.59917,
          55.8089
        ]
      },
      "properties": {
        "label": "Pates Hill Wind Farm",
        "type": "Wind farm",
        "entity": "http://www.wikidata.org/entity/Q7144612",
        "country_qid": "Q145"
      }
    },
    {
      "type": "Feature",
      "geometry": {
        "type": "Point",
        "coordinates": [
          -3.562,
          51.711
        ]
      },
      "properties": {
        "label": "Pen y Cymoedd",
        "type": "Wind farm",
        "entity": "http://www.wikidata.org/entity/Q7162125",
        "country_qid": "Q145"
      }
    },
    {
      "type": "Feature",
      "geometry": {
        "type": "Point",
        "coordinates": [
          -4.16389,
          51.9833
        ]
      },
      "properties": {
        "label": "Brechfa Forest Wind Farm",
        "type": "Wind farm",
        "entity": "http://www.wikidata.org/entity/Q4959998",
        "country_qid": "Q145"
      }
    },
    {
      "type": "Feature",
      "geometry": {
        "type": "Point",
        "coordinates": [
          -4.285555555,
          55.672777777
        ]
      },
      "properties": {
        "label": "Whitelee Wind Farm",
        "type": "Wind farm",
        "entity": "http://www.wikidata.org/entity/Q4019566",
        "country_qid": "Q145"
      }
    },
    {
      "type": "Feature",
      "geometry": {
        "type": "Point",
        "coordinates": [
          -1.493888888,
          55.123611111
        ]
      },
      "properties": {
        "label": "Blyth Harbour Wind Farm",
        "type": "Wind farm",
        "entity": "http://www.wikidata.org/entity/Q4930858",
        "country_qid": "Q145"
      }
    },
    {
      "type": "Feature",
      "geometry": {
        "type": "Point",
        "coordinates": [
          -1.22077,
          60.3066
        ]
      },
      "properties": {
        "label": "Viking Wind Farm",
        "type": "Wind farm",
        "entity": "http://www.wikidata.org/entity/Q4141649",
        "country_qid": "Q145"
      }
    },
    {
      "type": "Feature",
      "geometry": {
        "type": "Point",
        "coordinates": [
          -4.09417,
          57.325
        ]
      },
      "properties": {
        "label": "Farr Wind Farm",
        "type": "Wind farm",
        "entity": "http://www.wikidata.org/entity/Q5436202",
        "country_qid": "Q145"
      }
    },
    {
      "type": "Feature",
      "geometry": {
        "type": "Point",
        "coordinates": [
          -3.019247,
          56.173672
        ]
      },
      "properties": {
        "label": "Methil Offshore Wind Farm",
        "type": "Wind farm",
        "entity": "http://www.wikidata.org/entity/Q4857979",
        "country_qid": "Q145"
      }
    },
    {
      "type": "Feature",
      "geometry": {
        "type": "Point",
        "coordinates": [
          -7.62,
          54.16
        ]
      },
      "properties": {
        "label": "Slieve Rushen Wind Farm",
        "type": "Wind farm",
        "entity": "http://www.wikidata.org/entity/Q7540439",
        "country_qid": "Q145"
      }
    },
    {
      "type": "Feature",
      "geometry": {
        "type": "Point",
        "coordinates": [
          -0.65,
          52.3583
        ]
      },
      "properties": {
        "label": "Burton Wold Wind Farm",
        "type": "Wind farm",
        "entity": "http://www.wikidata.org/entity/Q5000935",
        "country_qid": "Q145"
      }
    },
    {
      "type": "Feature",
      "geometry": {
        "type": "Point",
        "coordinates": [
          -1.68833,
          53.5375
        ]
      },
      "properties": {
        "label": "Royd Moor Wind Farm",
        "type": "Wind farm",
        "entity": "http://www.wikidata.org/entity/Q7375199",
        "country_qid": "Q145"
      }
    },
    {
      "type": "Feature",
      "geometry": {
        "type": "Point",
        "coordinates": [
          -1.42944,
          54.8331
        ]
      },
      "properties": {
        "label": "Great Eppleton Wind Farm",
        "type": "Wind farm",
        "entity": "http://www.wikidata.org/entity/Q5599113",
        "country_qid": "Q145"
      }
    },
    {
      "type": "Feature",
      "geometry": {
        "type": "Point",
        "coordinates": [
          -4.5206,
          58.0015
        ]
      },
      "properties": {
        "label": "Achany Wind Farm",
        "type": "Wind farm",
        "entity": "http://www.wikidata.org/entity/Q115956504",
        "country_qid": "Q145"
      }
    },
    {
      "type": "Feature",
      "geometry": {
        "type": "Point",
        "coordinates": [
          -4.8,
          55.6833
        ]
      },
      "properties": {
        "label": "Ardrossan Wind Farm",
        "type": "Wind farm",
        "entity": "http://www.wikidata.org/entity/Q4788269",
        "country_qid": "Q145"
      }
    },
    {
      "type": "Feature",
      "geometry": {
        "type": "Point",
        "coordinates": [
          -3.73889,
          55.7669
        ]
      },
      "properties": {
        "label": "Black Law Wind Farm",
        "type": "Wind farm",
        "entity": "http://www.wikidata.org/entity/Q4921161",
        "country_qid": "Q145"
      }
    },
    {
      "type": "Feature",
      "geometry": {
        "type": "Point",
        "coordinates": [
          -3.863,
          50.785
        ]
      },
      "properties": {
        "label": "Den Brook Wind Farm",
        "type": "Wind farm",
        "entity": "http://www.wikidata.org/entity/Q5256451",
        "country_qid": "Q145"
      }
    },
    {
      "type": "Feature",
      "geometry": {
        "type": "Point",
        "coordinates": [
          -1.8216,
          54.768
        ]
      },
      "properties": {
        "label": "West Durham Wind Farm",
        "type": "Wind farm",
        "entity": "http://www.wikidata.org/entity/Q7985005",
        "country_qid": "Q145"
      }
    },
    {
      "type": "Feature",
      "geometry": {
        "type": "Point",
        "coordinates": [
          -1.6672,
          54.795
        ]
      },
      "properties": {
        "label": "Langley Park Wind Farm",
        "type": "Wind farm",
        "entity": "http://www.wikidata.org/entity/Q6486290",
        "country_qid": "Q145"
      }
    },
    {
      "type": "Feature",
      "geometry": {
        "type": "Point",
        "coordinates": [
          -3.75083,
          52.405
        ]
      },
      "properties": {
        "label": "Cefn Croes Wind Farm",
        "type": "Wind farm",
        "entity": "http://www.wikidata.org/entity/Q5057256",
        "country_qid": "Q145"
      }
    },
    {
      "type": "Feature",
      "geometry": {
        "type": "Point",
        "coordinates": [
          -3.3435355,
          56.68314
        ]
      },
      "properties": {
        "label": "Drumderg wind farm",
        "type": "Wind farm",
        "entity": "http://www.wikidata.org/entity/Q114030638",
        "country_qid": "Q145"
      }
    },
    {
      "type": "Feature",
      "geometry": {
        "type": "Point",
        "coordinates": [
          -3.49694,
          54.64
        ]
      },
      "properties": {
        "label": "Winscales Moor Wind Farm",
        "type": "Wind farm",
        "entity": "http://www.wikidata.org/entity/Q8025914",
        "country_qid": "Q145"
      }
    },
    {
      "type": "Feature",
      "geometry": {
        "type": "Point",
        "coordinates": [
          -1.618,
          55.266
        ]
      },
      "properties": {
        "label": "North Steads Wind Farm",
        "type": "Wind farm",
        "entity": "http://www.wikidata.org/entity/Q107920335",
        "country_qid": "Q145"
      }
    },
    {
      "type": "Feature",
      "geometry": {
        "type": "Point",
        "coordinates": [
          -4.88222,
          55.0533
        ]
      },
      "properties": {
        "label": "Arecleoch Wind Farm",
        "type": "Wind farm",
        "entity": "http://www.wikidata.org/entity/Q4788723",
        "country_qid": "Q145"
      }
    },
    {
      "type": "Feature",
      "geometry": {
        "type": "Point",
        "coordinates": [
          -5.57611,
          55.5714
        ]
      },
      "properties": {
        "label": "Beinn an Tuirc Wind Farm",
        "type": "Wind farm",
        "entity": "http://www.wikidata.org/entity/Q4881352",
        "country_qid": "Q145"
      }
    },
    {
      "type": "Feature",
      "geometry": {
        "type": "Point",
        "coordinates": [
          -4.0154701,
          57.406964
        ]
      },
      "properties": {
        "label": "Moy Wind Farm",
        "type": "Wind farm",
        "entity": "http://www.wikidata.org/entity/Q114030651",
        "country_qid": "Q145"
      }
    },
    {
      "type": "Feature",
      "geometry": {
        "type": "Point",
        "coordinates": [
          -3.17222,
          54.1872
        ]
      },
      "properties": {
        "label": "Askam and Ireleth Wind Farm",
        "type": "Wind farm",
        "entity": "http://www.wikidata.org/entity/Q4807117",
        "country_qid": "Q145"
      }
    },
    {
      "type": "Feature",
      "geometry": {
        "type": "Point",
        "coordinates": [
          -1.41944,
          54.713
        ]
      },
      "properties": {
        "label": "Trimdon Grange Wind Farm",
        "type": "Wind farm",
        "entity": "http://www.wikidata.org/entity/Q7842154",
        "country_qid": "Q145"
      }
    },
    {
      "type": "Feature",
      "geometry": {
        "type": "Point",
        "coordinates": [
          -2.6494898,
          57.665294
        ]
      },
      "properties": {
        "label": "Boyndie Wind Farm",
        "type": "Wind farm",
        "entity": "http://www.wikidata.org/entity/Q114030626",
        "country_qid": "Q145"
      }
    },
    {
      "type": "Feature",
      "geometry": {
        "type": "Point",
        "coordinates": [
          -4.0625,
          56.2761
        ]
      },
      "properties": {
        "label": "Braes of Doune Wind Farm",
        "type": "Wind farm",
        "entity": "http://www.wikidata.org/entity/Q614982",
        "country_qid": "Q145"
      }
    },
    {
      "type": "Feature",
      "geometry": {
        "type": "Point",
        "coordinates": [
          -1.68694,
          54.8472
        ]
      },
      "properties": {
        "label": "Holmside Hall Wind Farm",
        "type": "Wind farm",
        "entity": "http://www.wikidata.org/entity/Q15224579",
        "country_qid": "Q145"
      }
    }
  ]
}