{
  "type": "FeatureCollection",
  "features": [
    {
      "type": "Feature",
      "geometry": {
        "type": "Point",
        "coordinates": [
          -64.244166,
          -31.47051
        ]
      },
      "properties": {
        "label": "Q3552632",
        "type": "Industrial building",
        "entity": "http://www.wikidata.org/entity/Q3552632",
        "country_qid": "Q414"
      }
    },
    {
      "type": "Feature",
      "geometry": {
        "type": "Point",
        "coordinates": [
          -58.4899,
          -34.5465
        ]
      },
      "properties": {
        "label": "Q5872042",
        "type": "Industrial building",
        "entity": "http://www.wikidata.org/entity/Q5872042",
        "country_qid": "Q414"
      }
    },
    {
      "type": "Feature",
      "geometry": {
        "type": "Point",
        "coordinates": [
          -58.41177,
          -34.57391
        ]
      },
      "properties": {
        "label": "Q110831836",
        "type": "Industrial building",
        "entity": "http://www.wikidata.org/entity/Q110831836",
        "country_qid": "Q414"
      }
    },
    {
      "type": "Feature",
      "geometry": {
        "type": "Point",
        "coordinates": [
          -58.186805555,
          -32.217083333
        ]
      },
      "properties": {
        "label": "Molino Forclaz",
        "type": "Industrial building",
        "entity": "http://www.wikidata.org/entity/Q6020915",
        "country_qid": "Q414"
      }
    },
    {
      "type": "Feature",
      "geometry": {
        "type": "Point",
        "coordinates": [
          -60.9456,
          -34.5806
        ]
      },
      "properties": {
        "label": "Rail Workshops of Junín",
        "type": "Industrial building",
        "entity": "http://www.wikidata.org/entity/Q6138329",
        "country_qid": "Q414"
      }
    },
    {
      "type": "Feature",
      "geometry": {
        "type": "Point",
        "coordinates": [
          -58.465161,
          -34.651371
        ]
      },
      "properties": {
        "label": "Taller Lacarra",
        "type": "Industrial building",
        "entity": "http://www.wikidata.org/entity/Q6138302",
        "country_qid": "Q414"
      }
    },
    {
      "type": "Feature",
      "geometry": {
        "type": "Point",
        "coordinates": [
          -63.787762452,
          -32.754020271
        ]
      },
      "properties": {
        "label": "Aceitera General Deheza",
        "type": "Industrial building",
        "entity": "http://www.wikidata.org/entity/Q108367045",
        "country_qid": "Q414"
      }
    },
    {
      "type": "Feature",
      "geometry": {
        "type": "Point",
        "coordinates": [
          -58.411999878,
          -34.573769183
        ]
      },
      "properties": {
        "label": "Department of Monuments and Works of Art",
        "type": "Industrial building",
        "entity": "http://www.wikidata.org/entity/Q111269884",
        "country_qid": "Q414"
      }
    },
    {
      "type": "Feature",
      "geometry": {
        "type": "Point",
        "coordinates": [
          -58.398353,
          -34.637275
        ]
      },
      "properties": {
        "label": "Q130380374",
        "type": "Industrial building",
        "entity": "http://www.wikidata.org/entity/Q130380374",
        "country_qid": "Q414"
      }
    },
    {
      "type": "Feature",
      "geometry": {
        "type": "Point",
        "coordinates": [
          -58.5608262,
          -34.4334076
        ]
      },
      "properties": {
        "label": "La Helvecia sawmill",
        "type": "Industrial building",
        "entity": "http://www.wikidata.org/entity/Q107020038",
        "country_qid": "Q414"
      }
    },
    {
      "type": "Feature",
      "geometry": {
        "type": "Point",
        "coordinates": [
          -58.466358,
          -34.551199
        ]
      },
      "properties": {
        "label": "Cochera Manuela Pedraza",
        "type": "Industrial building",
        "entity": "http://www.wikidata.org/entity/Q24663972",
        "country_qid": "Q414"
      }
    },
    {
      "type": "Feature",
      "geometry": {
        "type": "Point",
        "coordinates": [
          -57.97144,
          -34.8892
        ]
      },
      "properties": {
        "label": "Q132141879",
        "type": "Industrial building",
        "entity": "http://www.wikidata.org/entity/Q132141879",
        "country_qid": "Q414"
      }
    },
    {
      "type": "Feature",
      "geometry": {
        "type": "Point",
        "coordinates": [
          -58.394339796,
          -34.629064726
        ]
      },
      "properties": {
        "label": "Arsenal de Guerra Esteban de Luca",
        "type": "Industrial building",
        "entity": "http://www.wikidata.org/entity/Q111225953",
        "country_qid": "Q414"
      }
    },
    {
      "type": "Feature",
      "geometry": {
        "type": "Point",
        "coordinates": [
          -58.39188,
          -34.72757
        ]
      },
      "properties": {
        "label": "Q131295064",
        "type": "Industrial building",
        "entity": "http://www.wikidata.org/entity/Q131295064",
        "country_qid": "Q414"
      }
    },
    {
      "type": "Feature",
      "geometry": {
        "type": "Point",
        "coordinates": [
          -58.3503,
          -34.6261
        ]
      },
      "properties": {
        "label": "Tandanor",
        "type": "Industrial building",
        "entity": "http://www.wikidata.org/entity/Q392235",
        "country_qid": "Q414"
      }
    },
    {
      "type": "Feature",
      "geometry": {
        "type": "Point",
        "coordinates": [
          -58.38583333,
          -34.58277778
        ]
      },
      "properties": {
        "label": "Q17274738",
        "type": "Industrial building",
        "entity": "http://www.wikidata.org/entity/Q17274738",
        "country_qid": "Q414"
      }
    },
    {
      "type": "Feature",
      "geometry": {
        "type": "Point",
        "coordinates": [
          -58.54601,
          -34.45715
        ]
      },
      "properties": {
        "label": "Victoria railway workshops",
        "type": "Industrial building",
        "entity": "http://www.wikidata.org/entity/Q130354715",
        "country_qid": "Q414"
      }
    },
    {
      "type": "Feature",
      "geometry": {
        "type": "Point",
        "coordinates": [
          -58.993102425,
          -34.599236702
        ]
      },
      "properties": {
        "label": "Q127204742",
        "type": "Industrial building",
        "entity": "http://www.wikidata.org/entity/Q127204742",
        "country_qid": "Q414"
      }
    },
    {
      "type": "Feature",
      "geometry": {
        "type": "Point",
        "coordinates": [
          -62.283333333,
          -38.766666666
        ]
      },
      "properties": {
        "label": "Q133254939",
        "type": "Industrial building",
        "entity": "http://www.wikidata.org/entity/Q133254939",
        "country_qid": "Q414"
      }
    },
    {
      "type": "Feature",
      "geometry": {
        "type": "Point",
        "coordinates": [
          -65.25394,
          -26.73661
        ]
      },
      "properties": {
        "label": "Q5406431",
        "type": "Industrial building",
        "entity": "http://www.wikidata.org/entity/Q5406431",
        "country_qid": "Q414"
      }
    },
    {
      "type": "Feature",
      "geometry": {
        "type": "Point",
        "coordinates": [
          -64.9083,
          -40.7587
        ]
      },
      "properties": {
        "label": "Álcalis de la Patagonia",
        "type": "Industrial building",
        "entity": "http://www.wikidata.org/entity/Q6381632",
        "country_qid": "Q414"
      }
    },
    {
      "type": "Feature",
      "geometry": {
        "type": "Point",
        "coordinates": [
          -58.371630048,
          -34.615006702
        ]
      },
      "properties": {
        "label": "Casa de Moneda building, Monserrat",
        "type": "Industrial building",
        "entity": "http://www.wikidata.org/entity/Q5480216",
        "country_qid": "Q414"
      }
    },
    {
      "type": "Feature",
      "geometry": {
        "type": "Point",
        "coordinates": [
          -58.3616,
          -34.6137
        ]
      },
      "properties": {
        "label": "Faena Arts Center",
        "type": "Industrial building",
        "entity": "http://www.wikidata.org/entity/Q5429316",
        "country_qid": "Q414"
      }
    },
    {
      "type": "Feature",
      "geometry": {
        "type": "Point",
        "coordinates": [
          -58.699057345,
          -34.445052909
        ]
      },
      "properties": {
        "label": "Ford Motor Argentina factory",
        "type": "Industrial building",
        "entity": "http://www.wikidata.org/entity/Q99659096",
        "country_qid": "Q414"
      }
    },
    {
      "type": "Feature",
      "geometry": {
        "type": "Point",
        "coordinates": [
          -58.40409167,
          -34.61652222
        ]
      },
      "properties": {
        "label": "Brukman factory",
        "type": "Industrial building",
        "entity": "http://www.wikidata.org/entity/Q4978754",
        "country_qid": "Q414"
      }
    },
    {
      "type": "Feature",
      "geometry": {
        "type": "Point",
        "coordinates": [
          -58.371667965,
          -34.583642209
        ]
      },
      "properties": {
        "label": "Casa de Moneda building, Retiro",
        "type": "Industrial building",
        "entity": "http://www.wikidata.org/entity/Q99205129",
        "country_qid": "Q414"
      }
    },
    {
      "type": "Feature",
      "geometry": {
        "type": "Point",
        "coordinates": [
          -58.388547222,
          -34.605177777
        ]
      },
      "properties": {
        "label": "Foto Estudio Luisita",
        "type": "Industrial building",
        "entity": "http://www.wikidata.org/entity/Q109984351",
        "country_qid": "Q414"
      }
    },
    {
      "type": "Feature",
      "geometry": {
        "type": "Point",
        "coordinates": [
          -58.370880375,
          -34.615341571
        ]
      },
      "properties": {
        "label": "Casa de Moneda building annex",
        "type": "Industrial building",
        "entity": "http://www.wikidata.org/entity/Q5843719",
        "country_qid": "Q414"
      }
    },
    {
      "type": "Feature",
      "geometry": {
        "type": "Point",
        "coordinates": [
          -58.580497245,
          -34.59629718
        ]
      },
      "properties": {
        "label": "Q3552606",
        "type": "Industrial building",
        "entity": "http://www.wikidata.org/entity/Q3552606",
        "country_qid": "Q414"
      }
    }
  ]
}