{
  "type": "FeatureCollection",
  "features": [
    {
      "type": "Feature",
      "geometry": {
        "type": "Point",
        "coordinates": [
          25.983675,
          53.172939
        ]
      },
      "properties": {
        "label": "Baranavichy Machine-Tool Plant",
        "type": "Industrial building",
        "entity": "http://www.wikidata.org/entity/Q4077793",
        "country_qid": "Q184"
      }
    },
    {
      "type": "Feature",
      "geometry": {
        "type": "Point",
        "coordinates": [
          27.928,
          53.132
        ]
      },
      "properties": {
        "label": "Q13032833",
        "type": "Industrial building",
        "entity": "http://www.wikidata.org/entity/Q13032833",
        "country_qid": "Q184"
      }
    },
    {
      "type": "Feature",
      "geometry": {
        "type": "Point",
        "coordinates": [
          32.157008,
          53.2833
        ]
      },
      "properties": {
        "label": "Brewery of Ciechanowieccy in Kaničy",
        "type": "Industrial building",
        "entity": "http://www.wikidata.org/entity/Q106315821",
        "country_qid": "Q184"
      }
    },
    {
      "type": "Feature",
      "geometry": {
        "type": "Point",
        "coordinates": [
          30.991348,
          52.43082
        ]
      },
      "properties": {
        "label": "Q104904960",
        "type": "Industrial building",
        "entity": "http://www.wikidata.org/entity/Q104904960",
        "country_qid": "Q184"
      }
    },
    {
      "type": "Feature",
      "geometry": {
        "type": "Point",
        "coordinates": [
          27.9023,
          52.3584
        ]
      },
      "properties": {
        "label": "Q38451184",
        "type": "Industrial building",
        "entity": "http://www.wikidata.org/entity/Q38451184",
        "country_qid": "Q184"
      }
    },
    {
      "type": "Feature",
      "geometry": {
        "type": "Point",
        "coordinates": [
          30.987781,
          52.43613
        ]
      },
      "properties": {
        "label": "Homieĺ railway workshop",
        "type": "Industrial building",
        "entity": "http://www.wikidata.org/entity/Q4142918",
        "country_qid": "Q184"
      }
    },
    {
      "type": "Feature",
      "geometry": {
        "type": "Point",
        "coordinates": [
          27.37091,
          53.830166
        ]
      },
      "properties": {
        "label": "Windmill from Damatkanavičy",
        "type": "Industrial building",
        "entity": "http://www.wikidata.org/entity/Q22920508",
        "country_qid": "Q184"
      }
    },
    {
      "type": "Feature",
      "geometry": {
        "type": "Point",
        "coordinates": [
          27.544441,
          52.793071
        ]
      },
      "properties": {
        "label": "Q105364893",
        "type": "Industrial building",
        "entity": "http://www.wikidata.org/entity/Q105364893",
        "country_qid": "Q184"
      }
    },
    {
      "type": "Feature",
      "geometry": {
        "type": "Point",
        "coordinates": [
          27.378361,
          53.828044
        ]
      },
      "properties": {
        "label": "Windmill from Zielianiec",
        "type": "Industrial building",
        "entity": "http://www.wikidata.org/entity/Q61823240",
        "country_qid": "Q184"
      }
    },
    {
      "type": "Feature",
      "geometry": {
        "type": "Point",
        "coordinates": [
          28.51771,
          54.22959
        ]
      },
      "properties": {
        "label": "Barysaŭ factory of musical instruments",
        "type": "Industrial building",
        "entity": "http://www.wikidata.org/entity/Q55110117",
        "country_qid": "Q184"
      }
    },
    {
      "type": "Feature",
      "geometry": {
        "type": "Point",
        "coordinates": [
          29.313154,
          52.138888
        ]
      },
      "properties": {
        "label": "Kalinkavičy",
        "type": "Industrial building",
        "entity": "http://www.wikidata.org/entity/Q4209702",
        "country_qid": "Q184"
      }
    },
    {
      "type": "Feature",
      "geometry": {
        "type": "Point",
        "coordinates": [
          32.0139,
          53.3919
        ]
      },
      "properties": {
        "label": "Belarusian cement plant",
        "type": "Industrial building",
        "entity": "http://www.wikidata.org/entity/Q63124809",
        "country_qid": "Q184"
      }
    },
    {
      "type": "Feature",
      "geometry": {
        "type": "Point",
        "coordinates": [
          23.717,
          52.08794
        ]
      },
      "properties": {
        "label": "Brest furniture factory",
        "type": "Industrial building",
        "entity": "http://www.wikidata.org/entity/Q63967141",
        "country_qid": "Q184"
      }
    },
    {
      "type": "Feature",
      "geometry": {
        "type": "Point",
        "coordinates": [
          27.672972222,
          53.596666666
        ]
      },
      "properties": {
        "label": "Windmill in Dudutki",
        "type": "Industrial building",
        "entity": "http://www.wikidata.org/entity/Q56305114",
        "country_qid": "Q184"
      }
    },
    {
      "type": "Feature",
      "geometry": {
        "type": "Point",
        "coordinates": [
          30.3383,
          53.9262
        ]
      },
      "properties": {
        "label": "Mahilyow train station",
        "type": "Industrial building",
        "entity": "http://www.wikidata.org/entity/Q11297052",
        "country_qid": "Q184"
      }
    },
    {
      "type": "Feature",
      "geometry": {
        "type": "Point",
        "coordinates": [
          26.5161,
          53.31118
        ]
      },
      "properties": {
        "label": "Gorodeyskiy sugar factory",
        "type": "Industrial building",
        "entity": "http://www.wikidata.org/entity/Q13030342",
        "country_qid": "Q184"
      }
    },
    {
      "type": "Feature",
      "geometry": {
        "type": "Point",
        "coordinates": [
          25.5046,
          53.7187
        ]
      },
      "properties": {
        "label": "Glassworks \"Neman\"",
        "type": "Industrial building",
        "entity": "http://www.wikidata.org/entity/Q9295212",
        "country_qid": "Q184"
      }
    },
    {
      "type": "Feature",
      "geometry": {
        "type": "Point",
        "coordinates": [
          27.522,
          53.921
        ]
      },
      "properties": {
        "label": "Q28608561",
        "type": "Industrial building",
        "entity": "http://www.wikidata.org/entity/Q28608561",
        "country_qid": "Q184"
      }
    },
    {
      "type": "Feature",
      "geometry": {
        "type": "Point",
        "coordinates": [
          26.042694,
          53.129327
        ]
      },
      "properties": {
        "label": "Q113866823",
        "type": "Industrial building",
        "entity": "http://www.wikidata.org/entity/Q113866823",
        "country_qid": "Q184"
      }
    },
    {
      "type": "Feature",
      "geometry": {
        "type": "Point",
        "coordinates": [
          27.63878,
          53.873408
        ]
      },
      "properties": {
        "label": "Q85832560",
        "type": "Industrial building",
        "entity": "http://www.wikidata.org/entity/Q85832560",
        "country_qid": "Q184"
      }
    },
    {
      "type": "Feature",
      "geometry": {
        "type": "Point",
        "coordinates": [
          27.643039,
          53.871975
        ]
      },
      "properties": {
        "label": "Q85832709",
        "type": "Industrial building",
        "entity": "http://www.wikidata.org/entity/Q85832709",
        "country_qid": "Q184"
      }
    },
    {
      "type": "Feature",
      "geometry": {
        "type": "Point",
        "coordinates": [
          26.8738,
          54.3235
        ]
      },
      "properties": {
        "label": "Molodechno Machine Tool Plant",
        "type": "Industrial building",
        "entity": "http://www.wikidata.org/entity/Q4300604",
        "country_qid": "Q184"
      }
    },
    {
      "type": "Feature",
      "geometry": {
        "type": "Point",
        "coordinates": [
          26.705333333,
          50.994111111
        ]
      },
      "properties": {
        "label": "Q16570659",
        "type": "Industrial building",
        "entity": "http://www.wikidata.org/entity/Q16570659",
        "country_qid": "Q184"
      }
    },
    {
      "type": "Feature",
      "geometry": {
        "type": "Point",
        "coordinates": [
          29.01177,
          53.39193
        ]
      },
      "properties": {
        "label": "Q63124776",
        "type": "Industrial building",
        "entity": "http://www.wikidata.org/entity/Q63124776",
        "country_qid": "Q184"
      }
    },
    {
      "type": "Feature",
      "geometry": {
        "type": "Point",
        "coordinates": [
          27.561667,
          53.881111
        ]
      },
      "properties": {
        "label": "Modum",
        "type": "Industrial building",
        "entity": "http://www.wikidata.org/entity/Q53439514",
        "country_qid": "Q184"
      }
    },
    {
      "type": "Feature",
      "geometry": {
        "type": "Point",
        "coordinates": [
          30.424083,
          52.369621
        ]
      },
      "properties": {
        "label": "Rechickij metiznyj zavod",
        "type": "Industrial building",
        "entity": "http://www.wikidata.org/entity/Q22250120",
        "country_qid": "Q184"
      }
    },
    {
      "type": "Feature",
      "geometry": {
        "type": "Point",
        "coordinates": [
          31.928611,
          53.589722
        ]
      },
      "properties": {
        "label": "Q59452473",
        "type": "Industrial building",
        "entity": "http://www.wikidata.org/entity/Q59452473",
        "country_qid": "Q184"
      }
    },
    {
      "type": "Feature",
      "geometry": {
        "type": "Point",
        "coordinates": [
          29.534826502,
          52.620050223
        ]
      },
      "properties": {
        "label": "Q107503425",
        "type": "Industrial building",
        "entity": "http://www.wikidata.org/entity/Q107503425",
        "country_qid": "Q184"
      }
    },
    {
      "type": "Feature",
      "geometry": {
        "type": "Point",
        "coordinates": [
          30.223058224,
          55.191674559
        ]
      },
      "properties": {
        "label": "Vicebsk tram depot",
        "type": "Industrial building",
        "entity": "http://www.wikidata.org/entity/Q124336649",
        "country_qid": "Q184"
      }
    },
    {
      "type": "Feature",
      "geometry": {
        "type": "Point",
        "coordinates": [
          30.417,
          54.513
        ]
      },
      "properties": {
        "label": "Q13028548",
        "type": "Industrial building",
        "entity": "http://www.wikidata.org/entity/Q13028548",
        "country_qid": "Q184"
      }
    },
    {
      "type": "Feature",
      "geometry": {
        "type": "Point",
        "coordinates": [
          30.30685,
          53.91768
        ]
      },
      "properties": {
        "label": "Mahilioŭ Shoe Factory",
        "type": "Industrial building",
        "entity": "http://www.wikidata.org/entity/Q94633854",
        "country_qid": "Q184"
      }
    },
    {
      "type": "Feature",
      "geometry": {
        "type": "Point",
        "coordinates": [
          30.204458888,
          55.193108888
        ]
      },
      "properties": {
        "label": "Q104738254",
        "type": "Industrial building",
        "entity": "http://www.wikidata.org/entity/Q104738254",
        "country_qid": "Q184"
      }
    },
    {
      "type": "Feature",
      "geometry": {
        "type": "Point",
        "coordinates": [
          29.223889,
          53.166944
        ]
      },
      "properties": {
        "label": "Q58668339",
        "type": "Industrial building",
        "entity": "http://www.wikidata.org/entity/Q58668339",
        "country_qid": "Q184"
      }
    },
    {
      "type": "Feature",
      "geometry": {
        "type": "Point",
        "coordinates": [
          27.550527777,
          53.901055555
        ]
      },
      "properties": {
        "label": "Depot of the Minsk Voluntary Fire Brigade",
        "type": "Industrial building",
        "entity": "http://www.wikidata.org/entity/Q29388749",
        "country_qid": "Q184"
      }
    },
    {
      "type": "Feature",
      "geometry": {
        "type": "Point",
        "coordinates": [
          27.372413,
          53.82939
        ]
      },
      "properties": {
        "label": "Forge from Kločkava",
        "type": "Industrial building",
        "entity": "http://www.wikidata.org/entity/Q22920405",
        "country_qid": "Q184"
      }
    },
    {
      "type": "Feature",
      "geometry": {
        "type": "Point",
        "coordinates": [
          30.33585,
          53.89953
        ]
      },
      "properties": {
        "label": "Fire station in Mahilioŭ",
        "type": "Industrial building",
        "entity": "http://www.wikidata.org/entity/Q95389574",
        "country_qid": "Q184"
      }
    },
    {
      "type": "Feature",
      "geometry": {
        "type": "Point",
        "coordinates": [
          29.230909,
          53.132765
        ]
      },
      "properties": {
        "label": "Q59739548",
        "type": "Industrial building",
        "entity": "http://www.wikidata.org/entity/Q59739548",
        "country_qid": "Q184"
      }
    },
    {
      "type": "Feature",
      "geometry": {
        "type": "Point",
        "coordinates": [
          30.34311,
          53.90003
        ]
      },
      "properties": {
        "label": "Q98461191",
        "type": "Industrial building",
        "entity": "http://www.wikidata.org/entity/Q98461191",
        "country_qid": "Q184"
      }
    },
    {
      "type": "Feature",
      "geometry": {
        "type": "Point",
        "coordinates": [
          27.55545,
          53.02445
        ]
      },
      "properties": {
        "label": "Museum of Sashes",
        "type": "Industrial building",
        "entity": "http://www.wikidata.org/entity/Q24450584",
        "country_qid": "Q184"
      }
    },
    {
      "type": "Feature",
      "geometry": {
        "type": "Point",
        "coordinates": [
          27.21,
          53.638611
        ]
      },
      "properties": {
        "label": "Precise Electromechanics Factory",
        "type": "Industrial building",
        "entity": "http://www.wikidata.org/entity/Q65179245",
        "country_qid": "Q184"
      }
    },
    {
      "type": "Feature",
      "geometry": {
        "type": "Point",
        "coordinates": [
          27.286933,
          54.00797
        ]
      },
      "properties": {
        "label": "Q52234555",
        "type": "Industrial building",
        "entity": "http://www.wikidata.org/entity/Q52234555",
        "country_qid": "Q184"
      }
    },
    {
      "type": "Feature",
      "geometry": {
        "type": "Point",
        "coordinates": [
          25.34328,
          53.09505
        ]
      },
      "properties": {
        "label": "Slonim train station",
        "type": "Industrial building",
        "entity": "http://www.wikidata.org/entity/Q20677624",
        "country_qid": "Q184"
      }
    },
    {
      "type": "Feature",
      "geometry": {
        "type": "Point",
        "coordinates": [
          27.5763,
          53.8958
        ]
      },
      "properties": {
        "label": "Kiraŭ Machine Tool Plant",
        "type": "Industrial building",
        "entity": "http://www.wikidata.org/entity/Q29113418",
        "country_qid": "Q184"
      }
    },
    {
      "type": "Feature",
      "geometry": {
        "type": "Point",
        "coordinates": [
          30.16698,
          55.179554
        ]
      },
      "properties": {
        "label": "Q131056927",
        "type": "Industrial building",
        "entity": "http://www.wikidata.org/entity/Q131056927",
        "country_qid": "Q184"
      }
    },
    {
      "type": "Feature",
      "geometry": {
        "type": "Point",
        "coordinates": [
          23.68597,
          52.09897
        ]
      },
      "properties": {
        "label": "Brest Distillery",
        "type": "Industrial building",
        "entity": "http://www.wikidata.org/entity/Q56247879",
        "country_qid": "Q184"
      }
    },
    {
      "type": "Feature",
      "geometry": {
        "type": "Point",
        "coordinates": [
          27.5738382,
          53.8909866
        ]
      },
      "properties": {
        "label": "Q64438345",
        "type": "Industrial building",
        "entity": "http://www.wikidata.org/entity/Q64438345",
        "country_qid": "Q184"
      }
    },
    {
      "type": "Feature",
      "geometry": {
        "type": "Point",
        "coordinates": [
          30.1857,
          55.1949
        ]
      },
      "properties": {
        "label": "Viciebsk railway station",
        "type": "Industrial building",
        "entity": "http://www.wikidata.org/entity/Q31165019",
        "country_qid": "Q184"
      }
    },
    {
      "type": "Feature",
      "geometry": {
        "type": "Point",
        "coordinates": [
          23.68049,
          52.10044
        ]
      },
      "properties": {
        "label": "Q28380396",
        "type": "Industrial building",
        "entity": "http://www.wikidata.org/entity/Q28380396",
        "country_qid": "Q184"
      }
    },
    {
      "type": "Feature",
      "geometry": {
        "type": "Point",
        "coordinates": [
          27.8502321,
          54.2010162
        ]
      },
      "properties": {
        "label": "Lahojsk weaving factory",
        "type": "Industrial building",
        "entity": "http://www.wikidata.org/entity/Q6505279",
        "country_qid": "Q184"
      }
    },
    {
      "type": "Feature",
      "geometry": {
        "type": "Point",
        "coordinates": [
          30.9212,
          52.4498
        ]
      },
      "properties": {
        "label": "Gomel Maltal and Normal Molders Plant",
        "type": "Industrial building",
        "entity": "http://www.wikidata.org/entity/Q56245448",
        "country_qid": "Q184"
      }
    },
    {
      "type": "Feature",
      "geometry": {
        "type": "Point",
        "coordinates": [
          27.736777777,
          55.834208333
        ]
      },
      "properties": {
        "label": "Q13033408",
        "type": "Industrial building",
        "entity": "http://www.wikidata.org/entity/Q13033408",
        "country_qid": "Q184"
      }
    },
    {
      "type": "Feature",
      "geometry": {
        "type": "Point",
        "coordinates": [
          32.049511,
          53.341382
        ]
      },
      "properties": {
        "label": "Q106435955",
        "type": "Industrial building",
        "entity": "http://www.wikidata.org/entity/Q106435955",
        "country_qid": "Q184"
      }
    },
    {
      "type": "Feature",
      "geometry": {
        "type": "Point",
        "coordinates": [
          30.339763,
          52.368374
        ]
      },
      "properties": {
        "label": "Ritm",
        "type": "Industrial building",
        "entity": "http://www.wikidata.org/entity/Q131905455",
        "country_qid": "Q184"
      }
    },
    {
      "type": "Feature",
      "geometry": {
        "type": "Point",
        "coordinates": [
          27.529833333,
          53.995416666
        ]
      },
      "properties": {
        "label": "Minsk-Severnaya substation",
        "type": "Industrial building",
        "entity": "http://www.wikidata.org/entity/Q113495168",
        "country_qid": "Q184"
      }
    },
    {
      "type": "Feature",
      "geometry": {
        "type": "Point",
        "coordinates": [
          27.862708333,
          55.351772222
        ]
      },
      "properties": {
        "label": "Watermill in Lužki",
        "type": "Industrial building",
        "entity": "http://www.wikidata.org/entity/Q18147392",
        "country_qid": "Q184"
      }
    },
    {
      "type": "Feature",
      "geometry": {
        "type": "Point",
        "coordinates": [
          27.211859,
          55.144177
        ]
      },
      "properties": {
        "label": "Q109659141",
        "type": "Industrial building",
        "entity": "http://www.wikidata.org/entity/Q109659141",
        "country_qid": "Q184"
      }
    },
    {
      "type": "Feature",
      "geometry": {
        "type": "Point",
        "coordinates": [
          26.841746,
          55.113141
        ]
      },
      "properties": {
        "label": "Watermill in Pastavy",
        "type": "Industrial building",
        "entity": "http://www.wikidata.org/entity/Q18147453",
        "country_qid": "Q184"
      }
    },
    {
      "type": "Feature",
      "geometry": {
        "type": "Point",
        "coordinates": [
          26.232192,
          54.804967
        ]
      },
      "properties": {
        "label": "Q109658903",
        "type": "Industrial building",
        "entity": "http://www.wikidata.org/entity/Q109658903",
        "country_qid": "Q184"
      }
    },
    {
      "type": "Feature",
      "geometry": {
        "type": "Point",
        "coordinates": [
          30.379986,
          53.908718
        ]
      },
      "properties": {
        "label": "Technopribor",
        "type": "Industrial building",
        "entity": "http://www.wikidata.org/entity/Q132578171",
        "country_qid": "Q184"
      }
    },
    {
      "type": "Feature",
      "geometry": {
        "type": "Point",
        "coordinates": [
          29.235,
          52.046666666
        ]
      },
      "properties": {
        "label": "Mazyr Dairy Products",
        "type": "Industrial building",
        "entity": "http://www.wikidata.org/entity/Q110506036",
        "country_qid": "Q184"
      }
    },
    {
      "type": "Feature",
      "geometry": {
        "type": "Point",
        "coordinates": [
          24.478555,
          52.562053
        ]
      },
      "properties": {
        "label": "Pružany Radio Component Plant",
        "type": "Industrial building",
        "entity": "http://www.wikidata.org/entity/Q132158036",
        "country_qid": "Q184"
      }
    }
  ]
}