{
  "type": "FeatureCollection",
  "features": [
    {
      "type": "Feature",
      "geometry": {
        "type": "Point",
        "coordinates": [
          18.419333333,
          -33.907055555
        ]
      },
      "properties": {
        "label": "Robinson Dry Dock",
        "type": "Industrial building",
        "entity": "http://www.wikidata.org/entity/Q55594395",
        "country_qid": "Q258"
      }
    },
    {
      "type": "Feature",
      "geometry": {
        "type": "Point",
        "coordinates": [
          28.0345,
          -26.2032
        ]
      },
      "properties": {
        "label": "Turbine Hall",
        "type": "Industrial building",
        "entity": "http://www.wikidata.org/entity/Q133843661",
        "country_qid": "Q258"
      }
    },
    {
      "type": "Feature",
      "geometry": {
        "type": "Point",
        "coordinates": [
          30.96612,
          -29.97174
        ]
      },
      "properties": {
        "label": "Sapref oil refinery",
        "type": "Industrial building",
        "entity": "http://www.wikidata.org/entity/Q131757270",
        "country_qid": "Q258"
      }
    },
    {
      "type": "Feature",
      "geometry": {
        "type": "Point",
        "coordinates": [
          29.46967,
          -25.77391
        ]
      },
      "properties": {
        "label": "Middelburg railway station",
        "type": "Industrial building",
        "entity": "http://www.wikidata.org/entity/Q94607687",
        "country_qid": "Q258"
      }
    },
    {
      "type": "Feature",
      "geometry": {
        "type": "Point",
        "coordinates": [
          28.155,
          -26.218889
        ]
      },
      "properties": {
        "label": "Rand Refinery",
        "type": "Industrial building",
        "entity": "http://www.wikidata.org/entity/Q7291434",
        "country_qid": "Q258"
      }
    },
    {
      "type": "Feature",
      "geometry": {
        "type": "Point",
        "coordinates": [
          27.084166666,
          -28.943333333
        ]
      },
      "properties": {
        "label": "Merapi substation",
        "type": "Industrial building",
        "entity": "http://www.wikidata.org/entity/Q55214975",
        "country_qid": "Q258"
      }
    },
    {
      "type": "Feature",
      "geometry": {
        "type": "Point",
        "coordinates": [
          28.0472,
          -26.1824
        ]
      },
      "properties": {
        "label": "Berea Fire Station",
        "type": "Industrial building",
        "entity": "http://www.wikidata.org/entity/Q18110398",
        "country_qid": "Q258"
      }
    },
    {
      "type": "Feature",
      "geometry": {
        "type": "Point",
        "coordinates": [
          20.8475,
          -34.396666666
        ]
      },
      "properties": {
        "label": "Witsand Solar Desalination Plant",
        "type": "Industrial building",
        "entity": "http://www.wikidata.org/entity/Q55886599",
        "country_qid": "Q258"
      }
    },
    {
      "type": "Feature",
      "geometry": {
        "type": "Point",
        "coordinates": [
          28.15611111,
          -25.9075
        ]
      },
      "properties": {
        "label": "South African Mint",
        "type": "Industrial building",
        "entity": "http://www.wikidata.org/entity/Q7565734",
        "country_qid": "Q258"
      }
    },
    {
      "type": "Feature",
      "geometry": {
        "type": "Point",
        "coordinates": [
          30.98419,
          -29.9491
        ]
      },
      "properties": {
        "label": "Engen refinery",
        "type": "Industrial building",
        "entity": "http://www.wikidata.org/entity/Q121308044",
        "country_qid": "Q258"
      }
    },
    {
      "type": "Feature",
      "geometry": {
        "type": "Point",
        "coordinates": [
          18.482342,
          -33.932557
        ]
      },
      "properties": {
        "label": "De Nieuwe Molen",
        "type": "Industrial building",
        "entity": "http://www.wikidata.org/entity/Q16736574",
        "country_qid": "Q258"
      }
    },
    {
      "type": "Feature",
      "geometry": {
        "type": "Point",
        "coordinates": [
          18.63917,
          -33.83236
        ]
      },
      "properties": {
        "label": "Onze Molen, Durbanville",
        "type": "Industrial building",
        "entity": "http://www.wikidata.org/entity/Q16736575",
        "country_qid": "Q258"
      }
    },
    {
      "type": "Feature",
      "geometry": {
        "type": "Point",
        "coordinates": [
          29.16575,
          -26.553694444
        ]
      },
      "properties": {
        "label": "Secunda CTL",
        "type": "Industrial building",
        "entity": "http://www.wikidata.org/entity/Q2369624",
        "country_qid": "Q258"
      }
    },
    {
      "type": "Feature",
      "geometry": {
        "type": "Point",
        "coordinates": [
          28.237799,
          -25.5553
        ]
      },
      "properties": {
        "label": "Rooiwal Power Station",
        "type": "Industrial building",
        "entity": "http://www.wikidata.org/entity/Q56374108",
        "country_qid": "Q258"
      }
    },
    {
      "type": "Feature",
      "geometry": {
        "type": "Point",
        "coordinates": [
          18.466166666,
          -33.952111111
        ]
      },
      "properties": {
        "label": "Mostert's Mill",
        "type": "Industrial building",
        "entity": "http://www.wikidata.org/entity/Q6916927",
        "country_qid": "Q258"
      }
    }
  ]
}