{
  "type": "FeatureCollection",
  "features": [
    {
      "type": "Feature",
      "geometry": {
        "type": "Point",
        "coordinates": [
          -79.7346,
          43.3949
        ]
      },
      "properties": {
        "label": "Oakville Refinery",
        "type": "Oil refinery",
        "entity": "http://www.wikidata.org/entity/Q7074257",
        "country_qid": "Q16"
      }
    },
    {
      "type": "Feature",
      "geometry": {
        "type": "Point",
        "coordinates": [
          -66.0125,
          45.27888889
        ]
      },
      "properties": {
        "label": "Irving Oil Refinery",
        "type": "Oil refinery",
        "entity": "http://www.wikidata.org/entity/Q6074708",
        "country_qid": "Q16"
      }
    },
    {
      "type": "Feature",
      "geometry": {
        "type": "Point",
        "coordinates": [
          -113.392,
          53.5461
        ]
      },
      "properties": {
        "label": "Strathcona Refinery",
        "type": "Oil refinery",
        "entity": "http://www.wikidata.org/entity/Q7622084",
        "country_qid": "Q16"
      }
    },
    {
      "type": "Feature",
      "geometry": {
        "type": "Point",
        "coordinates": [
          -80.0458,
          42.8329
        ]
      },
      "properties": {
        "label": "Nanticoke Refinery",
        "type": "Oil refinery",
        "entity": "http://www.wikidata.org/entity/Q6964327",
        "country_qid": "Q16"
      }
    },
    {
      "type": "Feature",
      "geometry": {
        "type": "Point",
        "coordinates": [
          -73.5303,
          45.6253
        ]
      },
      "properties": {
        "label": "Montreal East Refinery",
        "type": "Oil refinery",
        "entity": "http://www.wikidata.org/entity/Q3417394",
        "country_qid": "Q16"
      }
    },
    {
      "type": "Feature",
      "geometry": {
        "type": "Point",
        "coordinates": [
          -73.5226,
          45.6337
        ]
      },
      "properties": {
        "label": "Montreal East Refinery",
        "type": "Oil refinery",
        "entity": "http://www.wikidata.org/entity/Q6906275",
        "country_qid": "Q16"
      }
    },
    {
      "type": "Feature",
      "geometry": {
        "type": "Point",
        "coordinates": [
          -79.590245,
          43.54461
        ]
      },
      "properties": {
        "label": "Port Credit Oil Refinery",
        "type": "Oil refinery",
        "entity": "http://www.wikidata.org/entity/Q122979739",
        "country_qid": "Q16"
      }
    },
    {
      "type": "Feature",
      "geometry": {
        "type": "Point",
        "coordinates": [
          -53.99583333,
          47.79916667
        ]
      },
      "properties": {
        "label": "Come By Chance Refinery",
        "type": "Oil refinery",
        "entity": "http://www.wikidata.org/entity/Q5151115",
        "country_qid": "Q16"
      }
    },
    {
      "type": "Feature",
      "geometry": {
        "type": "Point",
        "coordinates": [
          -79.722,
          43.3816
        ]
      },
      "properties": {
        "label": "Oakville Refinery",
        "type": "Oil refinery",
        "entity": "http://www.wikidata.org/entity/Q7074258",
        "country_qid": "Q16"
      }
    },
    {
      "type": "Feature",
      "geometry": {
        "type": "Point",
        "coordinates": [
          -122.99666667,
          49.29083333
        ]
      },
      "properties": {
        "label": "Burnaby Refinery",
        "type": "Oil refinery",
        "entity": "http://www.wikidata.org/entity/Q4999598",
        "country_qid": "Q16"
      }
    },
    {
      "type": "Feature",
      "geometry": {
        "type": "Point",
        "coordinates": [
          -104.5747,
          50.4854
        ]
      },
      "properties": {
        "label": "CCRL Refinery Complex",
        "type": "Oil refinery",
        "entity": "http://www.wikidata.org/entity/Q5009703",
        "country_qid": "Q16"
      }
    },
    {
      "type": "Feature",
      "geometry": {
        "type": "Point",
        "coordinates": [
          -71.1957,
          46.7566
        ]
      },
      "properties": {
        "label": "Jean Gaulin Refinery",
        "type": "Oil refinery",
        "entity": "http://www.wikidata.org/entity/Q115678044",
        "country_qid": "Q16"
      }
    },
    {
      "type": "Feature",
      "geometry": {
        "type": "Point",
        "coordinates": [
          -73.5224,
          45.6438
        ]
      },
      "properties": {
        "label": "Montreal Refinery",
        "type": "Oil refinery",
        "entity": "http://www.wikidata.org/entity/Q6906318",
        "country_qid": "Q16"
      }
    },
    {
      "type": "Feature",
      "geometry": {
        "type": "Point",
        "coordinates": [
          -82.439921,
          42.931323
        ]
      },
      "properties": {
        "label": "Sarnia Refinery - Sunoco & Suncor",
        "type": "Oil refinery",
        "entity": "http://www.wikidata.org/entity/Q130782325",
        "country_qid": "Q16"
      }
    },
    {
      "type": "Feature",
      "geometry": {
        "type": "Point",
        "coordinates": [
          -110.0197,
          53.2896
        ]
      },
      "properties": {
        "label": "Husky Lloydminster Refinery",
        "type": "Oil refinery",
        "entity": "http://www.wikidata.org/entity/Q5949397",
        "country_qid": "Q16"
      }
    },
    {
      "type": "Feature",
      "geometry": {
        "type": "Point",
        "coordinates": [
          -114.269228,
          50.671279
        ]
      },
      "properties": {
        "label": "Turner Valley Gas Plant",
        "type": "Oil refinery",
        "entity": "http://www.wikidata.org/entity/Q23706051",
        "country_qid": "Q16"
      }
    }
  ]
}