{
  "type": "FeatureCollection",
  "features": [
    {
      "type": "Feature",
      "geometry": {
        "type": "Point",
        "coordinates": [
          72.860086,
          19.011939
        ]
      },
      "properties": {
        "label": "Mumbai Refinery Mahul",
        "type": "Oil refinery",
        "entity": "http://www.wikidata.org/entity/Q6935320",
        "country_qid": "Q668"
      }
    },
    {
      "type": "Feature",
      "geometry": {
        "type": "Point",
        "coordinates": [
          95.61861111,
          27.39083333
        ]
      },
      "properties": {
        "label": "Digboi Refinery",
        "type": "Oil refinery",
        "entity": "http://www.wikidata.org/entity/Q5275564",
        "country_qid": "Q668"
      }
    },
    {
      "type": "Feature",
      "geometry": {
        "type": "Point",
        "coordinates": [
          86.598194444,
          20.247638888
        ]
      },
      "properties": {
        "label": "Paradip Refinery",
        "type": "Oil refinery",
        "entity": "http://www.wikidata.org/entity/Q7134170",
        "country_qid": "Q668"
      }
    },
    {
      "type": "Feature",
      "geometry": {
        "type": "Point",
        "coordinates": [
          74.951944444,
          30.23
        ]
      },
      "properties": {
        "label": "Guru Gobind Singh Refinery",
        "type": "Oil refinery",
        "entity": "http://www.wikidata.org/entity/Q5620369",
        "country_qid": "Q668"
      }
    },
    {
      "type": "Feature",
      "geometry": {
        "type": "Point",
        "coordinates": [
          80.277527777,
          13.160444444
        ]
      },
      "properties": {
        "label": "Manali Refinery",
        "type": "Oil refinery",
        "entity": "http://www.wikidata.org/entity/Q113987261",
        "country_qid": "Q668"
      }
    },
    {
      "type": "Feature",
      "geometry": {
        "type": "Point",
        "coordinates": [
          78.1587,
          24.2515
        ]
      },
      "properties": {
        "label": "Bina Refinery",
        "type": "Oil refinery",
        "entity": "http://www.wikidata.org/entity/Q17018647",
        "country_qid": "Q668"
      }
    },
    {
      "type": "Feature",
      "geometry": {
        "type": "Point",
        "coordinates": [
          85.987,
          25.466
        ]
      },
      "properties": {
        "label": "Barauni Refinery",
        "type": "Oil refinery",
        "entity": "http://www.wikidata.org/entity/Q4858511",
        "country_qid": "Q668"
      }
    },
    {
      "type": "Feature",
      "geometry": {
        "type": "Point",
        "coordinates": [
          88.13333333,
          22.03333333
        ]
      },
      "properties": {
        "label": "Haldia Refinery",
        "type": "Oil refinery",
        "entity": "http://www.wikidata.org/entity/Q5641276",
        "country_qid": "Q668"
      }
    },
    {
      "type": "Feature",
      "geometry": {
        "type": "Point",
        "coordinates": [
          90.53166667,
          26.51583333
        ]
      },
      "properties": {
        "label": "Bongaigaon Refinery",
        "type": "Oil refinery",
        "entity": "http://www.wikidata.org/entity/Q4941822",
        "country_qid": "Q668"
      }
    },
    {
      "type": "Feature",
      "geometry": {
        "type": "Point",
        "coordinates": [
          69.74722222,
          22.33166667
        ]
      },
      "properties": {
        "label": "Essar Refinery",
        "type": "Oil refinery",
        "entity": "http://www.wikidata.org/entity/Q12417189",
        "country_qid": "Q668"
      }
    },
    {
      "type": "Feature",
      "geometry": {
        "type": "Point",
        "coordinates": [
          72.203672,
          25.94364
        ]
      },
      "properties": {
        "label": "Pachpadra Refinery",
        "type": "Oil refinery",
        "entity": "http://www.wikidata.org/entity/Q61268627",
        "country_qid": "Q668"
      }
    },
    {
      "type": "Feature",
      "geometry": {
        "type": "Point",
        "coordinates": [
          76.87225,
          29.470944444
        ]
      },
      "properties": {
        "label": "Panipat Refinery",
        "type": "Oil refinery",
        "entity": "http://www.wikidata.org/entity/Q7131186",
        "country_qid": "Q668"
      }
    },
    {
      "type": "Feature",
      "geometry": {
        "type": "Point",
        "coordinates": [
          77.686444444,
          27.378305555
        ]
      },
      "properties": {
        "label": "Mathura Refinery",
        "type": "Oil refinery",
        "entity": "http://www.wikidata.org/entity/Q15982506",
        "country_qid": "Q668"
      }
    }
  ]
}