{
  "type": "FeatureCollection",
  "features": [
    {
      "type": "Feature",
      "geometry": {
        "type": "Point",
        "coordinates": [
          12.571,
          55.4646
        ]
      },
      "properties": {
        "label": "Aflandshage wind farm",
        "type": "Wind farm",
        "entity": "http://www.wikidata.org/entity/Q112618822",
        "country_qid": "Q35"
      }
    },
    {
      "type": "Feature",
      "geometry": {
        "type": "Point",
        "coordinates": [
          11.21,
          56.6
        ]
      },
      "properties": {
        "label": "Anholt Offshore Wind Farm",
        "type": "Wind farm",
        "entity": "http://www.wikidata.org/entity/Q1699945",
        "country_qid": "Q35"
      }
    },
    {
      "type": "Feature",
      "geometry": {
        "type": "Point",
        "coordinates": [
          9.2426,
          56.1174
        ]
      },
      "properties": {
        "label": "Vindpark Ulkær Mose",
        "type": "Wind farm",
        "entity": "http://www.wikidata.org/entity/Q113606285",
        "country_qid": "Q35"
      }
    },
    {
      "type": "Feature",
      "geometry": {
        "type": "Point",
        "coordinates": [
          7.90611111,
          55.52972222
        ]
      },
      "properties": {
        "label": "Horns Rev 1 Offshore Wind Farm",
        "type": "Wind farm",
        "entity": "http://www.wikidata.org/entity/Q1628570",
        "country_qid": "Q35"
      }
    },
    {
      "type": "Feature",
      "geometry": {
        "type": "Point",
        "coordinates": [
          7.669166666,
          55.696944444
        ]
      },
      "properties": {
        "label": "Horns Rev 3 Offshore Wind Farm",
        "type": "Wind farm",
        "entity": "http://www.wikidata.org/entity/Q56026056",
        "country_qid": "Q35"
      }
    },
    {
      "type": "Feature",
      "geometry": {
        "type": "Point",
        "coordinates": [
          11.6672,
          54.5349
        ]
      },
      "properties": {
        "label": "Nysted Wind Farm",
        "type": "Wind farm",
        "entity": "http://www.wikidata.org/entity/Q934359",
        "country_qid": "Q35"
      }
    },
    {
      "type": "Feature",
      "geometry": {
        "type": "Point",
        "coordinates": [
          8.21944444,
          56.66277778
        ]
      },
      "properties": {
        "label": "Rønland Wind Farm",
        "type": "Wind farm",
        "entity": "http://www.wikidata.org/entity/Q29017975",
        "country_qid": "Q35"
      }
    },
    {
      "type": "Feature",
      "geometry": {
        "type": "Point",
        "coordinates": [
          11.13,
          54.97
        ]
      },
      "properties": {
        "label": "Vindeby Offshore Wind Farm",
        "type": "Wind farm",
        "entity": "http://www.wikidata.org/entity/Q23585880",
        "country_qid": "Q35"
      }
    },
    {
      "type": "Feature",
      "geometry": {
        "type": "Point",
        "coordinates": [
          10.961944444,
          55.343888888
        ]
      },
      "properties": {
        "label": "Sprogø Offshore Wind Farm",
        "type": "Wind farm",
        "entity": "http://www.wikidata.org/entity/Q56026044",
        "country_qid": "Q35"
      }
    },
    {
      "type": "Feature",
      "geometry": {
        "type": "Point",
        "coordinates": [
          8.243888888,
          56.67
        ]
      },
      "properties": {
        "label": "Nissum Bredning Wind Farm",
        "type": "Wind farm",
        "entity": "http://www.wikidata.org/entity/Q56026062",
        "country_qid": "Q35"
      }
    },
    {
      "type": "Feature",
      "geometry": {
        "type": "Point",
        "coordinates": [
          8.148,
          56.444
        ]
      },
      "properties": {
        "label": "Høvsøre Test Centre",
        "type": "Wind farm",
        "entity": "http://www.wikidata.org/entity/Q1424160",
        "country_qid": "Q35"
      }
    },
    {
      "type": "Feature",
      "geometry": {
        "type": "Point",
        "coordinates": [
          10.35555556,
          55.96944444
        ]
      },
      "properties": {
        "label": "Tunø Knob Offshore Wind Farm",
        "type": "Wind farm",
        "entity": "http://www.wikidata.org/entity/Q29017973",
        "country_qid": "Q35"
      }
    },
    {
      "type": "Feature",
      "geometry": {
        "type": "Point",
        "coordinates": [
          8.8840556,
          57.0516083
        ]
      },
      "properties": {
        "label": "Østerild Wind Turbine Test Field",
        "type": "Wind farm",
        "entity": "http://www.wikidata.org/entity/Q15962074",
        "country_qid": "Q35"
      }
    },
    {
      "type": "Feature",
      "geometry": {
        "type": "Point",
        "coordinates": [
          12.09876,
          55.3583
        ]
      },
      "properties": {
        "label": "Turebylille Vindmøllepark",
        "type": "Wind farm",
        "entity": "http://www.wikidata.org/entity/Q108287302",
        "country_qid": "Q35"
      }
    },
    {
      "type": "Feature",
      "geometry": {
        "type": "Point",
        "coordinates": [
          9.7475,
          57.2269
        ]
      },
      "properties": {
        "label": "Rendbæk Øst",
        "type": "Wind farm",
        "entity": "http://www.wikidata.org/entity/Q110489666",
        "country_qid": "Q35"
      }
    },
    {
      "type": "Feature",
      "geometry": {
        "type": "Point",
        "coordinates": [
          9.36417,
          57.0042
        ]
      },
      "properties": {
        "label": "Nørrekær Enge Wind Farm",
        "type": "Wind farm",
        "entity": "http://www.wikidata.org/entity/Q12341115",
        "country_qid": "Q35"
      }
    },
    {
      "type": "Feature",
      "geometry": {
        "type": "Point",
        "coordinates": [
          12.67024,
          55.690963
        ]
      },
      "properties": {
        "label": "Middelgrunden Wind Farm",
        "type": "Wind farm",
        "entity": "http://www.wikidata.org/entity/Q1208763",
        "country_qid": "Q35"
      }
    },
    {
      "type": "Feature",
      "geometry": {
        "type": "Point",
        "coordinates": [
          8.0486,
          56.06321
        ]
      },
      "properties": {
        "label": "Vesterhav Syd",
        "type": "Wind farm",
        "entity": "http://www.wikidata.org/entity/Q66323456",
        "country_qid": "Q35"
      }
    },
    {
      "type": "Feature",
      "geometry": {
        "type": "Point",
        "coordinates": [
          8.1122,
          56.00446
        ]
      },
      "properties": {
        "label": "Hvide Sande Nordhavn Vindmøllepark",
        "type": "Wind farm",
        "entity": "http://www.wikidata.org/entity/Q97013437",
        "country_qid": "Q35"
      }
    },
    {
      "type": "Feature",
      "geometry": {
        "type": "Point",
        "coordinates": [
          7.416,
          56.2129
        ]
      },
      "properties": {
        "label": "Thor offshore wind farm",
        "type": "Wind farm",
        "entity": "http://www.wikidata.org/entity/Q111517440",
        "country_qid": "Q35"
      }
    },
    {
      "type": "Feature",
      "geometry": {
        "type": "Point",
        "coordinates": [
          12.4612,
          55.6023
        ]
      },
      "properties": {
        "label": "Avedøre Holme Wind Farm",
        "type": "Wind farm",
        "entity": "http://www.wikidata.org/entity/Q12344004",
        "country_qid": "Q35"
      }
    },
    {
      "type": "Feature",
      "geometry": {
        "type": "Point",
        "coordinates": [
          13.0089,
          55.0658
        ]
      },
      "properties": {
        "label": "Kriegers Flak Offshore Wind Farm",
        "type": "Wind farm",
        "entity": "http://www.wikidata.org/entity/Q27825141",
        "country_qid": "Q35"
      }
    },
    {
      "type": "Feature",
      "geometry": {
        "type": "Point",
        "coordinates": [
          7.576111111,
          55.598333333
        ]
      },
      "properties": {
        "label": "Horns Rev 2 Offshore Wind Farm",
        "type": "Wind farm",
        "entity": "http://www.wikidata.org/entity/Q5904482",
        "country_qid": "Q35"
      }
    },
    {
      "type": "Feature",
      "geometry": {
        "type": "Point",
        "coordinates": [
          11.0077,
          54.7625
        ]
      },
      "properties": {
        "label": "Q108293487",
        "type": "Wind farm",
        "entity": "http://www.wikidata.org/entity/Q108293487",
        "country_qid": "Q35"
      }
    },
    {
      "type": "Feature",
      "geometry": {
        "type": "Point",
        "coordinates": [
          11.55,
          54.56
        ]
      },
      "properties": {
        "label": "Rødsand II Offshore Wind Farm",
        "type": "Wind farm",
        "entity": "http://www.wikidata.org/entity/Q56026045",
        "country_qid": "Q35"
      }
    },
    {
      "type": "Feature",
      "geometry": {
        "type": "Point",
        "coordinates": [
          10.561111111,
          57.444444444
        ]
      },
      "properties": {
        "label": "Frederikshavn Wind Farm",
        "type": "Wind farm",
        "entity": "http://www.wikidata.org/entity/Q56026052",
        "country_qid": "Q35"
      }
    },
    {
      "type": "Feature",
      "geometry": {
        "type": "Point",
        "coordinates": [
          11.7083075,
          54.5497969
        ]
      },
      "properties": {
        "label": "Rødsand I Offshore Wind Farm",
        "type": "Wind farm",
        "entity": "http://www.wikidata.org/entity/Q106088778",
        "country_qid": "Q35"
      }
    },
    {
      "type": "Feature",
      "geometry": {
        "type": "Point",
        "coordinates": [
          10.584722222,
          55.723055555
        ]
      },
      "properties": {
        "label": "Samsø Offshore Wind Farm",
        "type": "Wind farm",
        "entity": "http://www.wikidata.org/entity/Q56026048",
        "country_qid": "Q35"
      }
    },
    {
      "type": "Feature",
      "geometry": {
        "type": "Point",
        "coordinates": [
          12.64281,
          55.6738
        ]
      },
      "properties": {
        "label": "Prøvestenen Vindmøllepark",
        "type": "Wind farm",
        "entity": "http://www.wikidata.org/entity/Q108287535",
        "country_qid": "Q35"
      }
    },
    {
      "type": "Feature",
      "geometry": {
        "type": "Point",
        "coordinates": [
          7.906111,
          55.529722
        ]
      },
      "properties": {
        "label": "Horns Rev offshore wind farm complex",
        "type": "Wind farm",
        "entity": "http://www.wikidata.org/entity/Q60448689",
        "country_qid": "Q35"
      }
    }
  ]
}