{
  "type": "FeatureCollection",
  "features": [
    {
      "type": "Feature",
      "geometry": {
        "type": "Point",
        "coordinates": [
          33.14694444,
          45.39638889
        ]
      },
      "properties": {
        "label": "Q12102061",
        "type": "Wind farm",
        "entity": "http://www.wikidata.org/entity/Q12102061",
        "country_qid": "Q159"
      }
    },
    {
      "type": "Feature",
      "geometry": {
        "type": "Point",
        "coordinates": [
          35.08491667,
          44.80966667
        ]
      },
      "properties": {
        "label": "Sudak wind farm",
        "type": "Wind farm",
        "entity": "http://www.wikidata.org/entity/Q16702868",
        "country_qid": "Q159"
      }
    },
    {
      "type": "Feature",
      "geometry": {
        "type": "Point",
        "coordinates": [
          177.565,
          64.76666667
        ]
      },
      "properties": {
        "label": "Q4064710",
        "type": "Wind farm",
        "entity": "http://www.wikidata.org/entity/Q4064710",
        "country_qid": "Q159"
      }
    },
    {
      "type": "Feature",
      "geometry": {
        "type": "Point",
        "coordinates": [
          54.250277777,
          54.578861111
        ]
      },
      "properties": {
        "label": "Tyupkildy wind park",
        "type": "Wind farm",
        "entity": "http://www.wikidata.org/entity/Q4102065",
        "country_qid": "Q159"
      }
    },
    {
      "type": "Feature",
      "geometry": {
        "type": "Point",
        "coordinates": [
          32.77,
          45.421111111
        ]
      },
      "properties": {
        "label": "Tarkhankut Wind Farm",
        "type": "Wind farm",
        "entity": "http://www.wikidata.org/entity/Q4452226",
        "country_qid": "Q159"
      }
    },
    {
      "type": "Feature",
      "geometry": {
        "type": "Point",
        "coordinates": [
          33.10306,
          45.32833
        ]
      },
      "properties": {
        "label": "Saky wind farm",
        "type": "Wind farm",
        "entity": "http://www.wikidata.org/entity/Q16693904",
        "country_qid": "Q159"
      }
    },
    {
      "type": "Feature",
      "geometry": {
        "type": "Point",
        "coordinates": [
          20.35,
          54.93333333
        ]
      },
      "properties": {
        "label": "Zelenogradsk wind farm",
        "type": "Wind farm",
        "entity": "http://www.wikidata.org/entity/Q4190346",
        "country_qid": "Q159"
      }
    },
    {
      "type": "Feature",
      "geometry": {
        "type": "Point",
        "coordinates": [
          63.28333333,
          55.23333333
        ]
      },
      "properties": {
        "label": "Q4527778",
        "type": "Wind farm",
        "entity": "http://www.wikidata.org/entity/Q4527778",
        "country_qid": "Q159"
      }
    },
    {
      "type": "Feature",
      "geometry": {
        "type": "Point",
        "coordinates": [
          34.811891,
          68.847734
        ]
      },
      "properties": {
        "label": "Q123905106",
        "type": "Wind farm",
        "entity": "http://www.wikidata.org/entity/Q123905106",
        "country_qid": "Q159"
      }
    }
  ]
}