country_name,country_qid,entity,label,type,latitude,longitude
United Kingdom,Q145,http://www.wikidata.org/entity/Q123580995,Cumberhead West Wind Farm,Wind farm,,
United Kingdom,Q145,http://www.wikidata.org/entity/Q116875376,Rothes Wind Farm,Wind farm,57.53,-3.36
United Kingdom,Q145,http://www.wikidata.org/entity/Q6989526,Hywind Scotland,Wind farm,57.48333333,-1.35
United Kingdom,Q145,http://www.wikidata.org/entity/Q116883962,Goole Fields Wind Farms,Wind farm,53.6643,-0.8822
United Kingdom,Q145,http://www.wikidata.org/entity/Q131282629,Kirk Hill Wind Farm,Wind farm,,
United Kingdom,Q145,http://www.wikidata.org/entity/Q116877955,Glens of Foudland Wind Farm,Wind farm,57.414,-2.65
United Kingdom,Q145,http://www.wikidata.org/entity/Q132861039,Limekiln Wind Farm,Wind farm,,
United Kingdom,Q145,http://www.wikidata.org/entity/Q117803592,Deucheran Hill Wind Farm,Wind farm,55.6397,-5.5583
United Kingdom,Q145,http://www.wikidata.org/entity/Q117034625,Kincardine Offshore Wind Farm,Wind farm,57.0046,-1.8596
United Kingdom,Q145,http://www.wikidata.org/entity/Q116877573,Twentyshilling Hill Wind Farm,Wind farm,55.3142,-3.9185
United Kingdom,Q145,http://www.wikidata.org/entity/Q116861544,A’Chruach Wind Farm,Wind farm,56.1292,-5.335
United Kingdom,Q145,http://www.wikidata.org/entity/Q116861310,Aikengall Community Wind Farm,Wind farm,,
United Kingdom,Q145,http://www.wikidata.org/entity/Q116861652,Afton Wind Farm,Wind farm,,
United Kingdom,Q145,http://www.wikidata.org/entity/Q116861675,Blackcraig Wind Farm,Wind farm,,
United Kingdom,Q145,http://www.wikidata.org/entity/Q116863133,Kilbraur Wind Farm,Wind farm,,
United Kingdom,Q145,http://www.wikidata.org/entity/Q116863896,Auchrobert Wind Farm,Wind farm,,
United Kingdom,Q145,http://www.wikidata.org/entity/Q116869658,Carraig Gheal Wind Farm,Wind farm,,
United Kingdom,Q145,http://www.wikidata.org/entity/Q116869720,Mark Hill Wind Farm,Wind farm,,
United Kingdom,Q145,http://www.wikidata.org/entity/Q116869954,Glen Kyllachy Wind Farm,Wind farm,,
United Kingdom,Q145,http://www.wikidata.org/entity/Q116869934,Millennium Wind Farm,Wind farm,,
United Kingdom,Q145,http://www.wikidata.org/entity/Q116870059,Sandy Knowe Wind Farm,Wind farm,,
United Kingdom,Q145,http://www.wikidata.org/entity/Q116875547,Lochluichart Wind Farm,Wind farm,,
United Kingdom,Q145,http://www.wikidata.org/entity/Q116876556,Baillie Wind Farm,Wind farm,,
United Kingdom,Q145,http://www.wikidata.org/entity/Q116876403,Tom na Clach Wind Farm,Wind farm,,
United Kingdom,Q145,http://www.wikidata.org/entity/Q116876697,Camster Wind Farm,Wind farm,,
United Kingdom,Q145,http://www.wikidata.org/entity/Q116876722,Hill of Towie Wind Farm,Wind farm,,
United Kingdom,Q145,http://www.wikidata.org/entity/Q116877013,Corriemoillie Wind Farm,Wind farm,,
United Kingdom,Q145,http://www.wikidata.org/entity/Q116877111,Halsary Wind Farm,Wind farm,,
United Kingdom,Q145,http://www.wikidata.org/entity/Q116877160,Causeymire Wind Farm,Wind farm,,
United Kingdom,Q145,http://www.wikidata.org/entity/Q116877291,Coire Na Cloiche Wind Farm,Wind farm,,
United Kingdom,Q145,http://www.wikidata.org/entity/Q116877483,Bad a Cheo Wind Farm,Wind farm,,
United Kingdom,Q145,http://www.wikidata.org/entity/Q116877387,Edinbane Wind Farm,Wind farm,,
United Kingdom,Q145,http://www.wikidata.org/entity/Q116877868,Beinn Tharsuinn Wind Farm,Wind farm,,
United Kingdom,Q145,http://www.wikidata.org/entity/Q116877766,Dalquhandy Wind Farm,Wind farm,,
United Kingdom,Q145,http://www.wikidata.org/entity/Q116877917,Burn of Whilk Wind Farm,Wind farm,,
United Kingdom,Q145,http://www.wikidata.org/entity/Q116877792,Harburnhead Wind Farm,Wind farm,,
United Kingdom,Q145,http://www.wikidata.org/entity/Q116877673,Rosehall Wind Farm,Wind farm,,
United Kingdom,Q145,http://www.wikidata.org/entity/Q116877839,Hill of Glaschyle Wind Farm,Wind farm,,
United Kingdom,Q145,http://www.wikidata.org/entity/Q116877902,Douglas West Wind Farm,Wind farm,,
United Kingdom,Q145,http://www.wikidata.org/entity/Q116877635,Whiteside Hill Wind Farm,Wind farm,,
United Kingdom,Q145,http://www.wikidata.org/entity/Q116877933,Cour Wind Farm,Wind farm,,
United Kingdom,Q145,http://www.wikidata.org/entity/Q116877822,Mid Hill Wind Farm,Wind farm,,
United Kingdom,Q145,http://www.wikidata.org/entity/Q116878077,Assel Valley Wind Farm,Wind farm,,
United Kingdom,Q145,http://www.wikidata.org/entity/Q116877986,Crossdykes Wind Farm,Wind farm,,
United Kingdom,Q145,http://www.wikidata.org/entity/Q116877692,Windy Rig Wind Farm,Wind farm,,
United Kingdom,Q145,http://www.wikidata.org/entity/Q116877949,Gordonstown Hill Wind Farm,Wind farm,,
United Kingdom,Q145,http://www.wikidata.org/entity/Q116877969,Hare Hill Wind Farm,Wind farm,,
United Kingdom,Q145,http://www.wikidata.org/entity/Q116877943,Middle Muir Wind Farm,Wind farm,,
United Kingdom,Q145,http://www.wikidata.org/entity/Q116878082,Dalswinton Wind Farm,Wind farm,,
United Kingdom,Q145,http://www.wikidata.org/entity/Q116877879,Sanquhar Community Wind Farm,Wind farm,,
United Kingdom,Q145,http://www.wikidata.org/entity/Q116878069,Freasdail Wind Farm,Wind farm,,
United Kingdom,Q145,http://www.wikidata.org/entity/Q116877850,Tralorg Wind Farm,Wind farm,,
United Kingdom,Q145,http://www.wikidata.org/entity/Q116878295,Airies Wind Farm,Wind farm,,
United Kingdom,Q145,http://www.wikidata.org/entity/Q116878303,An Suidhe Wind Farm,Wind farm,,
United Kingdom,Q145,http://www.wikidata.org/entity/Q116877925,Tullymurdoch Wind Farm,Wind farm,,
United Kingdom,Q145,http://www.wikidata.org/entity/Q116878093,Minsca Wind Farm,Wind farm,,
United Kingdom,Q145,http://www.wikidata.org/entity/Q116878285,Ewe Hill Wind Farm,Wind farm,,
United Kingdom,Q145,http://www.wikidata.org/entity/Q116878065,Tullo Wind Farm,Wind farm,,
United Kingdom,Q145,http://www.wikidata.org/entity/Q116878310,Glen App Wind Farm,Wind farm,,
United Kingdom,Q145,http://www.wikidata.org/entity/Q116878322,Glenchamber Wind Farm,Wind farm,,
United Kingdom,Q145,http://www.wikidata.org/entity/Q116883974,Minnygap Wind Farm,Wind farm,,
United Kingdom,Q145,http://www.wikidata.org/entity/Q116910739,Blary Hill Wind Farm,Wind farm,,
United Kingdom,Q145,http://www.wikidata.org/entity/Q116910664,Pogbie Wind Farm,Wind farm,,
United Kingdom,Q145,http://www.wikidata.org/entity/Q117034611,Clachan Flats Wind Farm,Wind farm,,
United Kingdom,Q145,http://www.wikidata.org/entity/Q117034632,Keith Hill Wind Farm,Wind farm,,
United Kingdom,Q145,http://www.wikidata.org/entity/Q117409488,Brownieleys Wind Farm,Wind farm,,
United Kingdom,Q145,http://www.wikidata.org/entity/Q117422401,Greengairs East Wind Farm,Wind farm,,
United Kingdom,Q145,http://www.wikidata.org/entity/Q117717825,Craig 2 Wind Farm,Wind farm,,
United Kingdom,Q145,http://www.wikidata.org/entity/Q117796670,Ben Aketil Wind Farm,Wind farm,,
United Kingdom,Q145,http://www.wikidata.org/entity/Q117803657,Earlsburn Wind Farm,Wind farm,,
United Kingdom,Q145,http://www.wikidata.org/entity/Q117805967,Benbrack Wind Farm,Wind farm,,
United Kingdom,Q145,http://www.wikidata.org/entity/Q120668737,Carscreugh Wind Farm,Wind farm,,
United Kingdom,Q145,http://www.wikidata.org/entity/Q113663075,Hornsea Two Offshore Wind Farm,Wind farm,53.91,1.5518
United Kingdom,Q145,http://www.wikidata.org/entity/Q84277667,Hornsea One Offshore Wind Farm,Wind farm,53.885,1.791
United Kingdom,Q145,http://www.wikidata.org/entity/Q5287221,Docking Shoal wind farm,Wind farm,53.154,0.753
United Kingdom,Q145,http://www.wikidata.org/entity/Q833917,North Hoyle Offshore Wind Farm,Wind farm,53.3907,-3.452454
United Kingdom,Q145,http://www.wikidata.org/entity/Q60741175,Knabs Ridge Wind Farm,Wind farm,53.9981,-1.6474
United Kingdom,Q145,http://www.wikidata.org/entity/Q60772556,Novar Wind Farm,Wind farm,57.70994444,-4.43777778
United Kingdom,Q145,http://www.wikidata.org/entity/Q1330226,Walney Wind Farm,Wind farm,54.044,-3.522
United Kingdom,Q145,http://www.wikidata.org/entity/Q6709310,Lynn and Inner Dowsing Wind Farm,Wind farm,53.1275,0.43611111
United Kingdom,Q145,http://www.wikidata.org/entity/Q114030627,Burgar Hill Wind Farm,Wind farm,59.114923,-3.1459321
United Kingdom,Q145,http://www.wikidata.org/entity/Q29018007,Kilgallioch Wind Farm,Wind farm,55.05,-4.76527778
United Kingdom,Q145,http://www.wikidata.org/entity/Q15226770,Humber Gateway Wind Farm,Wind farm,53.644,0.293
United Kingdom,Q145,http://www.wikidata.org/entity/Q455472,Gwynt y Môr Wind Farm,Wind farm,53.45,-3.58333333
United Kingdom,Q145,http://www.wikidata.org/entity/Q7439264,Scroby Sands Wind Farm,Wind farm,52.6489,1.79028
United Kingdom,Q145,http://www.wikidata.org/entity/Q4930860,Blyth Offshore Wind Farm,Wind farm,55.1358,-1.49028
United Kingdom,Q145,http://www.wikidata.org/entity/Q5311735,Dudgeon Offshore Wind Farm,Wind farm,53.249,1.39
United Kingdom,Q145,http://www.wikidata.org/entity/Q115952211,Dogger Bank A Wind Farm,Wind farm,54.7489,1.9301
United Kingdom,Q145,http://www.wikidata.org/entity/Q55611961,Fraisthorpe Wind Farm,Wind farm,54.05055556,-0.22944444
United Kingdom,Q145,http://www.wikidata.org/entity/Q7987061,West of Duddon Sands Wind Farm,Wind farm,53.983,-3.463
United Kingdom,Q145,http://www.wikidata.org/entity/Q1308246,Kentish Flats Offshore Wind Farm,Wind farm,51.46,1.09
United Kingdom,Q145,http://www.wikidata.org/entity/Q3364833,Moray East Offshore Wind Farm,Wind farm,58.16708,-2.69852
United Kingdom,Q145,http://www.wikidata.org/entity/Q3364824,Race Bank Wind Farm,Wind farm,53.275,0.83333333
United Kingdom,Q145,http://www.wikidata.org/entity/Q7694582,Teesside Wind Farm,Wind farm,54.648,-1.095
United Kingdom,Q145,http://www.wikidata.org/entity/Q29017981,North Sea Wind Power Hub,Wind farm,55.4,4.0
United Kingdom,Q145,http://www.wikidata.org/entity/Q17347013,East Anglia ONE,Wind farm,52.66,2.3
United Kingdom,Q145,http://www.wikidata.org/entity/Q1576615,Thanet Wind Farm,Wind farm,51.4306,1.6331
United Kingdom,Q145,http://www.wikidata.org/entity/Q15261442,Neart na Gaoithe Offshore Wind Farm,Wind farm,56.26777778,-2.32083333
United Kingdom,Q145,http://www.wikidata.org/entity/Q7495028,Sheringham Shoal Offshore Wind Farm,Wind farm,53.1167,1.13333
United Kingdom,Q145,http://www.wikidata.org/entity/Q56026054,Galloper Offshore Wind Farm,Wind farm,51.771111111,1.992222222
United Kingdom,Q145,http://www.wikidata.org/entity/Q914264,London Array,Wind farm,51.6439,1.55361
United Kingdom,Q145,http://www.wikidata.org/entity/Q2583856,Burbo Bank Offshore Wind Farm,Wind farm,53.4833,-3.16667
United Kingdom,Q145,http://www.wikidata.org/entity/Q1724197,Robin Rigg Wind Farm,Wind farm,54.75,-3.71667
United Kingdom,Q145,http://www.wikidata.org/entity/Q4877211,Beatrice Wind Farm,Wind farm,58.13,-3.07
United Kingdom,Q145,http://www.wikidata.org/entity/Q7987427,Westermost Rough Wind Farm,Wind farm,53.805,0.149
United Kingdom,Q145,http://www.wikidata.org/entity/Q117337478,Dogger Bank B Wind Farm,Wind farm,54.9866,1.6622
United Kingdom,Q145,http://www.wikidata.org/entity/Q6551320,Lincs Wind Farm,Wind farm,53.1833,0.483333
United Kingdom,Q145,http://www.wikidata.org/entity/Q115981381,Moray West Offshore Wind Farm,Wind farm,58.094,-2.988
United Kingdom,Q145,http://www.wikidata.org/entity/Q7290043,Rampion Wind Farm,Wind farm,50.664722222,-0.278888888
United Kingdom,Q145,http://www.wikidata.org/entity/Q106728173,Inner Dowsing offshore wind farm,Wind farm,,
United Kingdom,Q145,http://www.wikidata.org/entity/Q106728370,Lynn offshore wind farm,Wind farm,,
United Kingdom,Q145,http://www.wikidata.org/entity/Q106728914,Robin Rigg (East) offshore wind farm,Wind farm,,
United Kingdom,Q145,http://www.wikidata.org/entity/Q106729094,Robin Rigg (West) offshore wind farm,Wind farm,,
United Kingdom,Q145,http://www.wikidata.org/entity/Q5618736,Gunfleet Sands Offshore Wind Farm,Wind farm,51.7394,1.17444
United Kingdom,Q145,http://www.wikidata.org/entity/Q56026057,Blyth offshore wind farm test site,Wind farm,55.17,-1.37
United Kingdom,Q145,http://www.wikidata.org/entity/Q7844328,Triton Knoll Wind Farm,Wind farm,53.4,0.9
United Kingdom,Q145,http://www.wikidata.org/entity/Q4816287,Atlantic Array wind farm,Wind farm,51.2719,-3.66194
United Kingdom,Q145,http://www.wikidata.org/entity/Q820613,Greater Gabbard wind farm,Wind farm,51.88,1.94
United Kingdom,Q145,http://www.wikidata.org/entity/Q115952416,Sofia Wind Farm,Wind farm,54.9794,2.2301
United Kingdom,Q145,http://www.wikidata.org/entity/Q115942251,East Anglia THREE,Wind farm,,
United Kingdom,Q145,http://www.wikidata.org/entity/Q115942263,East Anglia TWO,Wind farm,,
United Kingdom,Q145,http://www.wikidata.org/entity/Q115952280,Dogger Bank C Wind Farm,Wind farm,,
United Kingdom,Q145,http://www.wikidata.org/entity/Q48785414,Ovenden Moor Wind Farm,Wind farm,53.77555556,-1.93694444
United Kingdom,Q145,http://www.wikidata.org/entity/Q833910,Rhyl Flats,Wind farm,53.366666666,-3.65
United Kingdom,Q145,http://www.wikidata.org/entity/Q763941,Ormonde Wind Farm,Wind farm,54.1,-3.4
United Kingdom,Q145,http://www.wikidata.org/entity/Q131412020,Green Volt offshore wind farm,Wind farm,57.551666666,-1.600833333
United Kingdom,Q145,http://www.wikidata.org/entity/Q115794582,Seagreen Wind Farm,Wind farm,56.588,-1.741
United Kingdom,Q145,http://www.wikidata.org/entity/Q2016017,Barrow Offshore Wind Farm,Wind farm,53.9833,-3.28333
United Kingdom,Q145,http://www.wikidata.org/entity/Q17509465,European Offshore Wind Deployment Centre,Wind farm,57.2167,-1.98333
United Kingdom,Q145,http://www.wikidata.org/entity/Q6649514,Little Cheyne Court Wind Farm,Wind farm,50.9625,0.820278
United Kingdom,Q145,http://www.wikidata.org/entity/Q114030635,Clashindarroch Wind Farm,Wind farm,57.363336,-2.9640069
United Kingdom,Q145,http://www.wikidata.org/entity/Q114030653,Spurness Wind Farm,Wind farm,59.190597,-2.6908634
United Kingdom,Q145,http://www.wikidata.org/entity/Q5044153,Carno wind farm,Wind farm,52.5503,-3.60028
United Kingdom,Q145,http://www.wikidata.org/entity/Q114030619,Griffin Wind Farm,Wind farm,56.583251,-3.7435659
United Kingdom,Q145,http://www.wikidata.org/entity/Q114030639,Dun Law wind farm,Wind farm,55.805307,-2.8512555
United Kingdom,Q145,http://www.wikidata.org/entity/Q5638120,Hadyard Hill Wind Farm,Wind farm,55.2458,-4.72306
United Kingdom,Q145,http://www.wikidata.org/entity/Q4733319,Alltwalis Wind Farm,Wind farm,51.9733,-4.25083
United Kingdom,Q145,http://www.wikidata.org/entity/Q114030644,Harestanes Wind Farm,Wind farm,55.244384,-3.5596388
United Kingdom,Q145,http://www.wikidata.org/entity/Q115962649,Fairburn Wind Farm,Wind farm,57.53186,-4.64928
United Kingdom,Q145,http://www.wikidata.org/entity/Q115956531,Artfield Fell Wind Farm,Wind farm,54.9643,-4.7633
United Kingdom,Q145,http://www.wikidata.org/entity/Q4927617,Blood Hill wind farm,Wind farm,52.7119,1.66694
United Kingdom,Q145,http://www.wikidata.org/entity/Q115929575,Bhlaraidh Wind Farm,Wind farm,57.2456,-4.7158
United Kingdom,Q145,http://www.wikidata.org/entity/Q5253056,Delabole wind farm,Wind farm,50.633,-4.708
United Kingdom,Q145,http://www.wikidata.org/entity/Q115956610,Balmurrie Fell Wind Farm,Wind farm,54.9675,-4.7778
United Kingdom,Q145,http://www.wikidata.org/entity/Q5137058,Clyde Wind Farm,Wind farm,55.4672,-3.65444
United Kingdom,Q145,http://www.wikidata.org/entity/Q15253429,Milton Keynes Wind Farm,Wind farm,52.13622222,-0.66444444
United Kingdom,Q145,http://www.wikidata.org/entity/Q115960566,Calliachar Wind Farm,Wind farm,56.5648,-3.8748
United Kingdom,Q145,http://www.wikidata.org/entity/Q6552497,Lindhurst Wind Farm,Wind farm,53.11611111,-1.14666667
United Kingdom,Q145,http://www.wikidata.org/entity/Q5524517,Garves Wind Farm,Wind farm,55.1531,-6.45472
United Kingdom,Q145,http://www.wikidata.org/entity/Q5137710,Coal Clough Wind Farm,Wind farm,53.749,-2.152
United Kingdom,Q145,http://www.wikidata.org/entity/Q115963110,Toddleburn Wind Farm,Wind farm,55.768,-2.872
United Kingdom,Q145,http://www.wikidata.org/entity/Q3364831,Scout Moor Wind Farm,Wind farm,53.6594,-2.25194
United Kingdom,Q145,http://www.wikidata.org/entity/Q5191333,Crystal Rig Wind Farm,Wind farm,55.9,-2.55
United Kingdom,Q145,http://www.wikidata.org/entity/Q7144612,Pates Hill Wind Farm,Wind farm,55.8089,-3.59917
United Kingdom,Q145,http://www.wikidata.org/entity/Q7162125,Pen y Cymoedd,Wind farm,51.711,-3.562
United Kingdom,Q145,http://www.wikidata.org/entity/Q4959998,Brechfa Forest Wind Farm,Wind farm,51.9833,-4.16389
United Kingdom,Q145,http://www.wikidata.org/entity/Q4019566,Whitelee Wind Farm,Wind farm,55.672777777,-4.285555555
United Kingdom,Q145,http://www.wikidata.org/entity/Q4930858,Blyth Harbour Wind Farm,Wind farm,55.123611111,-1.493888888
United Kingdom,Q145,http://www.wikidata.org/entity/Q4141649,Viking Wind Farm,Wind farm,60.3066,-1.22077
United Kingdom,Q145,http://www.wikidata.org/entity/Q5436202,Farr Wind Farm,Wind farm,57.325,-4.09417
United Kingdom,Q145,http://www.wikidata.org/entity/Q4857979,Methil Offshore Wind Farm,Wind farm,56.173672,-3.019247
United Kingdom,Q145,http://www.wikidata.org/entity/Q7540439,Slieve Rushen Wind Farm,Wind farm,54.16,-7.62
United Kingdom,Q145,http://www.wikidata.org/entity/Q5000935,Burton Wold Wind Farm,Wind farm,52.3583,-0.65
United Kingdom,Q145,http://www.wikidata.org/entity/Q7375199,Royd Moor Wind Farm,Wind farm,53.5375,-1.68833
United Kingdom,Q145,http://www.wikidata.org/entity/Q5599113,Great Eppleton Wind Farm,Wind farm,54.8331,-1.42944
United Kingdom,Q145,http://www.wikidata.org/entity/Q115956504,Achany Wind Farm,Wind farm,58.0015,-4.5206
United Kingdom,Q145,http://www.wikidata.org/entity/Q4788269,Ardrossan Wind Farm,Wind farm,55.6833,-4.8
United Kingdom,Q145,http://www.wikidata.org/entity/Q4921161,Black Law Wind Farm,Wind farm,55.7669,-3.73889
United Kingdom,Q145,http://www.wikidata.org/entity/Q5256451,Den Brook Wind Farm,Wind farm,50.785,-3.863
United Kingdom,Q145,http://www.wikidata.org/entity/Q7985005,West Durham Wind Farm,Wind farm,54.768,-1.8216
United Kingdom,Q145,http://www.wikidata.org/entity/Q6486290,Langley Park Wind Farm,Wind farm,54.795,-1.6672
United Kingdom,Q145,http://www.wikidata.org/entity/Q5057256,Cefn Croes Wind Farm,Wind farm,52.405,-3.75083
United Kingdom,Q145,http://www.wikidata.org/entity/Q114030638,Drumderg wind farm,Wind farm,56.68314,-3.3435355
United Kingdom,Q145,http://www.wikidata.org/entity/Q8025914,Winscales Moor Wind Farm,Wind farm,54.64,-3.49694
United Kingdom,Q145,http://www.wikidata.org/entity/Q107920335,North Steads Wind Farm,Wind farm,55.266,-1.618
United Kingdom,Q145,http://www.wikidata.org/entity/Q4788723,Arecleoch Wind Farm,Wind farm,55.0533,-4.88222
United Kingdom,Q145,http://www.wikidata.org/entity/Q4881352,Beinn an Tuirc Wind Farm,Wind farm,55.5714,-5.57611
United Kingdom,Q145,http://www.wikidata.org/entity/Q114030651,Moy Wind Farm,Wind farm,57.406964,-4.0154701
United Kingdom,Q145,http://www.wikidata.org/entity/Q4807117,Askam and Ireleth Wind Farm,Wind farm,54.1872,-3.17222
United Kingdom,Q145,http://www.wikidata.org/entity/Q7842154,Trimdon Grange Wind Farm,Wind farm,54.713,-1.41944
United Kingdom,Q145,http://www.wikidata.org/entity/Q115929443,Dorenell Wind Farm,Wind farm,,
United Kingdom,Q145,http://www.wikidata.org/entity/Q115929386,Stronelairg Wind Farm,Wind farm,,
United Kingdom,Q145,http://www.wikidata.org/entity/Q115929541,Fallago Rig Wind Farm,Wind farm,,
United Kingdom,Q145,http://www.wikidata.org/entity/Q115952717,South Kyle Wind Farm,Wind farm,,
United Kingdom,Q145,http://www.wikidata.org/entity/Q115954890,Clocaenog Forest Wind Farm,Wind farm,,
United Kingdom,Q145,http://www.wikidata.org/entity/Q115954949,Brockloch Rig Wind Farm,Wind farm,,
United Kingdom,Q145,http://www.wikidata.org/entity/Q115954919,Dunmaglass Wind Farm,Wind farm,,
United Kingdom,Q145,http://www.wikidata.org/entity/Q115955243,Beinneun Wind Farm,Wind farm,,
United Kingdom,Q145,http://www.wikidata.org/entity/Q115955192,Kype Muir Wind Farm,Wind farm,,
United Kingdom,Q145,http://www.wikidata.org/entity/Q115955324,Creag Riabhach Wind Farm,Wind farm,,
United Kingdom,Q145,http://www.wikidata.org/entity/Q115955668,Fullabrook Down Wind Farm,Wind farm,,
United Kingdom,Q145,http://www.wikidata.org/entity/Q115955673,Gordonbush Wind Farm,Wind farm,,
United Kingdom,Q145,http://www.wikidata.org/entity/Q115955724,Corriegarth Wind Farm,Wind farm,,
United Kingdom,Q145,http://www.wikidata.org/entity/Q115955735,Dersalloch Wind Farm,Wind farm,,
United Kingdom,Q145,http://www.wikidata.org/entity/Q115955833,Berry Burn Wind Farm,Wind farm,,
United Kingdom,Q145,http://www.wikidata.org/entity/Q115955770,Keadby Wind Farm,Wind farm,,
United Kingdom,Q145,http://www.wikidata.org/entity/Q115955842,Galawhistle Wind Farm,Wind farm,,
United Kingdom,Q145,http://www.wikidata.org/entity/Q115955825,Strathy North Wind Farm,Wind farm,,
United Kingdom,Q145,http://www.wikidata.org/entity/Q115955940,Kennoxhead Wind Farm,Wind farm,,
United Kingdom,Q145,http://www.wikidata.org/entity/Q115955925,Paul's Hill Wind Farm,Wind farm,,
United Kingdom,Q145,http://www.wikidata.org/entity/Q115962925,Tangy Wind Farm,Wind farm,,
United Kingdom,Q145,http://www.wikidata.org/entity/Q116036206,Andershaw Wind Farm,Wind farm,,
United Kingdom,Q145,http://www.wikidata.org/entity/Q116036223,Bicker Fen Wind Farm,Wind farm,,
United Kingdom,Q145,http://www.wikidata.org/entity/Q116036189,Drone Hill Wind Farm,Wind farm,,
United Kingdom,Q145,http://www.wikidata.org/entity/Q114030626,Boyndie Wind Farm,Wind farm,57.665294,-2.6494898
United Kingdom,Q145,http://www.wikidata.org/entity/Q614982,Braes of Doune Wind Farm,Wind farm,56.2761,-4.0625
United Kingdom,Q145,http://www.wikidata.org/entity/Q15224579,Holmside Hall Wind Farm,Wind farm,54.8472,-1.68694
United States,Q30,http://www.wikidata.org/entity/Q4793123,Armenia Mountain Wind Farm,Wind farm,41.7667,-76.8664
United States,Q30,http://www.wikidata.org/entity/Q7304299,Red Hills Wind Farm,Wind farm,35.5319,-99.4039
United States,Q30,http://www.wikidata.org/entity/Q4879597,Beech Ridge Wind Farm,Wind farm,38.097222,-80.544444
United States,Q30,http://www.wikidata.org/entity/Q7580746,Spring Valley Wind Farm,Wind farm,39.0948555,-114.4904137
United States,Q30,http://www.wikidata.org/entity/Q6826493,Meyersdale Wind Farm,Wind farm,39.8044,-78.991
United States,Q30,http://www.wikidata.org/entity/Q6187140,Altamont Pass Wind Farm,Wind farm,37.7325,-121.652
United States,Q30,http://www.wikidata.org/entity/Q5443640,Fenton Wind Farm,Wind farm,43.87484444,-95.911675
United States,Q30,http://www.wikidata.org/entity/Q7361184,Rolling Hills Wind Farm,Wind farm,43.0572,-105.8543
United States,Q30,http://www.wikidata.org/entity/Q6411899,King Mountain Wind Farm,Wind farm,31.2378,-102.238
United States,Q30,http://www.wikidata.org/entity/Q7622744,Streator Cayuga Ridge South Wind Farm,Wind farm,40.9556,-88.4817
United States,Q30,http://www.wikidata.org/entity/Q6480176,Lalamilo Wells,Wind farm,19.9875,-155.765555555
United States,Q30,http://www.wikidata.org/entity/Q5364117,Elk River Wind Project,Wind farm,37.6581,-96.5328
United States,Q30,http://www.wikidata.org/entity/Q5049300,Casselman Wind Power Project,Wind farm,39.884,-79.153
United States,Q30,http://www.wikidata.org/entity/Q5309533,Dry Lake Wind Power Project,Wind farm,34.6,-110.23
United States,Q30,http://www.wikidata.org/entity/Q5353776,Elbow Creek Wind Project,Wind farm,32.2159,-101.431
United States,Q30,http://www.wikidata.org/entity/Q6058630,Intrepid Wind Farm,Wind farm,42.5533,-95.3211
United States,Q30,http://www.wikidata.org/entity/Q5253318,Delaware Mountain Wind Farm,Wind farm,31.7342,-104.764
United States,Q30,http://www.wikidata.org/entity/Q5186572,Criterion Wind Project,Wind farm,39.4174,-79.2783
United States,Q30,http://www.wikidata.org/entity/Q4890562,Benton County Wind Farm,Wind farm,40.6861,-87.4088
United States,Q30,http://www.wikidata.org/entity/Q5595916,Granite Reliable Wind Farm,Wind farm,44.7833,-71.3167
United States,Q30,http://www.wikidata.org/entity/Q5059231,Centennial Wind Farm,Wind farm,36.6297,-99.5181
United States,Q30,http://www.wikidata.org/entity/Q6020940,Indian Mesa Wind Farm,Wind farm,30.931466944,-102.201433055
United States,Q30,http://www.wikidata.org/entity/Q5759261,Highland Wind Project,Wind farm,43.083333333,-95.566666666
United States,Q30,http://www.wikidata.org/entity/Q4731333,Allegheny Ridge Wind Farm,Wind farm,40.3914,-78.5409
United States,Q30,http://www.wikidata.org/entity/Q4929867,Blue Sky Green Field Wind Energy Center,Wind farm,43.9122,-88.2736
United States,Q30,http://www.wikidata.org/entity/Q7494717,Sherbino Wind Farm,Wind farm,30.811,-102.362
United States,Q30,http://www.wikidata.org/entity/Q6521509,Lempster Mountain Wind Power Project,Wind farm,43.2333,-72.15
United States,Q30,http://www.wikidata.org/entity/Q5027222,Camp Grove Wind Farm,Wind farm,41.069916666,-89.578111111
United States,Q30,http://www.wikidata.org/entity/Q7283914,Rail Splitter Wind Farm,Wind farm,40.3,-89.4
United States,Q30,http://www.wikidata.org/entity/Q4906989,Biglow Canyon Wind Farm,Wind farm,45.6375,-120.605
United States,Q30,http://www.wikidata.org/entity/Q6693829,Lower Snake River Wind Project,Wind farm,46.4667,-117.733
United States,Q30,http://www.wikidata.org/entity/Q3639811,Big Horn Wind Farm,Wind farm,45.7561,-120.809
United States,Q30,http://www.wikidata.org/entity/Q5473261,Forward Wind Energy Center,Wind farm,43.6169,-88.4911
United States,Q30,http://www.wikidata.org/entity/Q7196768,Pioneer Prairie Wind Farm,Wind farm,43.4764,-92.5856
United States,Q30,http://www.wikidata.org/entity/Q4849470,Hoosac Wind Power Project,Wind farm,42.7109,-73.0198
United States,Q30,http://www.wikidata.org/entity/Q5598166,Gray County Wind Farm,Wind farm,37.6061,-100.379
United States,Q30,http://www.wikidata.org/entity/Q6858414,Mill Run Wind Energy Center,Wind farm,39.9495,-79.4429
United States,Q30,http://www.wikidata.org/entity/Q4876424,Bear Creek Wind Power Project,Wind farm,41.1247,-75.7511
United States,Q30,http://www.wikidata.org/entity/Q7494505,Shepherds Flat Wind Farm,Wind farm,45.7,-120.06
United States,Q30,http://www.wikidata.org/entity/Q5900706,Hopkins Ridge Wind Farm,Wind farm,46.402,-117.812
United States,Q30,http://www.wikidata.org/entity/Q6816732,Mendota Hills Wind Farm,Wind farm,41.7256,-89.0456
United States,Q30,http://www.wikidata.org/entity/Q5685754,Hay Canyon Wind Farm,Wind farm,45.5286,-120.608
United States,Q30,http://www.wikidata.org/entity/Q5610777,Groton Wind,Wind farm,43.75,-71.8
United States,Q30,http://www.wikidata.org/entity/Q6403998,Kibby Wind Power Project,Wind farm,45.397802,-70.534354
United States,Q30,http://www.wikidata.org/entity/Q5443537,Fenner Wind Farm,Wind farm,42.9882,-75.7655
United States,Q30,http://www.wikidata.org/entity/Q4926872,Bliss Wind Farm,Wind farm,42.55,-78.25
United States,Q30,http://www.wikidata.org/entity/Q6758968,Marengo Wind Farm,Wind farm,46.3742,-117.777
United States,Q30,http://www.wikidata.org/entity/Q6753971,Maple Ridge Wind Farm,Wind farm,43.75,-75.55
United States,Q30,http://www.wikidata.org/entity/Q5898632,Hoosier Wind Farm,Wind farm,40.6,-87.32
United States,Q30,http://www.wikidata.org/entity/Q6346892,Kaheawa Wind Power,Wind farm,20.8136,-156.551
United States,Q30,http://www.wikidata.org/entity/Q5264019,Desert Sky Wind Farm,Wind farm,30.916,-102.108
United States,Q30,http://www.wikidata.org/entity/Q7559918,Somerset Wind Farm,Wind farm,39.9833,-79.0095
United States,Q30,http://www.wikidata.org/entity/Q5617549,Gulf Wind Farm,Wind farm,27.0878,-97.5894
United States,Q30,http://www.wikidata.org/entity/Q6925649,Mountaineer Wind Energy Center,Wind farm,39.184028,-79.535611
United States,Q30,http://www.wikidata.org/entity/Q5637198,Hackberry Wind Project,Wind farm,32.8242,-99.2783
United States,Q30,http://www.wikidata.org/entity/Q116715615,Four Mile Canyon Windfarm LLC,Wind farm,45.6447,-119.4533
United States,Q30,http://www.wikidata.org/entity/Q116715554,Altona,Wind farm,44.8216,-73.6509
United States,Q30,http://www.wikidata.org/entity/Q116715479,Crane Creek Wind Energy Center,Wind farm,43.397778,-92.47361
United States,Q30,http://www.wikidata.org/entity/Q116715586,High Lonesome Mesa LLC,Wind farm,34.466667,-105.9625
United States,Q30,http://www.wikidata.org/entity/Q116715737,Dry Lake Wind LLC,Wind farm,34.6596,-110.2842
United States,Q30,http://www.wikidata.org/entity/Q116715748,Blue Canyon Windpower V LLC,Wind farm,34.8217,-98.4525
United States,Q30,http://www.wikidata.org/entity/Q116715505,Arlington Wind Power Project,Wind farm,45.7167,-120.2008
United States,Q30,http://www.wikidata.org/entity/Q116715571,FPL Energy Story Wind LLC,Wind farm,42.1044,-93.2722
United States,Q30,http://www.wikidata.org/entity/Q116715774,Big Sky Wind LLC,Wind farm,41.599167,-89.45611
United States,Q30,http://www.wikidata.org/entity/Q116715576,Cassia Wind,Wind farm,42.8444,-115.0369
United States,Q30,http://www.wikidata.org/entity/Q116715752,Blackstone Wind Farm II LLC,Wind farm,41.1406,-88.53
United States,Q30,http://www.wikidata.org/entity/Q116715450,Hull Wind II,Wind farm,42.261111,-70.85639
United States,Q30,http://www.wikidata.org/entity/Q116715758,Wilton Wind II LLC,Wind farm,47.1333,-100.7011
United States,Q30,http://www.wikidata.org/entity/Q116715470,Central Plains Wind Farm,Wind farm,38.503167,-101.1615
United States,Q30,http://www.wikidata.org/entity/Q116715618,Pacific Canyon Windfarm LLC,Wind farm,45.6542,-119.4869
United States,Q30,http://www.wikidata.org/entity/Q116715611,Butter Creek Power LLC,Wind farm,45.7017,-119.4222
United States,Q30,http://www.wikidata.org/entity/Q116715558,Great Plains Windpark LLC,Wind farm,36.4964,-101.3917
United States,Q30,http://www.wikidata.org/entity/Q116715732,Silver Sage Windpower,Wind farm,41.12968,-105.024
United States,Q30,http://www.wikidata.org/entity/Q116715673,Langdon Wind Energy Center,Wind farm,48.6303,-98.3169
United States,Q30,http://www.wikidata.org/entity/Q116715632,Stetson Wind II,Wind farm,45.61498,-67.971
United States,Q30,http://www.wikidata.org/entity/Q116715730,Campbell Hill Windpower,Wind farm,43.01455,-105.999
United States,Q30,http://www.wikidata.org/entity/Q116715612,Big Top LLC,Wind farm,45.655,-119.4647
United States,Q30,http://www.wikidata.org/entity/Q116715589,Elkhorn Ridge Wind LLC,Wind farm,42.6978,-97.6189
United States,Q30,http://www.wikidata.org/entity/Q116715747,Milford Wind Corridor Stage II LLC,Wind farm,38.58523,-112.931
United States,Q30,http://www.wikidata.org/entity/Q116715680,High Plains,Wind farm,41.675052,-106.0111
United States,Q30,http://www.wikidata.org/entity/Q116715587,Buffalo Bear LLC,Wind farm,36.7767,-99.6353
United States,Q30,http://www.wikidata.org/entity/Q116715614,Four Corners Windfarm LLC,Wind farm,45.7286,-119.4181
United States,Q30,http://www.wikidata.org/entity/Q116715564,Osceola Windpower II,Wind farm,43.4303,-95.4167
United States,Q30,http://www.wikidata.org/entity/Q116715623,Stony Creek Wind Farm LLC,Wind farm,40.0311,-78.8153
United States,Q30,http://www.wikidata.org/entity/Q116715444,Buffalo Ridge I LLC,Wind farm,44.4328,-96.4779
United States,Q30,http://www.wikidata.org/entity/Q116715583,Grand Ridge Wind Energy Center,Wind farm,41.2269,-88.6836
United States,Q30,http://www.wikidata.org/entity/Q116715635,Grand Meadow,Wind farm,43.7189,-92.705
United States,Q30,http://www.wikidata.org/entity/Q116715770,Stoney Corners Wind Farm,Wind farm,44.19,-85.2983
United States,Q30,http://www.wikidata.org/entity/Q116715685,Nobles Wind Project,Wind farm,43.7036,-95.7131
United States,Q30,http://www.wikidata.org/entity/Q116715441,Pebble Springs Wind LLC,Wind farm,45.7119,-120.125
United States,Q30,http://www.wikidata.org/entity/Q116715754,Quilt Block Wind Farm LLC,Wind farm,42.673333,-90.26528
United States,Q30,http://www.wikidata.org/entity/Q116715728,Bull Hill Wind Project,Wind farm,44.723056,-68.2425
United States,Q30,http://www.wikidata.org/entity/Q116715492,Seven Mile Hill,Wind farm,41.9203,-106.3758
United States,Q30,http://www.wikidata.org/entity/Q116715750,Blackstone Wind Farm LLC,Wind farm,41.1508,-88.6233
United States,Q30,http://www.wikidata.org/entity/Q116715622,Ward Butte Windfarm LLC,Wind farm,45.6967,-119.4097
United States,Q30,http://www.wikidata.org/entity/Q116715593,Willow Creek Energy Center,Wind farm,45.6533,-119.9914
United States,Q30,http://www.wikidata.org/entity/Q116715686,Merricourt Wind Energy Center,Wind farm,46.1075,-99.0592
United States,Q30,http://www.wikidata.org/entity/Q116715472,Marshall Wind 2 LLC,Wind farm,44.3236,-95.8222
United States,Q30,http://www.wikidata.org/entity/Q116715524,Shiloh Wind Project 2 LLC,Wind farm,38.1711,-121.8461
United States,Q30,http://www.wikidata.org/entity/Q116715619,Sand Ranch Windfarm LLC,Wind farm,45.6447,-119.4767
United States,Q30,http://www.wikidata.org/entity/Q116715604,Happy Jack Windpower Project,Wind farm,41.139722,-104.9978
United States,Q30,http://www.wikidata.org/entity/Q116715644,Oakfield Wind Project,Wind farm,46.058056,-68.14722
United States,Q30,http://www.wikidata.org/entity/Q116715719,Milford Wind Corridor I LLC,Wind farm,38.53569,-112.935
United States,Q30,http://www.wikidata.org/entity/Q116715780,Cambria Wind LLC,Wind farm,40.3042,-78.6908
United States,Q30,http://www.wikidata.org/entity/Q116715777,Eurus Combine Hills Turbine Ranch 2,Wind farm,45.943,-118.591
United States,Q30,http://www.wikidata.org/entity/Q116715526,Wapsipinicon Wind Project,Wind farm,43.8006,-92.6822
United States,Q30,http://www.wikidata.org/entity/Q116715446,Moraine II Wind LLC,Wind farm,44.1238,-96.0784
United States,Q30,http://www.wikidata.org/entity/Q116715568,FPL Energy Ashtabula Wind LLC,Wind farm,47.1294,-97.8853
United States,Q30,http://www.wikidata.org/entity/Q116715769,Beaver Ridge Wind,Wind farm,44.4967,-69.35
United States,Q30,http://www.wikidata.org/entity/Q116715488,Flat Iron Wind (7) LLC,Wind farm,36.0264,-101.9
United States,Q30,http://www.wikidata.org/entity/Q116715759,Ashtabula Wind II LLC,Wind farm,47.292437,-97.93169
United States,Q30,http://www.wikidata.org/entity/Q116715484,T-Bone Wind (10) LLC,Wind farm,35.8081,-101.9986
United States,Q30,http://www.wikidata.org/entity/Q116715508,Sagebrush Power Partners,Wind farm,47.1356,-120.6872
United States,Q30,http://www.wikidata.org/entity/Q116715487,Brisket Wind (8) LLC,Wind farm,36.0075,-101.8614
United States,Q30,http://www.wikidata.org/entity/Q116715630,Rollins Wind Project,Wind farm,45.34598,-68.3802
United States,Q30,http://www.wikidata.org/entity/Q116715605,Notrees Windpower Hybrid,Wind farm,31.995,-102.8283
United States,Q30,http://www.wikidata.org/entity/Q116715721,Sheffield Wind,Wind farm,44.67598,-72.1013
United States,Q30,http://www.wikidata.org/entity/Q116715755,Greensburg,Wind farm,37.5499,-99.3444
United States,Q30,http://www.wikidata.org/entity/Q116715457,Adair Wind Farm,Wind farm,41.4236,-94.665
United States,Q30,http://www.wikidata.org/entity/Q116715746,Mesalands Comm College Wind Turbine,Wind farm,35.17,-103.74
United States,Q30,http://www.wikidata.org/entity/Q116715507,Marble River Wind Farm,Wind farm,44.975833,-73.92972
United States,Q30,http://www.wikidata.org/entity/Q116715736,Rugby Wind Power Project,Wind farm,48.4968,-99.9513
United States,Q30,http://www.wikidata.org/entity/Q116715474,Marshall Wind 4 LLC,Wind farm,44.3361,-95.8242
United States,Q30,http://www.wikidata.org/entity/Q116715562,Langdon Wind II LLC,Wind farm,48.6292,-98.3164
United States,Q30,http://www.wikidata.org/entity/Q116715734,Star Point Wind Project LLC,Wind farm,45.51,-120.48
United States,Q30,http://www.wikidata.org/entity/Q116715511,Hardin Hilltop Wind LLC,Wind farm,42.0822,-94.365
United States,Q30,http://www.wikidata.org/entity/Q116715473,Marshall Wind 3 LLC,Wind farm,44.3211,-95.7942
United States,Q30,http://www.wikidata.org/entity/Q116715601,Ocotillo Windpower,Wind farm,32.1217,-101.3853
United States,Q30,http://www.wikidata.org/entity/Q116715504,Wheat Field Wind Power Project,Wind farm,45.675804,-120.3183
United States,Q30,http://www.wikidata.org/entity/Q116715776,Tuana Springs,Wind farm,42.8925,-115.0164
United States,Q30,http://www.wikidata.org/entity/Q116715672,Luverne Wind Energy Center,Wind farm,47.3272,-97.8975
United States,Q30,http://www.wikidata.org/entity/Q116715555,Wethersfield,Wind farm,42.6697,-78.2278
United States,Q30,http://www.wikidata.org/entity/Q116715477,Marshall Wind 6 LLC,Wind farm,44.3308,-95.8297
United States,Q30,http://www.wikidata.org/entity/Q116715765,Camp Reed,Wind farm,42.811944,-115.0489
United States,Q30,http://www.wikidata.org/entity/Q116715764,Payne's Ferry,Wind farm,42.825278,-115.0108
United States,Q30,http://www.wikidata.org/entity/Q116715486,Tri-Tip Wind (9) LLC,Wind farm,35.9614,-101.8033
United States,Q30,http://www.wikidata.org/entity/Q116715578,Cassia Gulch,Wind farm,42.8744,-115.0172
United States,Q30,http://www.wikidata.org/entity/Q116715766,Yahoo Creek,Wind farm,42.770833,-114.9886
United States,Q30,http://www.wikidata.org/entity/Q116715509,Crosswind Energy Project,Wind farm,43.0475,-94.9228
United States,Q30,http://www.wikidata.org/entity/Q116715490,Marshall Wind 1 LLC,Wind farm,44.3253,-95.8142
United States,Q30,http://www.wikidata.org/entity/Q116715557,Chateaugay,Wind farm,44.8917,-74.0299
United States,Q30,http://www.wikidata.org/entity/Q116715451,EcoGrove Wind LLC,Wind farm,42.451481,-89.87843
United States,Q30,http://www.wikidata.org/entity/Q116715476,Marshall Wind 5 LLC,Wind farm,44.3303,-95.8344
United States,Q30,http://www.wikidata.org/entity/Q116715616,Oregon Trail Windfarm LLC,Wind farm,45.7122,-119.4044
United States,Q30,http://www.wikidata.org/entity/Q116715491,Glenrock,Wind farm,43.0181,-105.8353
United States,Q30,http://www.wikidata.org/entity/Q116715751,Lost Lakes Wind Farm LLC,Wind farm,43.3456,-95.3233
United States,Q30,http://www.wikidata.org/entity/Q116715783,Harvest Wind Project,Wind farm,45.8131,-120.3475
United States,Q30,http://www.wikidata.org/entity/Q116715483,Ribeye Wind (11) LLC,Wind farm,35.8119,-101.9789
United States,Q30,http://www.wikidata.org/entity/Q116715621,Wagon Trail LLC,Wind farm,45.6531,-119.4625
United States,Q30,http://www.wikidata.org/entity/Q116715628,Stetson Wind I,Wind farm,45.4822,-67.9944
United States,Q30,http://www.wikidata.org/entity/Q116715455,Carroll Wind Farm,Wind farm,42.1622,-94.93
United States,Q30,http://www.wikidata.org/entity/Q116715733,Casper Wind Farm,Wind farm,42.884703,-106.2214
United States,Q30,http://www.wikidata.org/entity/Q116715596,Bull Creek Wind,Wind farm,32.929014,-101.5786
United States,Q30,http://www.wikidata.org/entity/Q116715575,Threemile Canyon,Wind farm,45.6758,-119.9375
United States,Q30,http://www.wikidata.org/entity/Q116715679,McFadden Ridge,Wind farm,41.7244,-105.9906
United States,Q30,http://www.wikidata.org/entity/Q116716073,Laurel Wind Farm,Wind farm,41.883333,-92.93333
United States,Q30,http://www.wikidata.org/entity/Q116715933,Sunray Wind I,Wind farm,35.9454,-101.9005
United States,Q30,http://www.wikidata.org/entity/Q116715816,Day County Wind LLC,Wind farm,45.215,-97.9056
United States,Q30,http://www.wikidata.org/entity/Q116715830,Cedar Creek II,Wind farm,40.9475,-103.7839
United States,Q30,http://www.wikidata.org/entity/Q116715788,Windy Flats Wind Project,Wind farm,45.7269,-120.8339
United States,Q30,http://www.wikidata.org/entity/Q116715999,Elk Wind Farm,Wind farm,42.583889,-91.37083
United States,Q30,http://www.wikidata.org/entity/Q116715873,Laredo Ridge Wind LLC,Wind farm,41.880278,-98.02389
United States,Q30,http://www.wikidata.org/entity/Q116716095,Palouse,Wind farm,47.155833,-117.3644
United States,Q30,http://www.wikidata.org/entity/Q116715891,Flat Water Wind Farm LLC,Wind farm,40.0011,-95.9289
United States,Q30,http://www.wikidata.org/entity/Q116715924,Big Horn Wind II,Wind farm,45.9192,-120.3039
United States,Q30,http://www.wikidata.org/entity/Q116715811,Lost Creek Wind Energy Facility,Wind farm,39.981389,-94.51806
United States,Q30,http://www.wikidata.org/entity/Q116715903,Alta Wind Energy Center IV,Wind farm,35.008611,-118.2422
United States,Q30,http://www.wikidata.org/entity/Q116715905,Alta Wind Energy Center V,Wind farm,35.008611,-118.2422
United States,Q30,http://www.wikidata.org/entity/Q116715893,Sandy Ridge Wind Farm,Wind farm,40.729207,-78.28735
United States,Q30,http://www.wikidata.org/entity/Q116715896,Hardscrabble Wind Power LLC,Wind farm,43.112222,-74.87889
United States,Q30,http://www.wikidata.org/entity/Q116716013,Oak Glen Wind Farm,Wind farm,43.920556,-93.14056
United States,Q30,http://www.wikidata.org/entity/Q116715910,Dunlap,Wind farm,42.043611,-106.1603
United States,Q30,http://www.wikidata.org/entity/Q116716308,Northern Iowa Windpower II,Wind farm,43.3608,-93.2978
United States,Q30,http://www.wikidata.org/entity/Q116716008,Mainline Windfarm,Wind farm,43.04835,-115.4129
United States,Q30,http://www.wikidata.org/entity/Q116716290,Fey Windfarm LLC,Wind farm,44.0364,-96.0736
United States,Q30,http://www.wikidata.org/entity/Q116715927,Juniper Canyon I Wind Project,Wind farm,45.9215,-120.2355
United States,Q30,http://www.wikidata.org/entity/Q116715787,Barton Chapel Wind Farm,Wind farm,33.052226,-98.32842
United States,Q30,http://www.wikidata.org/entity/Q116715858,Welcome Wind Turbine,Wind farm,43.6825,-94.5892
United States,Q30,http://www.wikidata.org/entity/Q116716307,Judith Gap Wind Energy Center,Wind farm,46.5725,-109.7531
United States,Q30,http://www.wikidata.org/entity/Q116716057,Manzana Wind LLC,Wind farm,34.9349,-118.4612
United States,Q30,http://www.wikidata.org/entity/Q116716010,Cold Springs Windfarm,Wind farm,43.028056,-115.4005
United States,Q30,http://www.wikidata.org/entity/Q116715870,Cedro Hill Wind LLC,Wind farm,27.576111,-98.90528
United States,Q30,http://www.wikidata.org/entity/Q116716310,Top of Iowa Windfarm III,Wind farm,43.3597,-93.3208
United States,Q30,http://www.wikidata.org/entity/Q116715983,Community Wind North LLC,Wind farm,44.245556,-96.40639
United States,Q30,http://www.wikidata.org/entity/Q116716034,Mountain View IV,Wind farm,33.8816,-116.5527
United States,Q30,http://www.wikidata.org/entity/Q116715975,"Poseidon Wind, LLC",Wind farm,34.6062,-110.1734
United States,Q30,http://www.wikidata.org/entity/Q116716315,Agriwind,Wind farm,41.3017,-89.6236
United States,Q30,http://www.wikidata.org/entity/Q116715912,Garnet Wind Energy Center,Wind farm,33.9053,-116.5825
United States,Q30,http://www.wikidata.org/entity/Q116716311,Forest Creek Wind Farm LLC,Wind farm,32.039,-101.22
United States,Q30,http://www.wikidata.org/entity/Q116715892,Minonk Wind Farm,Wind farm,40.888611,-88.99722
United States,Q30,http://www.wikidata.org/entity/Q116715862,Lakota Wind Wind Farm,Wind farm,43.3839,-94.1475
United States,Q30,http://www.wikidata.org/entity/Q116715869,Texico Wind Ranch LP,Wind farm,34.36,-103.0667
United States,Q30,http://www.wikidata.org/entity/Q116715784,Langford Wind Power,Wind farm,31.085435,-100.6788
United States,Q30,http://www.wikidata.org/entity/Q116715958,Red Mesa Wind LLC,Wind farm,35.2689,-107.3828
United States,Q30,http://www.wikidata.org/entity/Q116715876,Little Pringle II Wind Farm,Wind farm,35.924858,-101.5414
United States,Q30,http://www.wikidata.org/entity/Q116716300,Leaning Juniper,Wind farm,45.652457,-120.2098
United States,Q30,http://www.wikidata.org/entity/Q116715831,Goshen Phase II,Wind farm,43.467057,-111.8364
United States,Q30,http://www.wikidata.org/entity/Q116716045,Garden Wind LLC,Wind farm,42.224436,-93.37363
United States,Q30,http://www.wikidata.org/entity/Q116716064,Settlers Trail Wind Farm LLC,Wind farm,40.694444,-87.57083
United States,Q30,http://www.wikidata.org/entity/Q116716294,Cedar Ridge,Wind farm,43.692647,-88.32974
United States,Q30,http://www.wikidata.org/entity/Q116715943,White Oak Energy LLC,Wind farm,40.590833,-89.04667
United States,Q30,http://www.wikidata.org/entity/Q116715818,Bent Tree Wind Farm Phase 1,Wind farm,43.724596,-93.45043
United States,Q30,http://www.wikidata.org/entity/Q116716125,Cooper Farms VW Project,Wind farm,40.905833,-84.57028
United States,Q30,http://www.wikidata.org/entity/Q116716291,S&P Windfarm LLC,Wind farm,43.651389,-95.3825
United States,Q30,http://www.wikidata.org/entity/Q116716317,Stahl Wind Energy,Wind farm,44.0256,-96.4303
United States,Q30,http://www.wikidata.org/entity/Q116716284,Combine Hills I,Wind farm,45.943,-118.591
United States,Q30,http://www.wikidata.org/entity/Q116715898,Big Blue,Wind farm,43.612222,-94.19194
United States,Q30,http://www.wikidata.org/entity/Q116715889,Alta Wind Energy Center I,Wind farm,35.033725,-118.3534
United States,Q30,http://www.wikidata.org/entity/Q116716009,Desert Meadow Windfarm,Wind farm,43.056622,-115.452
United States,Q30,http://www.wikidata.org/entity/Q116716287,Bisson Windfarm LLC,Wind farm,43.984444,-96.21944
United States,Q30,http://www.wikidata.org/entity/Q116716088,Trinity Hills,Wind farm,33.383611,-98.71194
United States,Q30,http://www.wikidata.org/entity/Q116715884,Grant County Wind LLC,Wind farm,45.8033,-95.8844
United States,Q30,http://www.wikidata.org/entity/Q116716289,Tofteland Windfarm LLC,Wind farm,43.980278,-96.22333
United States,Q30,http://www.wikidata.org/entity/Q116715971,Lakefield Wind Project LLC,Wind farm,43.675,-95.15667
United States,Q30,http://www.wikidata.org/entity/Q116715947,Baldwin Wind LLC,Wind farm,47.1133,-100.7086
United States,Q30,http://www.wikidata.org/entity/Q116715913,Loraine Windpark Project LLC,Wind farm,32.4375,-100.7444
United States,Q30,http://www.wikidata.org/entity/Q116715907,Carleton College,Wind farm,44.461908,-93.15639
United States,Q30,http://www.wikidata.org/entity/Q116716039,Bishop Hill Energy LLC,Wind farm,41.215278,-90.12083
United States,Q30,http://www.wikidata.org/entity/Q116715820,Glacier Hills,Wind farm,43.563889,-89.14806
United States,Q30,http://www.wikidata.org/entity/Q116715880,Chestnut Flats Wind Farm,Wind farm,40.522846,-78.47692
United States,Q30,http://www.wikidata.org/entity/Q116715867,Iowa Lakes Community College Wind Farm,Wind farm,43.385347,-94.81566
United States,Q30,http://www.wikidata.org/entity/Q116715871,Taloga Wind LLC,Wind farm,35.855556,-98.96833
United States,Q30,http://www.wikidata.org/entity/Q116716096,Bingham Wind,Wind farm,45.103333,-69.76194
United States,Q30,http://www.wikidata.org/entity/Q116716050,Ralls Wind Farm,Wind farm,33.661111,-101.39
United States,Q30,http://www.wikidata.org/entity/Q116716014,Valley View Transmission LLC,Wind farm,43.902753,-96.02174
United States,Q30,http://www.wikidata.org/entity/Q116715822,FPL Energy Montezuma Winds LLC,Wind farm,38.163581,-121.7966
United States,Q30,http://www.wikidata.org/entity/Q116716003,Buffalo Ridge II LLC,Wind farm,44.5281,-96.6267
United States,Q30,http://www.wikidata.org/entity/Q116715863,Iowa Lakes Superior Wind Farm,Wind farm,43.445,-94.98028
United States,Q30,http://www.wikidata.org/entity/Q116715955,Fox Island Wind LLC,Wind farm,44.094167,-68.86583
United States,Q30,http://www.wikidata.org/entity/Q116716295,Spearville,Wind farm,37.8641,-99.7528
United States,Q30,http://www.wikidata.org/entity/Q116716273,Ainsworth Wind,Wind farm,42.4489,-99.8917
United States,Q30,http://www.wikidata.org/entity/Q116715885,Crofton Bluffs Wind LLC,Wind farm,42.698333,-97.58
United States,Q30,http://www.wikidata.org/entity/Q116715895,OU Spirit Wind Farm,Wind farm,36.333803,-99.48014
United States,Q30,http://www.wikidata.org/entity/Q116716275,Moraine Wind LLC,Wind farm,44.0667,-96.0667
United States,Q30,http://www.wikidata.org/entity/Q116715810,Vantage Wind Energy LLC,Wind farm,46.9547,-120.1819
United States,Q30,http://www.wikidata.org/entity/Q116716000,Gratiot Wind Park,Wind farm,43.433889,-84.4975
United States,Q30,http://www.wikidata.org/entity/Q116715945,Elk City LLC,Wind farm,35.4642,-99.8983
United States,Q30,http://www.wikidata.org/entity/Q116715899,Northern Colorado Wind LLC,Wind farm,40.9881,-102.8969
United States,Q30,http://www.wikidata.org/entity/Q116715973,Adams Wind Generations LLC,Wind farm,44.916944,-94.73556
United States,Q30,http://www.wikidata.org/entity/Q116716082,Ocotillo Express LLC,Wind farm,32.752778,-116.0447
United States,Q30,http://www.wikidata.org/entity/Q116716024,Two Ponds Windfarm,Wind farm,43.033781,-115.4826
United States,Q30,http://www.wikidata.org/entity/Q116715874,Little Pringle I Wind Farm,Wind farm,35.964272,-101.5402
United States,Q30,http://www.wikidata.org/entity/Q116715960,Keenan II Renewable Energy Co LLC,Wind farm,36.276111,-99.49083
United States,Q30,http://www.wikidata.org/entity/Q116716005,Ryegrass Windfarm,Wind farm,43.037147,-115.4397
United States,Q30,http://www.wikidata.org/entity/Q116715934,Leaning Juniper Wind Power II,Wind farm,45.651,-120.2598
United States,Q30,http://www.wikidata.org/entity/Q116715801,Cedar Hills Wind Farm,Wind farm,46.245556,-103.7672
United States,Q30,http://www.wikidata.org/entity/Q116716301,Shiloh I Wind Project,Wind farm,38.12,-121.85
United States,Q30,http://www.wikidata.org/entity/Q116716085,DeWind Frisco,Wind farm,36.498514,-101.6053
United States,Q30,http://www.wikidata.org/entity/Q116716286,TG Windfarm LLC,Wind farm,43.9897,-96.2236
United States,Q30,http://www.wikidata.org/entity/Q116715951,Uilk Wind LLC,Wind farm,43.9811,-96.4269
United States,Q30,http://www.wikidata.org/entity/Q116715865,MA Military Reservation Wind Project,Wind farm,41.6647,-70.5942
United States,Q30,http://www.wikidata.org/entity/Q116715902,Alta Wind Energy Center III,Wind farm,35.023889,-118.2953
United States,Q30,http://www.wikidata.org/entity/Q116715900,Alta Wind Energy Center II,Wind farm,35.023889,-118.2953
United States,Q30,http://www.wikidata.org/entity/Q116715998,Notus Wind 1,Wind farm,41.6083,-70.6089
United States,Q30,http://www.wikidata.org/entity/Q116716006,Hammett Hill Windfarm,Wind farm,43.006133,-115.4633
United States,Q30,http://www.wikidata.org/entity/Q15404076,Tehachapi Pass Wind Farm,Wind farm,35.1022,-118.283
United States,Q30,http://www.wikidata.org/entity/Q116697642,Rock Aetna Power Partners,Wind farm,44.022721,-96.05232
United States,Q30,http://www.wikidata.org/entity/Q19867909,Hawi Wind Farm,Wind farm,20.2553,-155.854
United States,Q30,http://www.wikidata.org/entity/Q68807730,Latigo Wind Farm,Wind farm,37.871833333,-109.343944444
United States,Q30,http://www.wikidata.org/entity/Q65084374,Cedar Point Wind Farm,Wind farm,39.421667,-103.678056
United States,Q30,http://www.wikidata.org/entity/Q116712814,San Gorgonio Westwinds II LLC,Wind farm,33.934,-116.5781
United States,Q30,http://www.wikidata.org/entity/Q65084533,Rush Creek Wind Project,Wind farm,39.172222,-103.845278
United States,Q30,http://www.wikidata.org/entity/Q116712991,Mojave 3/4/5,Wind farm,35.0506,-118.2572
United States,Q30,http://www.wikidata.org/entity/Q24884730,High Sheldon Wind Farm,Wind farm,42.729,-78.393
United States,Q30,http://www.wikidata.org/entity/Q7824713,Top of the World Windpower Project,Wind farm,42.925,-105.772
United States,Q30,http://www.wikidata.org/entity/Q116712863,East Winds Project,Wind farm,33.890913,-116.5415
United States,Q30,http://www.wikidata.org/entity/Q65067490,Desert Wind Farm,Wind farm,36.31,-76.42
United States,Q30,http://www.wikidata.org/entity/Q116712122,Dinosaur Point,Wind farm,37.0478,-121.1708
United States,Q30,http://www.wikidata.org/entity/Q62127885,Bethel Wind Farm,Wind farm,34.5753,-102.4746
United States,Q30,http://www.wikidata.org/entity/Q7838479,Trent Wind Farm,Wind farm,32.422,-100.212
United States,Q30,http://www.wikidata.org/entity/Q116712752,Edom Hills Project 1 LLC,Wind farm,33.881667,-116.4603
United States,Q30,http://www.wikidata.org/entity/Q115801100,Hoopeston Wind Farm,Wind farm,40.393055555,-87.779444444
United States,Q30,http://www.wikidata.org/entity/Q14705671,Jersey-Atlantic Wind Farm,Wind farm,39.3814,-74.4475
United States,Q30,http://www.wikidata.org/entity/Q16984172,Berkshire Wind Power Project,Wind farm,42.57916667,-73.27388889
United States,Q30,http://www.wikidata.org/entity/Q116699360,Searsburg Wind Turbine,Wind farm,42.8625,-72.9628
United States,Q30,http://www.wikidata.org/entity/Q115801387,Whitney Hill Wind Farm,Wind farm,39.956944444,-89.311111111
United States,Q30,http://www.wikidata.org/entity/Q116697657,Schumann Wind Farm,Wind farm,45.90676,-118.4973
United States,Q30,http://www.wikidata.org/entity/Q116695992,Snake River,Wind farm,64.505331,-165.4298
United States,Q30,http://www.wikidata.org/entity/Q28454372,Bloom Wind,Wind farm,37.4863,-99.9247
United States,Q30,http://www.wikidata.org/entity/Q7994624,White Creek Wind Farm,Wind farm,45.7267,-120.834
United States,Q30,http://www.wikidata.org/entity/Q115801419,California Ridge Wind Farm,Wind farm,40.208611111,-87.874444444
United States,Q30,http://www.wikidata.org/entity/Q115802195,Bishop Hill Wind Farms,Wind farm,41.183333333,-90.2
United States,Q30,http://www.wikidata.org/entity/Q7975969,Waymart Wind Farm,Wind farm,41.5635,-75.4448
United States,Q30,http://www.wikidata.org/entity/Q114554279,Bright Stalk Wind Farm,Wind farm,40.714444444,-88.705833333
United States,Q30,http://www.wikidata.org/entity/Q62088009,Kamaoa Wind Farm,Wind farm,18.9925,-155.668055555
United States,Q30,http://www.wikidata.org/entity/Q16956195,New Mexico Wind Energy Center,Wind farm,34.63566,-104.04733
United States,Q30,http://www.wikidata.org/entity/Q116712345,Cameron Ridge LLC,Wind farm,35.075,-118.3158
United States,Q30,http://www.wikidata.org/entity/Q14714264,Mount Storm Wind Farm,Wind farm,39.2244,-79.2042
United States,Q30,http://www.wikidata.org/entity/Q116713083,CTV Power Purchase Contract Trust,Wind farm,35.0583,-118.3083
United States,Q30,http://www.wikidata.org/entity/Q116697672,Buffalo Ridge Wind,Wind farm,44.423056,-96.29722
United States,Q30,http://www.wikidata.org/entity/Q116697089,Willmar,Wind farm,45.121705,-95.05324
United States,Q30,http://www.wikidata.org/entity/Q62088309,Pakini Nui Wind Farm,Wind farm,18.9729,-155.6898
United States,Q30,http://www.wikidata.org/entity/Q116712617,San Gorgonio Farms Wind Farm,Wind farm,33.926111,-116.615
United States,Q30,http://www.wikidata.org/entity/Q65058240,Javelina Wind Energy Center,Wind farm,27.44,-98.91
United States,Q30,http://www.wikidata.org/entity/Q16980022,Kahuku Wind Farm,Wind farm,21.68734,-157.97201
United States,Q30,http://www.wikidata.org/entity/Q116714008,Buffalo Mountain,Wind farm,36.120994,-84.33873
United States,Q30,http://www.wikidata.org/entity/Q7915192,Vansycle Wind Project,Wind farm,45.923,-118.63
United States,Q30,http://www.wikidata.org/entity/Q116714533,Storm Lake 1,Wind farm,42.6878,-95.405
United States,Q30,http://www.wikidata.org/entity/Q116697069,Mountain Lake,Wind farm,43.9405,-94.9434
United States,Q30,http://www.wikidata.org/entity/Q65056436,Bison Wind Energy Center,Wind farm,46.98,-101.554722222
United States,Q30,http://www.wikidata.org/entity/Q116714066,Tehachapi Wind Resource I,Wind farm,35.060556,-118.3897
United States,Q30,http://www.wikidata.org/entity/Q116712841,Oak Creek Energy Systems I,Wind farm,35.043889,-118.2764
United States,Q30,http://www.wikidata.org/entity/Q116714167,Victory Garden (Tehachapi),Wind farm,35.0686,-118.3833
United States,Q30,http://www.wikidata.org/entity/Q28453999,Amazon Wind Farm Texas,Wind farm,32.863888888,-100.975
United States,Q30,http://www.wikidata.org/entity/Q8001485,Wildorado Wind Ranch,Wind farm,35.307,-102.32
United States,Q30,http://www.wikidata.org/entity/Q116713002,85 A,Wind farm,35.1011,-118.3372
United States,Q30,http://www.wikidata.org/entity/Q116713003,85 B,Wind farm,35.1011,-118.3372
United States,Q30,http://www.wikidata.org/entity/Q116714599,Tehachapi Wind Resource II,Wind farm,35.1061,-118.3114
United States,Q30,http://www.wikidata.org/entity/Q25111237,Rim Rock Wind Farm,Wind farm,48.83611111,-112.06222222
United States,Q30,http://www.wikidata.org/entity/Q20710329,Shirley Wind,Wind farm,44.35694444,-87.9475
United States,Q30,http://www.wikidata.org/entity/Q116696302,Lamar Plant,Wind farm,38.033327,-102.5379
United States,Q30,http://www.wikidata.org/entity/Q116712349,Ridgetop Energy LLC,Wind farm,35.0697,-118.3167
United States,Q30,http://www.wikidata.org/entity/Q116696375,Medicine Bow,Wind farm,41.835278,-106.2428
United States,Q30,http://www.wikidata.org/entity/Q116712751,GPS Cabazon Wind LLC,Wind farm,33.914986,-116.7103
United States,Q30,http://www.wikidata.org/entity/Q116714020,Nine Canyon,Wind farm,46.0958,-119.0964
United States,Q30,http://www.wikidata.org/entity/Q112690519,Scioto Ridge Wind Farm,Wind farm,40.561389,-83.73639
United States,Q30,http://www.wikidata.org/entity/Q116697811,Punta Lima Wind Farm,Wind farm,18.189872,-65.6952
United States,Q30,http://www.wikidata.org/entity/Q116713218,TPC Windfarms LLC,Wind farm,35.05,-118.2572
United States,Q30,http://www.wikidata.org/entity/Q116714168,Painted Hills Wind Park,Wind farm,33.9369,-116.6183
United States,Q30,http://www.wikidata.org/entity/Q116712023,Moorhead Wind Turbine,Wind farm,46.895,-96.7347
United States,Q30,http://www.wikidata.org/entity/Q116713972,Princeton Wind Farm,Wind farm,42.4789,-71.9
United States,Q30,http://www.wikidata.org/entity/Q115800840,Sugar Creek Wind Farm,Wind farm,40.143333333,-89.5325
United States,Q30,http://www.wikidata.org/entity/Q85802263,South Chestnut Wind Project,Wind farm,39.754583333,-79.714305555
United States,Q30,http://www.wikidata.org/entity/Q116712404,Karen Avenue Wind Farm,Wind farm,33.92194,-116.5622
United States,Q30,http://www.wikidata.org/entity/Q116712744,Mesa Wind Power LLC,Wind farm,33.9461,-116.6769
United States,Q30,http://www.wikidata.org/entity/Q65063622,Grande Prairie Wind Farm,Wind farm,42.608056,-98.428333
United States,Q30,http://www.wikidata.org/entity/Q116697673,Young Wind,Wind farm,33.119213,-98.85258
United States,Q30,http://www.wikidata.org/entity/Q116714169,Sky River Wind Energy Center,Wind farm,35.2608,-118.2469
United States,Q30,http://www.wikidata.org/entity/Q116713242,Difwind Farms Ltd VI,Wind farm,35.0506,-118.1714
United States,Q30,http://www.wikidata.org/entity/Q63386687,Blue Creek Wind Farm,Wind farm,40.92583333,-84.56194444
United States,Q30,http://www.wikidata.org/entity/Q116697837,Fort Buchanan Distributed Generation,Wind farm,18.408354,-66.11616
United States,Q30,http://www.wikidata.org/entity/Q116713984,Solano Wind,Wind farm,38.116415,-121.769
United States,Q30,http://www.wikidata.org/entity/Q18350256,Huerfano River Wind Farm,Wind farm,37.7743,-104.832
United States,Q30,http://www.wikidata.org/entity/Q116713146,San Gorgonio Windplant WPP1993,Wind farm,33.918395,-116.5739
United States,Q30,http://www.wikidata.org/entity/Q116713080,Coram Energy LLC (ECT),Wind farm,35.0583,-118.3417
United States,Q30,http://www.wikidata.org/entity/Q116699344,"Tyler Bluff Wind Project, LLC",Wind farm,33.703851,-97.37201
United States,Q30,http://www.wikidata.org/entity/Q116713145,EDF Renewable Windfarm V Inc,Wind farm,38.1167,-121.8333
United States,Q30,http://www.wikidata.org/entity/Q104867181,Kawailoa Wind Farm,Wind farm,21.610278,-158.040833
United States,Q30,http://www.wikidata.org/entity/Q116714293,Coram Tehachapi,Wind farm,35.0663,-118.3394
United States,Q30,http://www.wikidata.org/entity/Q65057061,Spinning Spur Wind Ranch,Wind farm,35.276944,-102.682778
United States,Q30,http://www.wikidata.org/entity/Q116713082,Coram Energy LLC,Wind farm,35.075,-118.3417
United States,Q30,http://www.wikidata.org/entity/Q79722962,Arkwright Summit Wind Farm,Wind farm,42.436656,-79.307121
United States,Q30,http://www.wikidata.org/entity/Q19865020,Lake Winds Energy Park,Wind farm,44.02,-86.5
United States,Q30,http://www.wikidata.org/entity/Q116712061,Salt Valley Wind Plant,Wind farm,40.9044,-96.6231
United States,Q30,http://www.wikidata.org/entity/Q7963704,Walnut Wind Farm,Wind farm,41.49,-95.25
United States,Q30,http://www.wikidata.org/entity/Q16949985,Madison Wind Farm,Wind farm,42.894722,-75.451666
United States,Q30,http://www.wikidata.org/entity/Q19600129,Tuscola Bay wind farm,Wind farm,43.526,-83.6531
United States,Q30,http://www.wikidata.org/entity/Q110191907,Waverly Wind Farm,Wind farm,38.33184,-95.59138
United States,Q30,http://www.wikidata.org/entity/Q116711965,Springview,Wind farm,42.82579,-99.77747
United States,Q30,http://www.wikidata.org/entity/Q7687863,Tatanka Wind Farm,Wind farm,45.9392,-99.0108
United States,Q30,http://www.wikidata.org/entity/Q116712864,Mojave 16/17/18,Wind farm,35.045,-118.2642
United States,Q30,http://www.wikidata.org/entity/Q116697091,Worthington,Wind farm,43.63349,-95.60923
United States,Q30,http://www.wikidata.org/entity/Q7993967,Whispering Willow Wind Farm – East,Wind farm,42.735,-93.338
United States,Q30,http://www.wikidata.org/entity/Q116714032,Chamberlain Wind Project,Wind farm,43.848529,-99.24757
United States,Q30,http://www.wikidata.org/entity/Q116712062,Iowa Distributed Wind Generation Project,Wind farm,43.034722,-94.14056
United States,Q30,http://www.wikidata.org/entity/Q116718039,Paulding Wind Farm II,Wind farm,41.025278,-84.77917
United States,Q30,http://www.wikidata.org/entity/Q116718009,Shane's Wind Machine,Wind farm,44.1508,-96.1361
United States,Q30,http://www.wikidata.org/entity/Q116718128,Mehoopany Wind Energy LLC,Wind farm,41.420556,-76.04917
United States,Q30,http://www.wikidata.org/entity/Q116716348,Prairie Winds ND1,Wind farm,47.933621,-101.2692
United States,Q30,http://www.wikidata.org/entity/Q116718019,"Minco Wind I, LLC",Wind farm,35.280278,-97.97556
United States,Q30,http://www.wikidata.org/entity/Q116718181,Mustang Hills LLC,Wind farm,35.030855,-118.2932
United States,Q30,http://www.wikidata.org/entity/Q116718197,McKinley Wind Park,Wind farm,43.871944,-83.24139
United States,Q30,http://www.wikidata.org/entity/Q116718118,Coastal Energy Project,Wind farm,46.793581,-124.0654
United States,Q30,http://www.wikidata.org/entity/Q116718003,Tenderloin Wind (6) LLC,Wind farm,36.4669,-101.8222
United States,Q30,http://www.wikidata.org/entity/Q116718004,Peetz Table Wind Energy,Wind farm,40.986,-103.436
United States,Q30,http://www.wikidata.org/entity/Q116718125,Rockland Wind Farm,Wind farm,42.674722,-112.9019
United States,Q30,http://www.wikidata.org/entity/Q116718121,Power County Wind Park North,Wind farm,42.738889,-112.7486
United States,Q30,http://www.wikidata.org/entity/Q116716413,"Roth Rock North Wind Farm, LLC",Wind farm,39.287222,-79.43444
United States,Q30,http://www.wikidata.org/entity/Q116716329,Oregon Trail Wind Park,Wind farm,42.840556,-114.9897
United States,Q30,http://www.wikidata.org/entity/Q116718052,Union City Wind Turbine,Wind farm,40.1908,-84.8172
United States,Q30,http://www.wikidata.org/entity/Q116718178,Rippey Wind Farm,Wind farm,42.006111,-94.23778
United States,Q30,http://www.wikidata.org/entity/Q116716369,Elm Creek Wind LLC,Wind farm,43.7542,-94.9497
United States,Q30,http://www.wikidata.org/entity/Q116718047,Wolverine,Wind farm,41.3931,-94.4447
United States,Q30,http://www.wikidata.org/entity/Q116716321,Greenback Energy,Wind farm,44.0208,-96.4331
United States,Q30,http://www.wikidata.org/entity/Q116716396,University of Delaware Wind Turbine,Wind farm,38.782931,-75.1649
United States,Q30,http://www.wikidata.org/entity/Q116716322,Fairmont Wind,Wind farm,43.575,-94.44667
United States,Q30,http://www.wikidata.org/entity/Q116716356,Michigan Wind 2,Wind farm,43.663056,-82.74694
United States,Q30,http://www.wikidata.org/entity/Q116718185,Pinyon Pine II,Wind farm,35.026759,-118.2233
United States,Q30,http://www.wikidata.org/entity/Q116718195,Sigel Wind Park,Wind farm,43.850833,-82.78361
United States,Q30,http://www.wikidata.org/entity/Q116716412,Roth Rock Wind Farm LLC,Wind farm,39.254444,-79.46722
United States,Q30,http://www.wikidata.org/entity/Q116718120,Power County Wind Park South,Wind farm,42.703333,-112.7578
United States,Q30,http://www.wikidata.org/entity/Q116718050,Linden Wind Energy Project,Wind farm,45.744171,-120.7836
United States,Q30,http://www.wikidata.org/entity/Q116716465,Record Hill Wind,Wind farm,44.633611,-70.62778
United States,Q30,http://www.wikidata.org/entity/Q116716417,Kit Carson Windpower,Wind farm,39.3383,-102.3533
United States,Q30,http://www.wikidata.org/entity/Q116716343,Blue Breezes II LLC,Wind farm,43.6558,-94.1564
United States,Q30,http://www.wikidata.org/entity/Q116718126,Brown County Wind Turbine,Wind farm,39.973333,-90.69917
United States,Q30,http://www.wikidata.org/entity/Q116718122,Cimarron Wind Energy LLC,Wind farm,37.873889,-100.2803
United States,Q30,http://www.wikidata.org/entity/Q116718008,FPL Energy Oliver Wind II LLC,Wind farm,47.152847,-101.1977
United States,Q30,http://www.wikidata.org/entity/Q116718061,Henkel U.S. Operations Corporation,Wind farm,42.886944,-76.96833
United States,Q30,http://www.wikidata.org/entity/Q116718199,Ipswich Wind Turbine,Wind farm,42.716389,-70.84194
United States,Q30,http://www.wikidata.org/entity/Q116718209,Wildcat Wind,Wind farm,32.952778,-103.2853
United States,Q30,http://www.wikidata.org/entity/Q116716331,Tuana Gulch Wind Park,Wind farm,42.836854,-114.9693
United States,Q30,http://www.wikidata.org/entity/Q116718020,Broken Bow Wind LLC,Wind farm,41.454722,-99.56806
United States,Q30,http://www.wikidata.org/entity/Q116718041,Bright Stalk Wind Farm I,Wind farm,40.701241,-88.70105
United States,Q30,http://www.wikidata.org/entity/Q116718053,Randolph Eastern School Wind Turbine,Wind farm,40.2097,-84.8219
United States,Q30,http://www.wikidata.org/entity/Q116716318,Carstensen Wind,Wind farm,44.0247,-96.4369
United States,Q30,http://www.wikidata.org/entity/Q116718056,"Vestas Towers America, Inc.",Wind farm,38.1728,-104.62
United States,Q30,http://www.wikidata.org/entity/Q116716438,Ridgewind,Wind farm,44.018889,-96.06528
United States,Q30,http://www.wikidata.org/entity/Q116716351,Clinton,Wind farm,44.8914,-74.0061
United States,Q30,http://www.wikidata.org/entity/Q116718054,Ironwood Wind,Wind farm,37.81828,-99.7754
United States,Q30,http://www.wikidata.org/entity/Q116718180,Hawkeye Wind Farm,Wind farm,42.948889,-92.06222
United States,Q30,http://www.wikidata.org/entity/Q116718117,TPW Petersburg,Wind farm,41.864583,-97.96119
United States,Q30,http://www.wikidata.org/entity/Q116718044,Foundation ST,Wind farm,37.714167,-121.5217
United States,Q30,http://www.wikidata.org/entity/Q116718150,Foundation IE,Wind farm,34.084722,-117.5294
United States,Q30,http://www.wikidata.org/entity/Q116718037,Blue Canyon Windpower VI LLC,Wind farm,34.910361,-98.5599
United States,Q30,http://www.wikidata.org/entity/Q116718088,"Post Rock Wind Power Project, LLC",Wind farm,38.841667,-98.29944
United States,Q30,http://www.wikidata.org/entity/Q116718038,Hidalgo Wind Farm LLC,Wind farm,26.465556,-98.41111
United States,Q30,http://www.wikidata.org/entity/Q116718017,Shiloh III Wind Project LLC,Wind farm,38.169444,-121.8469
United States,Q30,http://www.wikidata.org/entity/Q116716444,Danielson Wind Farms LLC,Wind farm,45.071667,-94.75222
United States,Q30,http://www.wikidata.org/entity/Q116716474,PaTu Wind Farm LLC,Wind farm,45.613061,-120.6169
United States,Q30,http://www.wikidata.org/entity/Q116718040,Rising Tree Wind Farm,Wind farm,35.0775,-118.2183
United States,Q30,http://www.wikidata.org/entity/Q116718157,Magic Valley Wind Farm I LLC,Wind farm,26.475278,-97.69111
United States,Q30,http://www.wikidata.org/entity/Q116718149,Foundation AB,Wind farm,38.232222,-122.0928
United States,Q30,http://www.wikidata.org/entity/Q116716405,Waverly Community Wind Project,Wind farm,42.7317,-92.4711
United States,Q30,http://www.wikidata.org/entity/Q116718182,Pinyon Pine I,Wind farm,35.043411,-118.2118
United States,Q30,http://www.wikidata.org/entity/Q116716361,Gunsight Mountain Wind Energy LLC,Wind farm,32.240278,-101.4736
United States,Q30,http://www.wikidata.org/entity/Q116718113,Sawtooth Wind Project,Wind farm,42.982222,-115.3933
United States,Q30,http://www.wikidata.org/entity/Q116718174,WCROC Wind Farm,Wind farm,45.589722,-95.87694
United States,Q30,http://www.wikidata.org/entity/Q116718057,Prairie Rose Wind Farm,Wind farm,43.828217,-96.32157
United States,Q30,http://www.wikidata.org/entity/Q116718021,Teichert Materials-Teichert Vernalis,Wind farm,37.6167,-121.3564
United States,Q30,http://www.wikidata.org/entity/Q116718119,Pacific Wind LLC,Wind farm,34.891389,-118.4325
United States,Q30,http://www.wikidata.org/entity/Q116718036,LE Wind Turbine 1,Wind farm,41.584444,-81.52556
United States,Q30,http://www.wikidata.org/entity/Q116716320,Lucky Wind,Wind farm,44.0211,-96.4406
United States,Q30,http://www.wikidata.org/entity/Q116716364,Cloud County Wind Farm,Wind farm,39.4375,-97.6644
United States,Q30,http://www.wikidata.org/entity/Q116718022,Pinnacle Wind Force LLC,Wind farm,39.445,-79.03
United States,Q30,http://www.wikidata.org/entity/Q116718134,Kingman 1,Wind farm,35.145833,-114.0675
United States,Q30,http://www.wikidata.org/entity/Q116718085,"Pioneer Trail Wind Farm, LLC",Wind farm,40.46405,-88.02152
United States,Q30,http://www.wikidata.org/entity/Q116716389,Ashtabula Wind Energy Center,Wind farm,47.1244,-97.8961
United States,Q30,http://www.wikidata.org/entity/Q116716367,Dillon Wind LLC,Wind farm,33.9393,-116.5527
United States,Q30,http://www.wikidata.org/entity/Q116718099,Vasco Winds,Wind farm,37.790833,-121.7181
United States,Q30,http://www.wikidata.org/entity/Q116718073,Cimarron Windpower II,Wind farm,37.90133,-100.372
United States,Q30,http://www.wikidata.org/entity/Q116718049,Bulldog,Wind farm,41.2258,-94.4406
United States,Q30,http://www.wikidata.org/entity/Q116718191,Franklin County Wind Farm,Wind farm,42.606737,-93.33645
United States,Q30,http://www.wikidata.org/entity/Q116716455,KODE Novus I,Wind farm,36.543889,-101.3936
United States,Q30,http://www.wikidata.org/entity/Q116716460,Winona County Wind LLC,Wind farm,44.1125,-91.92472
United States,Q30,http://www.wikidata.org/entity/Q116716398,PPL Frey Farm Landfill Wind,Wind farm,39.959167,-76.45556
United States,Q30,http://www.wikidata.org/entity/Q116716363,Diamond Willow Wind Facility,Wind farm,46.2753,-104.1836
United States,Q30,http://www.wikidata.org/entity/Q116718204,Eolos Wind Energy Research Field Station,Wind farm,44.728333,-93.04806
United States,Q30,http://www.wikidata.org/entity/Q116718165,GL Wind,Wind farm,43.991667,-91.87778
United States,Q30,http://www.wikidata.org/entity/Q116718062,Elm Creek Wind II LLC,Wind farm,43.6848,-94.8799
United States,Q30,http://www.wikidata.org/entity/Q116716345,Horseshoe Bend Wind Park,Wind farm,47.4983,-111.4392
United States,Q30,http://www.wikidata.org/entity/Q116716328,Pine Tree Wind Power Project,Wind farm,35.248006,-118.1754
United States,Q30,http://www.wikidata.org/entity/Q116716424,FPL Energy Illinois Wind LLC Hybrid,Wind farm,41.7678,-88.8867
United States,Q30,http://www.wikidata.org/entity/Q116718133,Windstar 1,Wind farm,35.054167,-118.3547
United States,Q30,http://www.wikidata.org/entity/Q116718158,Lime Wind,Wind farm,44.396944,-117.2719
United States,Q30,http://www.wikidata.org/entity/Q116716344,Minnesota Breeze LLC,Wind farm,43.5833,-95.7781
United States,Q30,http://www.wikidata.org/entity/Q116716440,Ashtabula Wind III LLC,Wind farm,47.1242,-97.8956
United States,Q30,http://www.wikidata.org/entity/Q116716395,Colorado Highlands Wind,Wind farm,40.756944,-102.7431
United States,Q30,http://www.wikidata.org/entity/Q116718196,Minden Wind Park,Wind farm,43.67,-82.75861
United States,Q30,http://www.wikidata.org/entity/Q116718035,New Harvest Wind Project LLC,Wind farm,42.159722,-95.43972
United States,Q30,http://www.wikidata.org/entity/Q116718100,Montezuma Wind II,Wind farm,38.116667,-121.8219
United States,Q30,http://www.wikidata.org/entity/Q116716427,Crossroads Wind Farm,Wind farm,36.035,-98.72222
United States,Q30,http://www.wikidata.org/entity/Q116718183,Alta Wind VIII,Wind farm,35.026683,-118.2348
United States,Q30,http://www.wikidata.org/entity/Q116716399,Pillar Mountain Wind Project Microgrid,Wind farm,57.7869,-152.4406
United States,Q30,http://www.wikidata.org/entity/Q116716354,Taconite Ridge 1 Wind Energy Center,Wind farm,47.5747,-92.5917
United States,Q30,http://www.wikidata.org/entity/Q116718212,"Horse Butte Wind I, LLC",Wind farm,43.386389,-111.7264
United States,Q30,http://www.wikidata.org/entity/Q116718275,Stephens Ranch Wind Energy LLC,Wind farm,32.926389,-101.6478
United States,Q30,http://www.wikidata.org/entity/Q116718774,Odell Wind Farm,Wind farm,43.853333,-94.93194
United States,Q30,http://www.wikidata.org/entity/Q116718642,Greenfield Wind,Wind farm,41.29,-94.485
United States,Q30,http://www.wikidata.org/entity/Q116718645,Sky Volt,Wind farm,41.29,-94.485
United States,Q30,http://www.wikidata.org/entity/Q116718259,Shady Oaks Wind Farm,Wind farm,41.666944,-89.05972
United States,Q30,http://www.wikidata.org/entity/Q116718248,Macho Springs Power I,Wind farm,32.55434,-107.5093
United States,Q30,http://www.wikidata.org/entity/Q116718370,Foundation Superior Farms,Wind farm,38.42,-121.8181
United States,Q30,http://www.wikidata.org/entity/Q116718654,Buffalo Dunes Wind Project,Wind farm,37.620833,-101.0761
United States,Q30,http://www.wikidata.org/entity/Q116718372,Meadow Creek Project Company,Wind farm,43.524429,-111.8039
United States,Q30,http://www.wikidata.org/entity/Q116718266,Spearville 3 LLC,Wind farm,37.851111,-99.83806
United States,Q30,http://www.wikidata.org/entity/Q116718267,Pocahontas Prairie Wind Farm,Wind farm,42.568056,-94.65806
United States,Q30,http://www.wikidata.org/entity/Q116718369,Heritage Garden Wind Farm I LLC,Wind farm,45.795556,-86.53389
United States,Q30,http://www.wikidata.org/entity/Q116718479,Pattern Panhandle Wind LLC,Wind farm,35.4275,-101.2531
United States,Q30,http://www.wikidata.org/entity/Q116718406,Perrin Ranch Wind,Wind farm,35.415556,-112.2711
United States,Q30,http://www.wikidata.org/entity/Q116718365,El Cabo Wind,Wind farm,34.651111,-105.4617
United States,Q30,http://www.wikidata.org/entity/Q116718748,Saddleback Ridge Wind Farm,Wind farm,44.593333,-70.38111
United States,Q30,http://www.wikidata.org/entity/Q116718549,Prairie Breeze,Wind farm,41.951667,-98.07667
United States,Q30,http://www.wikidata.org/entity/Q116718371,Foundation Wal-Mart Red Bluff,Wind farm,40.111111,-122.1939
United States,Q30,http://www.wikidata.org/entity/Q116718453,"NextEra-Blackwell Wind, LLC",Wind farm,36.846667,-97.4175
United States,Q30,http://www.wikidata.org/entity/Q116718597,Pantex,Wind farm,35.322778,-101.5325
United States,Q30,http://www.wikidata.org/entity/Q116718368,Foundation Cemex River Plant,Wind farm,34.561944,-117.3072
United States,Q30,http://www.wikidata.org/entity/Q116718628,Junction Hilltop Wind Farm,Wind farm,42.098889,-94.26917
United States,Q30,http://www.wikidata.org/entity/Q116718356,Stony Creek Wind Farm NY,Wind farm,42.767614,-78.41584
United States,Q30,http://www.wikidata.org/entity/Q116718286,Auwahi Wind Energy Hybrid,Wind farm,20.596,-156.318
United States,Q30,http://www.wikidata.org/entity/Q116718261,Cashton Greens Wind Farm,Wind farm,43.733889,-90.805
United States,Q30,http://www.wikidata.org/entity/Q116718649,Broadview Energy Prime 2 LLC,Wind farm,34.728056,-103.305
United States,Q30,http://www.wikidata.org/entity/Q116718357,Roeder Family Wind Farm LLC,Wind farm,43.297222,-93.28333
United States,Q30,http://www.wikidata.org/entity/Q116718789,Route 66 Wind Plant,Wind farm,35.205278,-101.4342
United States,Q30,http://www.wikidata.org/entity/Q116718258,Musselshell Wind Project,Wind farm,46.275278,-109.4828
United States,Q30,http://www.wikidata.org/entity/Q116718260,Musselshell Wind Project Two LLC,Wind farm,46.275278,-109.4828
United States,Q30,http://www.wikidata.org/entity/Q116718738,"Grandview Wind Farm, LLC",Wind farm,35.238333,-101.3108
United States,Q30,http://www.wikidata.org/entity/Q116718378,Foundation Cemex Madison,Wind farm,38.692778,-121.9325
United States,Q30,http://www.wikidata.org/entity/Q116718715,Tucannon River Wind Farm,Wind farm,46.421111,-118.0269
United States,Q30,http://www.wikidata.org/entity/Q116718311,Spruce Mountain WInd,Wind farm,44.415587,-70.55981
United States,Q30,http://www.wikidata.org/entity/Q116718640,Cumberland Rose,Wind farm,41.226944,-94.43472
United States,Q30,http://www.wikidata.org/entity/Q116718445,"Minco Wind III, LLC",Wind farm,35.372359,-98.18273
United States,Q30,http://www.wikidata.org/entity/Q116718475,Georgia Mountain Community Wind Farm,Wind farm,44.661667,-73.07
United States,Q30,http://www.wikidata.org/entity/Q116718296,California Ridge Wind Energy LLC,Wind farm,40.211667,-87.87833
United States,Q30,http://www.wikidata.org/entity/Q116718288,Twin Ridges Wind Farm,Wind farm,39.760556,-78.87472
United States,Q30,http://www.wikidata.org/entity/Q116718819,Brookfield,Wind farm,43.757778,-83.29778
United States,Q30,http://www.wikidata.org/entity/Q116718792,Hancock Wind Plant,Wind farm,44.760833,-68.14694
United States,Q30,http://www.wikidata.org/entity/Q116718797,Walnut Ridge Wind Farm,Wind farm,41.496667,-89.58028
United States,Q30,http://www.wikidata.org/entity/Q116718307,Whitetail,Wind farm,27.488056,-99.00528
United States,Q30,http://www.wikidata.org/entity/Q116718790,"Osage Wind, LLC",Wind farm,36.706944,-96.70028
United States,Q30,http://www.wikidata.org/entity/Q116718795,Apple Blossom Wind Farm,Wind farm,43.815032,-83.315
United States,Q30,http://www.wikidata.org/entity/Q116718759,Canton Mountain Wind,Wind farm,44.514722,-70.30306
United States,Q30,http://www.wikidata.org/entity/Q116718769,RP Wind,Wind farm,40.449444,-83.89333
United States,Q30,http://www.wikidata.org/entity/Q116718380,Foundation NWNA,Wind farm,33.914167,-116.7492
United States,Q30,http://www.wikidata.org/entity/Q116718322,Chisholm View Wind Project,Wind farm,36.574722,-97.67361
United States,Q30,http://www.wikidata.org/entity/Q116718753,Patriot Wind Farm,Wind farm,27.580489,-97.64008
United States,Q30,http://www.wikidata.org/entity/Q116718272,Busch Ranch Wind Energy Farm,Wind farm,37.801111,-104.4919
United States,Q30,http://www.wikidata.org/entity/Q116718461,Haviland Plastic Products,Wind farm,41.016111,-84.5875
United States,Q30,http://www.wikidata.org/entity/Q116718265,Bobcat Bluff Wind Project LLC,Wind farm,33.493056,-98.58194
United States,Q30,http://www.wikidata.org/entity/Q116718379,Foundation RRM,Wind farm,33.917222,-116.815
United States,Q30,http://www.wikidata.org/entity/Q116718605,Headwaters Wind Farm LLC,Wind farm,40.066667,-85.01333
United States,Q30,http://www.wikidata.org/entity/Q116718271,Kingdom Community Wind,Wind farm,44.748333,-72.42528
United States,Q30,http://www.wikidata.org/entity/Q116718211,KODE Novus II,Wind farm,36.548958,-101.4959
United States,Q30,http://www.wikidata.org/entity/Q116718325,"Anchor Wind, LLC",Wind farm,41.850833,-91.23417
United States,Q30,http://www.wikidata.org/entity/Q116718239,Eva Creek Wind,Wind farm,64.058333,-148.9
United States,Q30,http://www.wikidata.org/entity/Q116718326,Community Wind South,Wind farm,43.713611,-95.80278
United States,Q30,http://www.wikidata.org/entity/Q116718722,Pheasant Run Wind LLC,Wind farm,43.757778,-83.29778
United States,Q30,http://www.wikidata.org/entity/Q116718551,Vansycle II Wind Energy Center,Wind farm,45.899167,-118.5914
United States,Q30,http://www.wikidata.org/entity/Q116718319,Buffalo Center Wind LLC,Wind farm,43.385833,-92.75944
United States,Q30,http://www.wikidata.org/entity/Q116718385,Echo Wind Park,Wind farm,43.8825,-83.16139
United States,Q30,http://www.wikidata.org/entity/Q116718289,Patton Wind Farm,Wind farm,40.63067,-78.69608
United States,Q30,http://www.wikidata.org/entity/Q116718306,Beebe 1A,Wind farm,43.256944,-84.49972
United States,Q30,http://www.wikidata.org/entity/Q116718210,Harvest 2,Wind farm,43.8556,-83.1669
United States,Q30,http://www.wikidata.org/entity/Q116718600,Luther College Wind Project,Wind farm,43.326944,-91.81083
United States,Q30,http://www.wikidata.org/entity/Q116718626,Swauk Wind LLC,Wind farm,47.139167,-120.7531
United States,Q30,http://www.wikidata.org/entity/Q116718612,Fire Island Wind,Wind farm,61.13,-150.2436
United States,Q30,http://www.wikidata.org/entity/Q116718279,Canadian Hills Wind,Wind farm,35.629722,-98.02472
United States,Q30,http://www.wikidata.org/entity/Q116718730,Tuscola Wind II LLC,Wind farm,43.526944,-83.56694
United States,Q30,http://www.wikidata.org/entity/Q116718257,Brookfield Tehachapi 1,Wind farm,35.008333,-118.2414
United States,Q30,http://www.wikidata.org/entity/Q116718469,Wagner Wind LLC,Wind farm,33.908889,-116.5556
United States,Q30,http://www.wikidata.org/entity/Q116718349,Rocky Ridge Wind Project,Wind farm,35.135556,-99.00306
United States,Q30,http://www.wikidata.org/entity/Q116718283,Highland North Wind Farm,Wind farm,40.319561,-78.68063
United States,Q30,http://www.wikidata.org/entity/Q116718641,Fontanelle,Wind farm,41.338889,-94.57
United States,Q30,http://www.wikidata.org/entity/Q116718737,Steele Flats Wind Project LLC,Wind farm,40.048889,-96.95222
United States,Q30,http://www.wikidata.org/entity/Q116718256,"Minco Wind II, LLC",Wind farm,35.325278,-98.07139
United States,Q30,http://www.wikidata.org/entity/Q116718644,Meadow Ridge,Wind farm,41.39,-94.44583
United States,Q30,http://www.wikidata.org/entity/Q116718405,North Sky River Energy LLC,Wind farm,35.347778,-118.1864
United States,Q30,http://www.wikidata.org/entity/Q116718591,Alta Wind XI,Wind farm,35.065,-118.39
United States,Q30,http://www.wikidata.org/entity/Q116718376,Bishop Hill II Wind Farm,Wind farm,41.2325,-90.17417
United States,Q30,http://www.wikidata.org/entity/Q116718366,Montague Wind Power Facility LLC,Wind farm,45.5857,-120.0904
United States,Q30,http://www.wikidata.org/entity/Q116718329,BayWa r.e Mozart LLC,Wind farm,32.969722,-100.5242
United States,Q30,http://www.wikidata.org/entity/Q116718396,Ensign Wind LLC,Wind farm,37.614473,-100.2787
United States,Q30,http://www.wikidata.org/entity/Q116718228,Tule Wind LLC,Wind farm,32.663889,-116.2897
United States,Q30,http://www.wikidata.org/entity/Q116718548,Goldthwaite Wind Energy Facility,Wind farm,31.383333,-98.46667
United States,Q30,http://www.wikidata.org/entity/Q116718305,High Mesa,Wind farm,42.88,-115.0367
United States,Q30,http://www.wikidata.org/entity/Q116718310,Mt Wachusett Community College,Wind farm,42.588583,-71.98419
United States,Q30,http://www.wikidata.org/entity/Q116718273,Senate Wind LLC,Wind farm,33.205801,-98.36507
United States,Q30,http://www.wikidata.org/entity/Q116718350,Wolf Ridge Wind,Wind farm,33.733006,-97.42841
United States,Q30,http://www.wikidata.org/entity/Q116718290,"Anacacho Wind Farm, LLC",Wind farm,29.234722,-100.2092
United States,Q30,http://www.wikidata.org/entity/Q116718344,Windwalkers LLC,Wind farm,43.384722,-93.22139
United States,Q30,http://www.wikidata.org/entity/Q116718460,Spion Kop Wind Farm,Wind farm,47.333333,-110.6392
United States,Q30,http://www.wikidata.org/entity/Q116718646,Wiota,Wind farm,41.391944,-94.87639
United States,Q30,http://www.wikidata.org/entity/Q116718796,Black Oak Wind Farm,Wind farm,45.660833,-95.01278
United States,Q30,http://www.wikidata.org/entity/Q116718604,NLMU Wind,Wind farm,40.955,-91.39444
United States,Q30,http://www.wikidata.org/entity/Q116718648,Broadview Energy Prime LLC,Wind farm,34.746944,-103.325
United States,Q30,http://www.wikidata.org/entity/Q116715345,Ellenburg,Wind farm,44.8914,-74.0061
United States,Q30,http://www.wikidata.org/entity/Q116715228,Klondike Windpower III,Wind farm,45.5836,-120.5042
United States,Q30,http://www.wikidata.org/entity/Q116715214,GSG LLC,Wind farm,41.643611,-89.17306
United States,Q30,http://www.wikidata.org/entity/Q116715338,Prairie Winds SD1,Wind farm,43.886389,-98.7875
United States,Q30,http://www.wikidata.org/entity/Q116715377,Velva Windfarm LLC,Wind farm,48.083625,-100.9215
United States,Q30,http://www.wikidata.org/entity/Q116715424,Odin Wind Farm LLC,Wind farm,43.8953,-94.9142
United States,Q30,http://www.wikidata.org/entity/Q116715254,Pomeroy Wind Farm,Wind farm,42.5842,-94.7467
United States,Q30,http://www.wikidata.org/entity/Q116715323,Green Acres Breeze LLC,Wind farm,43.586111,-95.78028
United States,Q30,http://www.wikidata.org/entity/Q116715342,Logan Wind Energy,Wind farm,40.941,-103.259
United States,Q30,http://www.wikidata.org/entity/Q116715350,"Ewington Energy Systems, LLC",Wind farm,43.6181,-95.4172
United States,Q30,http://www.wikidata.org/entity/Q116715321,G Flow Wind LLC,Wind farm,43.586111,-95.77611
United States,Q30,http://www.wikidata.org/entity/Q116715301,Windom Wind Project,Wind farm,43.9578,-95.1306
United States,Q30,http://www.wikidata.org/entity/Q116715300,Eastridge Wind Project,Wind farm,43.9358,-95.9222
United States,Q30,http://www.wikidata.org/entity/Q116715217,Post Wind Farm LP,Wind farm,32.92544,-101.2194
United States,Q30,http://www.wikidata.org/entity/Q116715419,Mountain Wind Power LLC,Wind farm,41.288056,-110.4807
United States,Q30,http://www.wikidata.org/entity/Q116715432,McAdoo Wind Energy LLC,Wind farm,33.752201,-100.9674
United States,Q30,http://www.wikidata.org/entity/Q116715331,Snyder Wind Farm,Wind farm,32.739294,-100.7389
United States,Q30,http://www.wikidata.org/entity/Q116715363,Osceola Windpower LLC,Wind farm,43.4303,-95.4167
United States,Q30,http://www.wikidata.org/entity/Q116715416,Jeffers Wind 20 LLC,Wind farm,44.057778,-95.2525
United States,Q30,http://www.wikidata.org/entity/Q116715312,Porterhouse Wind (4) LLC,Wind farm,36.4144,-101.3864
United States,Q30,http://www.wikidata.org/entity/Q116715427,Barton Windpower LLC,Wind farm,43.393,-93.091
United States,Q30,http://www.wikidata.org/entity/Q116715364,Butler Ridge,Wind farm,43.400278,-88.48111
United States,Q30,http://www.wikidata.org/entity/Q116715434,Turkey Track Wind Energy LLC,Wind farm,32.1981,-100.2686
United States,Q30,http://www.wikidata.org/entity/Q116715367,South Trent Wind Farm,Wind farm,32.4081,-100.1286
United States,Q30,http://www.wikidata.org/entity/Q116715408,Tuolumne Wind Project,Wind farm,45.8797,-120.8072
United States,Q30,http://www.wikidata.org/entity/Q116715335,"Langdon Renewables, LLC",Wind farm,48.63,-98.315
United States,Q30,http://www.wikidata.org/entity/Q116715310,Bluegrass Ridge,Wind farm,40.1006,-94.4869
United States,Q30,http://www.wikidata.org/entity/Q116715349,Elkhorn Valley Wind Farm,Wind farm,45.085221,-117.8163
United States,Q30,http://www.wikidata.org/entity/Q116715355,Mountain Home,Wind farm,43.0272,-115.4656
United States,Q30,http://www.wikidata.org/entity/Q116715220,Twin Buttes Wind Project,Wind farm,37.6735,-102.8622
United States,Q30,http://www.wikidata.org/entity/Q116715428,Farmers City Wind LLC,Wind farm,40.575,-95.5228
United States,Q30,http://www.wikidata.org/entity/Q116715369,North Allegheny Windpower Project,Wind farm,40.4381,-78.5436
United States,Q30,http://www.wikidata.org/entity/Q116715260,Scurry County Wind LP,Wind farm,32.7204,-100.9952
United States,Q30,http://www.wikidata.org/entity/Q116715425,Winnebago Wind Power Project,Wind farm,43.315,-93.77
United States,Q30,http://www.wikidata.org/entity/Q116715317,Blue Breezes LLC,Wind farm,43.6558,-94.1536
United States,Q30,http://www.wikidata.org/entity/Q116715431,Silver Star I Wind Power Project,Wind farm,32.338659,-98.47605
United States,Q30,http://www.wikidata.org/entity/Q116715361,Stanton Wind Energy LLC,Wind farm,32.2353,-101.8367
United States,Q30,http://www.wikidata.org/entity/Q116715378,Whirlwind Energy Center,Wind farm,34.105,-101.0986
United States,Q30,http://www.wikidata.org/entity/Q116715319,Sunset Breeze LLC,Wind farm,43.5811,-95.78
United States,Q30,http://www.wikidata.org/entity/Q116715294,Loess Hills,Wind farm,40.4144,-95.54
United States,Q30,http://www.wikidata.org/entity/Q116715365,Majestic 1 Wind Farm,Wind farm,35.3919,-101.53
United States,Q30,http://www.wikidata.org/entity/Q116715348,Providence Heights Wind LLC,Wind farm,41.2294,-89.5572
United States,Q30,http://www.wikidata.org/entity/Q116715368,Wessington Springs,Wind farm,44.0025,-98.59083
United States,Q30,http://www.wikidata.org/entity/Q116715357,Bennett Creek Windfarm LLC - Mountain Home,Wind farm,43.0536,-115.4803
United States,Q30,http://www.wikidata.org/entity/Q116715291,Cow Branch,Wind farm,40.4535,-95.4683
United States,Q30,http://www.wikidata.org/entity/Q116715346,Sleeping Bear LLC,Wind farm,36.640278,-99.50056
United States,Q30,http://www.wikidata.org/entity/Q116715239,Sand Bluff Wind Farm,Wind farm,31.991442,-101.3026
United States,Q30,http://www.wikidata.org/entity/Q116715422,Goat Wind LP,Wind farm,31.951944,-100.7914
United States,Q30,http://www.wikidata.org/entity/Q116715371,Hatchet Ridge Wind Project,Wind farm,40.8981,-121.8036
United States,Q30,http://www.wikidata.org/entity/Q116715381,Charles City Wind Farm,Wind farm,43.0003,-92.62
United States,Q30,http://www.wikidata.org/entity/Q116715322,Wolf Wind Enterprises LLC,Wind farm,43.581111,-95.77583
United States,Q30,http://www.wikidata.org/entity/Q116715246,Prairie Star Wind Farm,Wind farm,43.6861,-92.6272
United States,Q30,http://www.wikidata.org/entity/Q116715417,Spanish Fork Wind Park 2 LLC,Wind farm,40.071389,-111.5822
United States,Q30,http://www.wikidata.org/entity/Q116715218,MinnDakota Wind LLC,Wind farm,44.2667,-96.3444
United States,Q30,http://www.wikidata.org/entity/Q116715245,Buffalo Mountain Energy Center,Wind farm,36.127092,-84.34417
United States,Q30,http://www.wikidata.org/entity/Q116715406,Lookout Windpower LLC,Wind farm,39.8794,-78.9183
United States,Q30,http://www.wikidata.org/entity/Q116715325,Munnsville Wind Farm LLC,Wind farm,42.9086,-75.5697
United States,Q30,http://www.wikidata.org/entity/Q116715316,Terra-Gen VG Wind LLC,Wind farm,35.1161,-118.3789
United States,Q30,http://www.wikidata.org/entity/Q116715435,Scurry County Wind II,Wind farm,32.718056,-100.7933
United States,Q30,http://www.wikidata.org/entity/Q116715372,Dempsey Ridge Wind Farm,Wind farm,35.529778,-99.81446
United States,Q30,http://www.wikidata.org/entity/Q116715313,Filet Wind (5) LLC,Wind farm,36.4453,-101.8761
United States,Q30,http://www.wikidata.org/entity/Q116715353,Harvest,Wind farm,43.83,-83.2064
United States,Q30,http://www.wikidata.org/entity/Q116715374,Goodnoe Hills,Wind farm,45.781825,-120.5212
United States,Q30,http://www.wikidata.org/entity/Q116715293,Conception,Wind farm,40.2572,-94.6722
United States,Q30,http://www.wikidata.org/entity/Q116715421,Mountain Wind Power II LLC,Wind farm,41.263889,-110.5444
United States,Q30,http://www.wikidata.org/entity/Q116715405,Forward Windpower LLC,Wind farm,40.0853,-78.8633
United States,Q30,http://www.wikidata.org/entity/Q116715007,High Winds LLC,Wind farm,38.1381,-121.8053
United States,Q30,http://www.wikidata.org/entity/Q116714803,Hadley Ridge LLC,Wind farm,44.2253,-96.235
United States,Q30,http://www.wikidata.org/entity/Q116715103,Callahan Divide Wind Energy Center,Wind farm,32.303889,-100.0217
United States,Q30,http://www.wikidata.org/entity/Q116715125,Trimont Area Wind Farm,Wind farm,43.7938,-94.8499
United States,Q30,http://www.wikidata.org/entity/Q116714947,Moulton Wind Power,Wind farm,43.9204,-95.95589
United States,Q30,http://www.wikidata.org/entity/Q116715068,Bowling Green Wind,Wind farm,41.3786,-83.7383
United States,Q30,http://www.wikidata.org/entity/Q116714852,Condon Windpower LLC,Wind farm,45.2766,-120.2794
United States,Q30,http://www.wikidata.org/entity/Q116715204,Golden Valley Wind Park LLC,Wind farm,42.436804,-113.9255
United States,Q30,http://www.wikidata.org/entity/Q116715109,Helzel & Schwarzhoff 86,Wind farm,35.0925,-118.3952
United States,Q30,http://www.wikidata.org/entity/Q116714696,Lake Benton II,Wind farm,44.129369,-96.11697
United States,Q30,http://www.wikidata.org/entity/Q116715207,Pilgrim Stage Wind Park,Wind farm,42.7975,-114.9986
United States,Q30,http://www.wikidata.org/entity/Q116715058,K-Brink Windfarm LLC,Wind farm,44.0197,-96.1183
United States,Q30,http://www.wikidata.org/entity/Q116715186,Redwood Falls Wind,Wind farm,44.502778,-95.175
United States,Q30,http://www.wikidata.org/entity/Q116715064,Allendorf,Wind farm,43.4,-95.6333
United States,Q30,http://www.wikidata.org/entity/Q116714801,Hope Creek LLC,Wind farm,44.2275,-96.2192
United States,Q30,http://www.wikidata.org/entity/Q116714728,Green Power I,Wind farm,33.9014,-116.7167
United States,Q30,http://www.wikidata.org/entity/Q116715056,Windcurrent Farms LLC,Wind farm,44.0236,-96.0789
United States,Q30,http://www.wikidata.org/entity/Q116715156,Aragonne Wind LLC,Wind farm,34.8147,-105.0108
United States,Q30,http://www.wikidata.org/entity/Q116715133,San Juan Mesa Wind Project LLC,Wind farm,33.9716,-103.8604
United States,Q30,http://www.wikidata.org/entity/Q116714798,Soliloquoy Ridge LLC,Wind farm,44.2364,-96.2331
United States,Q30,http://www.wikidata.org/entity/Q116714893,Hawkeye Power Partners LLC,Wind farm,43.047222,-93.4775
United States,Q30,http://www.wikidata.org/entity/Q116714789,Autumn Hills LLC,Wind farm,44.4131,-96.4325
United States,Q30,http://www.wikidata.org/entity/Q116714786,Jack River LLC,Wind farm,44.4233,-96.4411
United States,Q30,http://www.wikidata.org/entity/Q116715110,ZCO,Wind farm,35.0772,-118.3811
United States,Q30,http://www.wikidata.org/entity/Q116715211,Buena Vista Energy LLC,Wind farm,37.805,-121.6672
United States,Q30,http://www.wikidata.org/entity/Q116714781,Sun River LLC,Wind farm,44.4289,-96.4358
United States,Q30,http://www.wikidata.org/entity/Q116715063,B&K Energy Systems LLC,Wind farm,43.651389,-95.3755
United States,Q30,http://www.wikidata.org/entity/Q116714631,Big Spring Wind Power Facility,Wind farm,32.2075,-101.3883
United States,Q30,http://www.wikidata.org/entity/Q116714854,Rock River I LLC,Wind farm,41.7172,-106.1077
United States,Q30,http://www.wikidata.org/entity/Q116714869,Noble Ridge LLC,Wind farm,43.754739,-95.85345
United States,Q30,http://www.wikidata.org/entity/Q116715187,Michigan Wind 1,Wind farm,43.7092,-82.9633
United States,Q30,http://www.wikidata.org/entity/Q116714805,Florence Hills LLC,Wind farm,44.2297,-96.225
United States,Q30,http://www.wikidata.org/entity/Q116714807,Agassiz Beach LLC,Wind farm,47.0053,-96.4356
United States,Q30,http://www.wikidata.org/entity/Q116715017,Oklahoma Wind Energy Center,Wind farm,36.603967,-99.34005
United States,Q30,http://www.wikidata.org/entity/Q116715020,FPL Energy North Dakota Wind I/II,Wind farm,46.327169,-98.89836
United States,Q30,http://www.wikidata.org/entity/Q116715061,Boeve Windfarm LLC,Wind farm,44.05,-96.0933
United States,Q30,http://www.wikidata.org/entity/Q116714784,Jessica Mills LLC,Wind farm,44.4278,-96.43
United States,Q30,http://www.wikidata.org/entity/Q116714612,Ridgetop,Wind farm,35.074,-118.3153
United States,Q30,http://www.wikidata.org/entity/Q116715180,FPL Energy Oliver Wind I LLC,Wind farm,47.152847,-101.1977
United States,Q30,http://www.wikidata.org/entity/Q116715196,Mower County Wind Energy Center,Wind farm,43.61407,-92.59882
United States,Q30,http://www.wikidata.org/entity/Q116715024,Mountain View III,Wind farm,33.9141,-116.5914
United States,Q30,http://www.wikidata.org/entity/Q116715106,Weatherford Wind Energy Center,Wind farm,35.5094,-98.7346
United States,Q30,http://www.wikidata.org/entity/Q116715016,TransAlta Wyoming Wind,Wind farm,41.2874,-110.5556
United States,Q30,http://www.wikidata.org/entity/Q116714783,Julia Hills LLC,Wind farm,44.4231,-96.4458
United States,Q30,http://www.wikidata.org/entity/Q116715131,Oasis Wind,Wind farm,35.06094,-118.2924
United States,Q30,http://www.wikidata.org/entity/Q116714683,Lake Benton I,Wind farm,44.2917,-96.375
United States,Q30,http://www.wikidata.org/entity/Q116715105,Diablo Winds LLC,Wind farm,37.763653,-121.6144
United States,Q30,http://www.wikidata.org/entity/Q116715145,Spring Canyon,Wind farm,40.983,-102.9647
United States,Q30,http://www.wikidata.org/entity/Q116715203,Burley Butte Windpark,Wind farm,42.490341,-113.9266
United States,Q30,http://www.wikidata.org/entity/Q116714883,Northern Iowa Windfarm,Wind farm,43.3833,-93.4167
United States,Q30,http://www.wikidata.org/entity/Q116715059,DL Windy Acres LLC,Wind farm,43.651389,-95.36861
United States,Q30,http://www.wikidata.org/entity/Q116714718,Lakota Ridge LLC,Wind farm,44.39956,-96.42837
United States,Q30,http://www.wikidata.org/entity/Q116714796,Spartan Hills LLC,Wind farm,44.2358,-96.2383
United States,Q30,http://www.wikidata.org/entity/Q116714966,Cabazon Wind Partners,Wind farm,33.9172,-116.735
United States,Q30,http://www.wikidata.org/entity/Q116714848,Mountain View I&2,Wind farm,33.9211,-116.5642
United States,Q30,http://www.wikidata.org/entity/Q116714820,Foote Creek I,Wind farm,41.6283,-106.2013
United States,Q30,http://www.wikidata.org/entity/Q116715023,Kimball Wind,Wind farm,41.2736,-103.6983
United States,Q30,http://www.wikidata.org/entity/Q116715206,Milner Dam Wind Park LLC,Wind farm,42.460629,-114.0173
United States,Q30,http://www.wikidata.org/entity/Q116714858,Montfort Wind Energy Center,Wind farm,42.9625,-90.38667
United States,Q30,http://www.wikidata.org/entity/Q116714887,Kas Brothers Windfarm,Wind farm,44.0119,-96.1125
United States,Q30,http://www.wikidata.org/entity/Q116714716,Woodstock Windfarm,Wind farm,43.985833,-96.07861
United States,Q30,http://www.wikidata.org/entity/Q116715177,Pike County Wind Power,Wind farm,39.6189,-90.8461
United States,Q30,http://www.wikidata.org/entity/Q116714720,Shaokatan Hills LLC,Wind farm,44.421711,-96.43469
United States,Q30,http://www.wikidata.org/entity/Q116714994,G McNeilus Wind Farm Dodge Center,Wind farm,43.978486,-92.85108
United States,Q30,http://www.wikidata.org/entity/Q116714932,Bay Windpower I,Wind farm,45.7644,-84.7381
United States,Q30,http://www.wikidata.org/entity/Q116715178,Victory Wind Farm,Wind farm,42.1169,-95.1292
United States,Q30,http://www.wikidata.org/entity/Q116715067,Aeolus Wind Facility,Wind farm,36.4725,-101.3278
United States,Q30,http://www.wikidata.org/entity/Q116715184,Northern Lights Wind LLC,Wind farm,44.015,-96.4367
United States,Q30,http://www.wikidata.org/entity/Q116714794,Twin Lake Hills LLC,Wind farm,44.2258,-96.2789
United States,Q30,http://www.wikidata.org/entity/Q116715135,Fossil Gulch,Wind farm,42.858056,-114.9494
United States,Q30,http://www.wikidata.org/entity/Q116715174,Cedar Creek Wind,Wind farm,40.8944,-104.0206
United States,Q30,http://www.wikidata.org/entity/Q116715046,Colorado Green Holdings LLC,Wind farm,37.7033,-102.6231
United States,Q30,http://www.wikidata.org/entity/Q116714965,Hancock County Wind Energy Center,Wind farm,43.052758,-93.62996
United States,Q30,http://www.wikidata.org/entity/Q116715090,Century,Wind farm,42.5644,-93.6369
United States,Q30,http://www.wikidata.org/entity/Q116714779,Tsar Nicholas LLC,Wind farm,44.42,-96.4347
United States,Q30,http://www.wikidata.org/entity/Q116714700,Storm Lake II,Wind farm,42.8417,-95.405
United States,Q30,http://www.wikidata.org/entity/Q116714724,Wethersfield Wind Farm,Wind farm,42.678819,-78.24379
United States,Q30,http://www.wikidata.org/entity/Q116714967,Whitewater Hill Wind Partners,Wind farm,33.925,-116.6178
United States,Q30,http://www.wikidata.org/entity/Q116715055,Westridge Windfarm LLC,Wind farm,43.988611,-96.21556
United States,Q30,http://www.wikidata.org/entity/Q116714809,Llano Estacado Wind Ranch,Wind farm,35.4677,-101.2533
United States,Q30,http://www.wikidata.org/entity/Q116715130,Wolverine Creek,Wind farm,43.4195,-111.8294
United States,Q30,http://www.wikidata.org/entity/Q116714955,Minot Wind Project,Wind farm,48.021271,-101.2805
United States,Q30,http://www.wikidata.org/entity/Q116714791,Winters Spawn LLC,Wind farm,44.2081,-96.1989
United States,Q30,http://www.wikidata.org/entity/Q116715213,Mars Hill Wind Farm Project,Wind farm,46.54422,-67.8111
United States,Q30,http://www.wikidata.org/entity/Q116714799,Ruthton Ridge LLC,Wind farm,44.2128,-96.2131
United States,Q30,http://www.wikidata.org/entity/Q116715121,Caprock Wind Farm,Wind farm,34.980556,-103.3539
United States,Q30,http://www.wikidata.org/entity/Q116714874,Woodward Mountain II,Wind farm,30.9514,-102.4141
United States,Q30,http://www.wikidata.org/entity/Q116714876,Woodward Mountain I,Wind farm,30.9514,-102.4141
United States,Q30,http://www.wikidata.org/entity/Q116715127,Crescent Ridge,Wind farm,41.25,-89.5708
United States,Q30,http://www.wikidata.org/entity/Q116715134,Adams Wind Farm,Wind farm,43.554778,-92.72414
United States,Q30,http://www.wikidata.org/entity/Q116714945,Champepaden Wind Power,Wind farm,43.899722,-95.95056
United States,Q30,http://www.wikidata.org/entity/Q116715044,Flying Cloud Power Partners LLC,Wind farm,43.3897,-95.2997
United States,Q30,http://www.wikidata.org/entity/Q116715014,South Dakota Wind Energy Cente,Wind farm,44.5492,-99.5
United States,Q30,http://www.wikidata.org/entity/Q116715210,Thousand Springs Wind Park,Wind farm,42.870278,-114.9678
