{
  "type": "FeatureCollection",
  "features": [
    {
      "type": "Feature",
      "geometry": {
        "type": "Point",
        "coordinates": [
          19.990555555,
          -11.797777777
        ]
      },
      "properties": {
        "label": "Luena Solar Power Station",
        "type": "power plant",
        "entity": "http://www.wikidata.org/entity/Q121990609",
        "country_qid": "Q916",
        "Wikidata Qid": "Q121990609"
      }
    },
    {
      "type": "Feature",
      "geometry": {
        "type": "Point",
        "coordinates": [
          15.86833611,
          -13.451175
        ]
      },
      "properties": {
        "label": "Gove Dam",
        "type": "power plant",
        "entity": "http://www.wikidata.org/entity/Q17018454",
        "country_qid": "Q916",
        "Wikidata Qid": "Q17018454"
      }
    },
    {
      "type": "Feature",
      "geometry": {
        "type": "Point",
        "coordinates": [
          13.308166666,
          -8.814638888
        ]
      },
      "properties": {
        "label": "Cazenga Power Plant",
        "type": "power plant",
        "entity": "http://www.wikidata.org/entity/Q56373856",
        "country_qid": "Q916",
        "Wikidata Qid": "Q56373856"
      }
    },
    {
      "type": "Feature",
      "geometry": {
        "type": "Point",
        "coordinates": [
          13.7644958,
          -12.3993173
        ]
      },
      "properties": {
        "label": "Bíopio photovoltaic power station",
        "type": "power plant",
        "entity": "http://www.wikidata.org/entity/Q118593672",
        "country_qid": "Q916",
        "Wikidata Qid": "Q118593672"
      }
    },
    {
      "type": "Feature",
      "geometry": {
        "type": "Point",
        "coordinates": [
          13.278722222,
          -8.784472222
        ]
      },
      "properties": {
        "label": "Q56373879",
        "type": "power plant",
        "entity": "http://www.wikidata.org/entity/Q56373879",
        "country_qid": "Q916",
        "Wikidata Qid": "Q56373879"
      }
    },
    {
      "type": "Feature",
      "geometry": {
        "type": "Point",
        "coordinates": [
          14.38575,
          -12.7255
        ]
      },
      "properties": {
        "label": "Lomaum Hydroelectric Power Station",
        "type": "power plant",
        "entity": "http://www.wikidata.org/entity/Q11983013",
        "country_qid": "Q916",
        "Wikidata Qid": "Q11983013"
      }
    },
    {
      "type": "Feature",
      "geometry": {
        "type": "Point",
        "coordinates": [
          13.180833333,
          -12.621666666
        ]
      },
      "properties": {
        "label": "Baía Farta Solar Power Station",
        "type": "power plant",
        "entity": "http://www.wikidata.org/entity/Q119932598",
        "country_qid": "Q916",
        "Wikidata Qid": "Q119932598"
      }
    },
    {
      "type": "Feature",
      "geometry": {
        "type": "Point",
        "coordinates": [
          15.466888888,
          -9.79475
        ]
      },
      "properties": {
        "label": "Capanda Dam",
        "type": "power plant",
        "entity": "http://www.wikidata.org/entity/Q2885177",
        "country_qid": "Q916",
        "Wikidata Qid": "Q2885177"
      }
    },
    {
      "type": "Feature",
      "geometry": {
        "type": "Point",
        "coordinates": [
          14.48333333,
          -9.75
        ]
      },
      "properties": {
        "label": "Cambambe Hydroelectric Power Station",
        "type": "power plant",
        "entity": "http://www.wikidata.org/entity/Q1028085",
        "country_qid": "Q916",
        "Wikidata Qid": "Q1028085"
      }
    },
    {
      "type": "Feature",
      "geometry": {
        "type": "Point",
        "coordinates": [
          13.627222222,
          -14.8775
        ]
      },
      "properties": {
        "label": "Quilemba Solar Power Station",
        "type": "power plant",
        "entity": "http://www.wikidata.org/entity/Q106645616",
        "country_qid": "Q916",
        "Wikidata Qid": "Q106645616"
      }
    },
    {
      "type": "Feature",
      "geometry": {
        "type": "Point",
        "coordinates": [
          15.12561111,
          -9.74302778
        ]
      },
      "properties": {
        "label": "Laúca Dam",
        "type": "power plant",
        "entity": "http://www.wikidata.org/entity/Q24893039",
        "country_qid": "Q916",
        "Wikidata Qid": "Q24893039"
      }
    },
    {
      "type": "Feature",
      "geometry": {
        "type": "Point",
        "coordinates": [
          20.3495765,
          -9.5010429
        ]
      },
      "properties": {
        "label": "Chicapa II Hydroelectric Power Station",
        "type": "power plant",
        "entity": "http://www.wikidata.org/entity/Q118613833",
        "country_qid": "Q916",
        "Wikidata Qid": "Q118613833"
      }
    },
    {
      "type": "Feature",
      "geometry": {
        "type": "Point",
        "coordinates": [
          13.369166666,
          -8.968611111
        ]
      },
      "properties": {
        "label": "Q21420614",
        "type": "power plant",
        "entity": "http://www.wikidata.org/entity/Q21420614",
        "country_qid": "Q916",
        "Wikidata Qid": "Q21420614"
      }
    },
    {
      "type": "Feature",
      "geometry": {
        "type": "Point",
        "coordinates": [
          20.3542167,
          -9.4857415
        ]
      },
      "properties": {
        "label": "Chicapa I Hydroelectric Power Station",
        "type": "power plant",
        "entity": "http://www.wikidata.org/entity/Q111287559",
        "country_qid": "Q916",
        "Wikidata Qid": "Q111287559"
      }
    },
    {
      "type": "Feature",
      "geometry": {
        "type": "Point",
        "coordinates": [
          14.22266,
          -17.39348
        ]
      },
      "properties": {
        "label": "Ruacana Power Station",
        "type": "power plant",
        "entity": "http://www.wikidata.org/entity/Q7375640",
        "country_qid": "Q916",
        "Wikidata Qid": "Q7375640"
      }
    },
    {
      "type": "Feature",
      "geometry": {
        "type": "Point",
        "coordinates": [
          13.276722222,
          -8.828111111
        ]
      },
      "properties": {
        "label": "CFL power plant",
        "type": "power plant",
        "entity": "http://www.wikidata.org/entity/Q56373878",
        "country_qid": "Q916",
        "Wikidata Qid": "Q56373878"
      }
    },
    {
      "type": "Feature",
      "geometry": {
        "type": "Point",
        "coordinates": [
          13.1856751,
          -12.660312
        ]
      },
      "properties": {
        "label": "Baía Farta photovoltaic power station",
        "type": "power plant",
        "entity": "http://www.wikidata.org/entity/Q118593679",
        "country_qid": "Q916",
        "Wikidata Qid": "Q118593679"
      }
    },
    {
      "type": "Feature",
      "geometry": {
        "type": "Point",
        "coordinates": [
          12.658333333,
          -15.017222222
        ]
      },
      "properties": {
        "label": "Caraculo Solar Power Station",
        "type": "power plant",
        "entity": "http://www.wikidata.org/entity/Q110125960",
        "country_qid": "Q916",
        "Wikidata Qid": "Q110125960"
      }
    },
    {
      "type": "Feature",
      "geometry": {
        "type": "Point",
        "coordinates": [
          15.041944444,
          -14.743888888
        ]
      },
      "properties": {
        "label": "Matala Hydroelectric Power Station",
        "type": "power plant",
        "entity": "http://www.wikidata.org/entity/Q11976048",
        "country_qid": "Q916",
        "Wikidata Qid": "Q11976048"
      }
    },
    {
      "type": "Feature",
      "geometry": {
        "type": "Point",
        "coordinates": [
          12.3245305,
          -6.1822569
        ]
      },
      "properties": {
        "label": "Soyo I Thermal Power Station",
        "type": "power plant",
        "entity": "http://www.wikidata.org/entity/Q56373857",
        "country_qid": "Q916",
        "Wikidata Qid": "Q56373857"
      }
    },
    {
      "type": "Feature",
      "geometry": {
        "type": "Point",
        "coordinates": [
          13.743611111,
          -12.468333333
        ]
      },
      "properties": {
        "label": "Biopio Solar Power Station",
        "type": "power plant",
        "entity": "http://www.wikidata.org/entity/Q119873338",
        "country_qid": "Q916",
        "Wikidata Qid": "Q119873338"
      }
    },
    {
      "type": "Feature",
      "geometry": {
        "type": "Point",
        "coordinates": [
          20.843333333,
          -7.363055555
        ]
      },
      "properties": {
        "label": "Luachimo Hydroelectric Power Station",
        "type": "power plant",
        "entity": "http://www.wikidata.org/entity/Q96391013",
        "country_qid": "Q916",
        "Wikidata Qid": "Q96391013"
      }
    },
    {
      "type": "Feature",
      "geometry": {
        "type": "Point",
        "coordinates": [
          14.9857002,
          -9.6853731
        ]
      },
      "properties": {
        "label": "Caculo Cabaça Hydroelectric Power Station",
        "type": "power plant",
        "entity": "http://www.wikidata.org/entity/Q97356365",
        "country_qid": "Q916",
        "Wikidata Qid": "Q97356365"
      }
    },
    {
      "type": "Feature",
      "geometry": {
        "type": "Point",
        "coordinates": [
          15.46365,
          -9.79302
        ]
      },
      "properties": {
        "label": "Capanda hydroelectric power plant substation",
        "type": "Electrical substation",
        "entity": "http://www.wikidata.org/entity/Q111130822",
        "country_qid": "Q916",
        "Wikidata Qid": "Q111130822"
      }
    },
    {
      "type": "Feature",
      "geometry": {
        "type": "Point",
        "coordinates": [
          15.469263888,
          -9.794663888
        ]
      },
      "properties": {
        "label": "Q56707520",
        "type": "Reservoir",
        "entity": "http://www.wikidata.org/entity/Q56707520",
        "country_qid": "Q916",
        "Wikidata Qid": "Q56707520"
      }
    },
    {
      "type": "Feature",
      "geometry": {
        "type": "Point",
        "coordinates": [
          13.6093139,
          -12.329311
        ]
      },
      "properties": {
        "label": "Lobito Oil Refinery",
        "type": "Industrial building",
        "entity": "http://www.wikidata.org/entity/Q10358476",
        "country_qid": "Q916",
        "Wikidata Qid": "Q10358476"
      }
    },
    {
      "type": "Feature",
      "geometry": {
        "type": "Point",
        "coordinates": [
          17.955555555,
          -8.792777777
        ]
      },
      "properties": {
        "label": "Q21423117",
        "type": "Mine",
        "entity": "http://www.wikidata.org/entity/Q21423117",
        "country_qid": "Q916",
        "Wikidata Qid": "Q21423117"
      }
    },
    {
      "type": "Feature",
      "geometry": {
        "type": "Point",
        "coordinates": [
          20.548055555,
          -8.516666666
        ]
      },
      "properties": {
        "label": "Q21424432",
        "type": "Mine",
        "entity": "http://www.wikidata.org/entity/Q21424432",
        "country_qid": "Q916",
        "Wikidata Qid": "Q21424432"
      }
    },
    {
      "type": "Feature",
      "geometry": {
        "type": "Point",
        "coordinates": [
          21.378333333,
          -7.746111111
        ]
      },
      "properties": {
        "label": "Q21417733",
        "type": "Mine",
        "entity": "http://www.wikidata.org/entity/Q21417733",
        "country_qid": "Q916",
        "Wikidata Qid": "Q21417733"
      }
    },
    {
      "type": "Feature",
      "geometry": {
        "type": "Point",
        "coordinates": [
          17.856666666,
          -8.558055555
        ]
      },
      "properties": {
        "label": "Q21423141",
        "type": "Mine",
        "entity": "http://www.wikidata.org/entity/Q21423141",
        "country_qid": "Q916",
        "Wikidata Qid": "Q21423141"
      }
    },
    {
      "type": "Feature",
      "geometry": {
        "type": "Point",
        "coordinates": [
          20.496416666,
          -8.9515
        ]
      },
      "properties": {
        "label": "Q10330200",
        "type": "Mine",
        "entity": "http://www.wikidata.org/entity/Q10330200",
        "country_qid": "Q916",
        "Wikidata Qid": "Q10330200"
      }
    },
    {
      "type": "Feature",
      "geometry": {
        "type": "Point",
        "coordinates": [
          17.883611111,
          -8.623055555
        ]
      },
      "properties": {
        "label": "Q21423139",
        "type": "Mine",
        "entity": "http://www.wikidata.org/entity/Q21423139",
        "country_qid": "Q916",
        "Wikidata Qid": "Q21423139"
      }
    },
    {
      "type": "Feature",
      "geometry": {
        "type": "Point",
        "coordinates": [
          21.419722222,
          -7.92
        ]
      },
      "properties": {
        "label": "Q21417740",
        "type": "Mine",
        "entity": "http://www.wikidata.org/entity/Q21417740",
        "country_qid": "Q916",
        "Wikidata Qid": "Q21417740"
      }
    },
    {
      "type": "Feature",
      "geometry": {
        "type": "Point",
        "coordinates": [
          21.185,
          -7.386111111
        ]
      },
      "properties": {
        "label": "Q21434053",
        "type": "Mine",
        "entity": "http://www.wikidata.org/entity/Q21434053",
        "country_qid": "Q916",
        "Wikidata Qid": "Q21434053"
      }
    },
    {
      "type": "Feature",
      "geometry": {
        "type": "Point",
        "coordinates": [
          20.766388888,
          -8.362222222
        ]
      },
      "properties": {
        "label": "Q21423752",
        "type": "Mine",
        "entity": "http://www.wikidata.org/entity/Q21423752",
        "country_qid": "Q916",
        "Wikidata Qid": "Q21423752"
      }
    },
    {
      "type": "Feature",
      "geometry": {
        "type": "Point",
        "coordinates": [
          21.16695,
          -7.38352
        ]
      },
      "properties": {
        "label": "Q21434052",
        "type": "Mine",
        "entity": "http://www.wikidata.org/entity/Q21434052",
        "country_qid": "Q916",
        "Wikidata Qid": "Q21434052"
      }
    },
    {
      "type": "Feature",
      "geometry": {
        "type": "Point",
        "coordinates": [
          21.344722222,
          -7.688611111
        ]
      },
      "properties": {
        "label": "Q21417734",
        "type": "Mine",
        "entity": "http://www.wikidata.org/entity/Q21417734",
        "country_qid": "Q916",
        "Wikidata Qid": "Q21417734"
      }
    },
    {
      "type": "Feature",
      "geometry": {
        "type": "Point",
        "coordinates": [
          14.6725,
          -9.411111111
        ]
      },
      "properties": {
        "label": "Q21425458",
        "type": "Mine",
        "entity": "http://www.wikidata.org/entity/Q21425458",
        "country_qid": "Q916",
        "Wikidata Qid": "Q21425458"
      }
    },
    {
      "type": "Feature",
      "geometry": {
        "type": "Point",
        "coordinates": [
          13.415277777,
          -8.645555555
        ]
      },
      "properties": {
        "label": "Q21420611",
        "type": "Mine",
        "entity": "http://www.wikidata.org/entity/Q21420611",
        "country_qid": "Q916",
        "Wikidata Qid": "Q21420611"
      }
    },
    {
      "type": "Feature",
      "geometry": {
        "type": "Point",
        "coordinates": [
          15.083333333,
          -9.2
        ]
      },
      "properties": {
        "label": "Q21408637",
        "type": "Mine",
        "entity": "http://www.wikidata.org/entity/Q21408637",
        "country_qid": "Q916",
        "Wikidata Qid": "Q21408637"
      }
    },
    {
      "type": "Feature",
      "geometry": {
        "type": "Point",
        "coordinates": [
          15.511111111,
          -9.0675
        ]
      },
      "properties": {
        "label": "Q21424932",
        "type": "Mine",
        "entity": "http://www.wikidata.org/entity/Q21424932",
        "country_qid": "Q916",
        "Wikidata Qid": "Q21424932"
      }
    },
    {
      "type": "Feature",
      "geometry": {
        "type": "Point",
        "coordinates": [
          21.173055555,
          -7.421944444
        ]
      },
      "properties": {
        "label": "Q21434046",
        "type": "Mine",
        "entity": "http://www.wikidata.org/entity/Q21434046",
        "country_qid": "Q916",
        "Wikidata Qid": "Q21434046"
      }
    },
    {
      "type": "Feature",
      "geometry": {
        "type": "Point",
        "coordinates": [
          20.478055555,
          -8.949722222
        ]
      },
      "properties": {
        "label": "Q21423584",
        "type": "Mine",
        "entity": "http://www.wikidata.org/entity/Q21423584",
        "country_qid": "Q916",
        "Wikidata Qid": "Q21423584"
      }
    },
    {
      "type": "Feature",
      "geometry": {
        "type": "Point",
        "coordinates": [
          20.30083333,
          -9.39888889
        ]
      },
      "properties": {
        "label": "Catoca diamond mine",
        "type": "Mine",
        "entity": "http://www.wikidata.org/entity/Q1051235",
        "country_qid": "Q916",
        "Wikidata Qid": "Q1051235"
      }
    },
    {
      "type": "Feature",
      "geometry": {
        "type": "Point",
        "coordinates": [
          21.384444444,
          -7.938611111
        ]
      },
      "properties": {
        "label": "Q21417738",
        "type": "Mine",
        "entity": "http://www.wikidata.org/entity/Q21417738",
        "country_qid": "Q916",
        "Wikidata Qid": "Q21417738"
      }
    },
    {
      "type": "Feature",
      "geometry": {
        "type": "Point",
        "coordinates": [
          21.124166666,
          -7.986666666
        ]
      },
      "properties": {
        "label": "Q21417730",
        "type": "Mine",
        "entity": "http://www.wikidata.org/entity/Q21417730",
        "country_qid": "Q916",
        "Wikidata Qid": "Q21417730"
      }
    },
    {
      "type": "Feature",
      "geometry": {
        "type": "Point",
        "coordinates": [
          21.393333333,
          -7.972777777
        ]
      },
      "properties": {
        "label": "Q21417737",
        "type": "Mine",
        "entity": "http://www.wikidata.org/entity/Q21417737",
        "country_qid": "Q916",
        "Wikidata Qid": "Q21417737"
      }
    },
    {
      "type": "Feature",
      "geometry": {
        "type": "Point",
        "coordinates": [
          17.879722222,
          -8.613888888
        ]
      },
      "properties": {
        "label": "Q21423140",
        "type": "Mine",
        "entity": "http://www.wikidata.org/entity/Q21423140",
        "country_qid": "Q916",
        "Wikidata Qid": "Q21423140"
      }
    },
    {
      "type": "Feature",
      "geometry": {
        "type": "Point",
        "coordinates": [
          15.5,
          -9.466666666
        ]
      },
      "properties": {
        "label": "Q21410110",
        "type": "Mine",
        "entity": "http://www.wikidata.org/entity/Q21410110",
        "country_qid": "Q916",
        "Wikidata Qid": "Q21410110"
      }
    },
    {
      "type": "Feature",
      "geometry": {
        "type": "Point",
        "coordinates": [
          20.770277777,
          -8.384444444
        ]
      },
      "properties": {
        "label": "Q21423755",
        "type": "Mine",
        "entity": "http://www.wikidata.org/entity/Q21423755",
        "country_qid": "Q916",
        "Wikidata Qid": "Q21423755"
      }
    },
    {
      "type": "Feature",
      "geometry": {
        "type": "Point",
        "coordinates": [
          21.03693,
          -8.28969
        ]
      },
      "properties": {
        "label": "Luarica diamond mine",
        "type": "Mine",
        "entity": "http://www.wikidata.org/entity/Q6695036",
        "country_qid": "Q916",
        "Wikidata Qid": "Q6695036"
      }
    },
    {
      "type": "Feature",
      "geometry": {
        "type": "Point",
        "coordinates": [
          16.293611111,
          -9.47
        ]
      },
      "properties": {
        "label": "Q21408513",
        "type": "Mine",
        "entity": "http://www.wikidata.org/entity/Q21408513",
        "country_qid": "Q916",
        "Wikidata Qid": "Q21408513"
      }
    },
    {
      "type": "Feature",
      "geometry": {
        "type": "Point",
        "coordinates": [
          15.0625,
          -6.218888888
        ]
      },
      "properties": {
        "label": "Q21409233",
        "type": "Mine",
        "entity": "http://www.wikidata.org/entity/Q21409233",
        "country_qid": "Q916",
        "Wikidata Qid": "Q21409233"
      }
    },
    {
      "type": "Feature",
      "geometry": {
        "type": "Point",
        "coordinates": [
          21.19691,
          -7.36593
        ]
      },
      "properties": {
        "label": "Fucauma Diamond Mine",
        "type": "Mine",
        "entity": "http://www.wikidata.org/entity/Q5506916",
        "country_qid": "Q916",
        "Wikidata Qid": "Q5506916"
      }
    }
  ]
}