{
  "type": "FeatureCollection",
  "features": [
    {
      "type": "Feature",
      "geometry": {
        "type": "Point",
        "coordinates": [
          90.043305555,
          27.255305555
        ]
      },
      "properties": {
        "label": "Q56376217",
        "type": "power plant",
        "entity": "http://www.wikidata.org/entity/Q56376217",
        "country_qid": "Q917"
      }
    },
    {
      "type": "Feature",
      "geometry": {
        "type": "Point",
        "coordinates": [
          91.204777777,
          27.215666666
        ]
      },
      "properties": {
        "label": "Kurichhu hydropower plant",
        "type": "power plant",
        "entity": "http://www.wikidata.org/entity/Q56376213",
        "country_qid": "Q917"
      }
    },
    {
      "type": "Feature",
      "geometry": {
        "type": "Point",
        "coordinates": [
          90.493916666,
          27.480444444
        ]
      },
      "properties": {
        "label": "Q56376215",
        "type": "power plant",
        "entity": "http://www.wikidata.org/entity/Q56376215",
        "country_qid": "Q917"
      }
    },
    {
      "type": "Feature",
      "geometry": {
        "type": "Point",
        "coordinates": [
          90.2938349,
          27.5170888
        ]
      },
      "properties": {
        "label": "Sephu Solar Power Plant",
        "type": "power plant",
        "entity": "http://www.wikidata.org/entity/Q123375874",
        "country_qid": "Q917"
      }
    },
    {
      "type": "Feature",
      "geometry": {
        "type": "Point",
        "coordinates": [
          89.5891,
          26.8567
        ]
      },
      "properties": {
        "label": "Tala Hydroelectric Power Station",
        "type": "power plant",
        "entity": "http://www.wikidata.org/entity/Q3429258",
        "country_qid": "Q917"
      }
    },
    {
      "type": "Feature",
      "geometry": {
        "type": "Point",
        "coordinates": [
          89.946555555,
          26.978888888
        ]
      },
      "properties": {
        "label": "Q56376207",
        "type": "power plant",
        "entity": "http://www.wikidata.org/entity/Q56376207",
        "country_qid": "Q917"
      }
    },
    {
      "type": "Feature",
      "geometry": {
        "type": "Point",
        "coordinates": [
          89.931916666,
          27.331916666
        ]
      },
      "properties": {
        "label": "Q56376216",
        "type": "power plant",
        "entity": "http://www.wikidata.org/entity/Q56376216",
        "country_qid": "Q917"
      }
    },
    {
      "type": "Feature",
      "geometry": {
        "type": "Point",
        "coordinates": [
          89.575972222,
          27.052694444
        ]
      },
      "properties": {
        "label": "Chukha hydropower plant",
        "type": "power plant",
        "entity": "http://www.wikidata.org/entity/Q17762388",
        "country_qid": "Q917"
      }
    },
    {
      "type": "Feature",
      "geometry": {
        "type": "Point",
        "coordinates": [
          89.5953,
          27.0362
        ]
      },
      "properties": {
        "label": "Tala Dam",
        "type": "Hydraulic structure",
        "entity": "http://www.wikidata.org/entity/Q115112749",
        "country_qid": "Q917"
      }
    }
  ]
}