{
  "type": "FeatureCollection",
  "features": [
    {
      "type": "Feature",
      "geometry": {
        "type": "Point",
        "coordinates": [
          18.3806382,
          42.706769
        ]
      },
      "properties": {
        "label": "Trebinje 2 Hydroelectric Power Station",
        "type": "power plant",
        "entity": "http://www.wikidata.org/entity/Q31082668",
        "country_qid": "Q225",
        "Wikidata Qid": "Q31082668"
      }
    },
    {
      "type": "Feature",
      "geometry": {
        "type": "Point",
        "coordinates": [
          17.794264,
          43.298844
        ]
      },
      "properties": {
        "label": "Mostarsko Blato Hydro Power Plant",
        "type": "power plant",
        "entity": "http://www.wikidata.org/entity/Q6916907",
        "country_qid": "Q225",
        "Wikidata Qid": "Q6916907"
      }
    },
    {
      "type": "Feature",
      "geometry": {
        "type": "Point",
        "coordinates": [
          17.3262761,
          43.3382105
        ]
      },
      "properties": {
        "label": "Peć - Mlini Hydroelectric Power Plant",
        "type": "power plant",
        "entity": "http://www.wikidata.org/entity/Q25500787",
        "country_qid": "Q225",
        "Wikidata Qid": "Q25500787"
      }
    },
    {
      "type": "Feature",
      "geometry": {
        "type": "Point",
        "coordinates": [
          17.719,
          43.587
        ]
      },
      "properties": {
        "label": "Grabovica Hydroelectric Power Station",
        "type": "power plant",
        "entity": "http://www.wikidata.org/entity/Q5590735",
        "country_qid": "Q225",
        "Wikidata Qid": "Q5590735"
      }
    },
    {
      "type": "Feature",
      "geometry": {
        "type": "Point",
        "coordinates": [
          18.0875,
          44.13111111
        ]
      },
      "properties": {
        "label": "Thermal Power Station Kakanj, Catici",
        "type": "power plant",
        "entity": "http://www.wikidata.org/entity/Q17097885",
        "country_qid": "Q225",
        "Wikidata Qid": "Q17097885"
      }
    },
    {
      "type": "Feature",
      "geometry": {
        "type": "Point",
        "coordinates": [
          17.66921,
          43.74818
        ]
      },
      "properties": {
        "label": "Rama Hydroelectric Power Station",
        "type": "power plant",
        "entity": "http://www.wikidata.org/entity/Q3438079",
        "country_qid": "Q225",
        "Wikidata Qid": "Q3438079"
      }
    },
    {
      "type": "Feature",
      "geometry": {
        "type": "Point",
        "coordinates": [
          18.6061,
          44.52
        ]
      },
      "properties": {
        "label": "Tuzla Power Station",
        "type": "power plant",
        "entity": "http://www.wikidata.org/entity/Q7857286",
        "country_qid": "Q225",
        "Wikidata Qid": "Q7857286"
      }
    },
    {
      "type": "Feature",
      "geometry": {
        "type": "Point",
        "coordinates": [
          18.967222,
          44.681944
        ]
      },
      "properties": {
        "label": "Ugljevik Power Plant",
        "type": "power plant",
        "entity": "http://www.wikidata.org/entity/Q1780876",
        "country_qid": "Q225",
        "Wikidata Qid": "Q1780876"
      }
    },
    {
      "type": "Feature",
      "geometry": {
        "type": "Point",
        "coordinates": [
          17.8370172,
          43.4476692
        ]
      },
      "properties": {
        "label": "Salakovac Hydroelectric Power Station",
        "type": "power plant",
        "entity": "http://www.wikidata.org/entity/Q11999146",
        "country_qid": "Q225",
        "Wikidata Qid": "Q11999146"
      }
    },
    {
      "type": "Feature",
      "geometry": {
        "type": "Point",
        "coordinates": [
          17.28222,
          44.37722
        ]
      },
      "properties": {
        "label": "Jajce-1 Hydroelectric Power Station",
        "type": "power plant",
        "entity": "http://www.wikidata.org/entity/Q6124346",
        "country_qid": "Q225",
        "Wikidata Qid": "Q6124346"
      }
    },
    {
      "type": "Feature",
      "geometry": {
        "type": "Point",
        "coordinates": [
          18.104791666,
          43.503586111
        ]
      },
      "properties": {
        "label": "Glavaticevo Hydro Power Plant",
        "type": "power plant",
        "entity": "http://www.wikidata.org/entity/Q5567316",
        "country_qid": "Q225",
        "Wikidata Qid": "Q5567316"
      }
    },
    {
      "type": "Feature",
      "geometry": {
        "type": "Point",
        "coordinates": [
          17.845166666,
          43.377472222
        ]
      },
      "properties": {
        "label": "Mostar Hydroelectric Power Station",
        "type": "power plant",
        "entity": "http://www.wikidata.org/entity/Q25500795",
        "country_qid": "Q225",
        "Wikidata Qid": "Q25500795"
      }
    },
    {
      "type": "Feature",
      "geometry": {
        "type": "Point",
        "coordinates": [
          19.289111111,
          43.760777777
        ]
      },
      "properties": {
        "label": "Višegrad Hydroelectric Power Station",
        "type": "power plant",
        "entity": "http://www.wikidata.org/entity/Q7935902",
        "country_qid": "Q225",
        "Wikidata Qid": "Q7935902"
      }
    },
    {
      "type": "Feature",
      "geometry": {
        "type": "Point",
        "coordinates": [
          17.161416666,
          44.508083333
        ]
      },
      "properties": {
        "label": "Bočac Hydroelectric Power Station",
        "type": "power plant",
        "entity": "http://www.wikidata.org/entity/Q4936137",
        "country_qid": "Q225",
        "Wikidata Qid": "Q4936137"
      }
    },
    {
      "type": "Feature",
      "geometry": {
        "type": "Point",
        "coordinates": [
          18.497027777,
          42.733638888
        ]
      },
      "properties": {
        "label": "Trebinje 1 Hydroelectric Power Station",
        "type": "power plant",
        "entity": "http://www.wikidata.org/entity/Q7837375",
        "country_qid": "Q225",
        "Wikidata Qid": "Q7837375"
      }
    },
    {
      "type": "Feature",
      "geometry": {
        "type": "Point",
        "coordinates": [
          18.114317,
          44.08977
        ]
      },
      "properties": {
        "label": "Kakanj Power Station",
        "type": "power plant",
        "entity": "http://www.wikidata.org/entity/Q1786135",
        "country_qid": "Q225",
        "Wikidata Qid": "Q1786135"
      }
    },
    {
      "type": "Feature",
      "geometry": {
        "type": "Point",
        "coordinates": [
          18.516288888,
          43.173619444
        ]
      },
      "properties": {
        "label": "Gacko Power Plant",
        "type": "power plant",
        "entity": "http://www.wikidata.org/entity/Q17775734",
        "country_qid": "Q225",
        "Wikidata Qid": "Q17775734"
      }
    },
    {
      "type": "Feature",
      "geometry": {
        "type": "Point",
        "coordinates": [
          17.803513805,
          43.012764226
        ]
      },
      "properties": {
        "label": "Čapljina Hydroelectric Power Station",
        "type": "power plant",
        "entity": "http://www.wikidata.org/entity/Q3438049",
        "country_qid": "Q225",
        "Wikidata Qid": "Q3438049"
      }
    },
    {
      "type": "Feature",
      "geometry": {
        "type": "Point",
        "coordinates": [
          17.23894,
          44.42788
        ]
      },
      "properties": {
        "label": "Jajce-2 Hydroelectric Power Station",
        "type": "power plant",
        "entity": "http://www.wikidata.org/entity/Q21720560",
        "country_qid": "Q225",
        "Wikidata Qid": "Q21720560"
      }
    },
    {
      "type": "Feature",
      "geometry": {
        "type": "Point",
        "coordinates": [
          17.76611,
          43.66417
        ]
      },
      "properties": {
        "label": "Jablanica Hydro Power Plant",
        "type": "power plant",
        "entity": "http://www.wikidata.org/entity/Q21743461",
        "country_qid": "Q225",
        "Wikidata Qid": "Q21743461"
      }
    },
    {
      "type": "Feature",
      "geometry": {
        "type": "Point",
        "coordinates": [
          17.7914142,
          44.7538346
        ]
      },
      "properties": {
        "label": "Stanari Thermal Power Plant",
        "type": "power plant",
        "entity": "http://www.wikidata.org/entity/Q18392784",
        "country_qid": "Q225",
        "Wikidata Qid": "Q18392784"
      }
    },
    {
      "type": "Feature",
      "geometry": {
        "type": "Point",
        "coordinates": [
          17.28019444,
          43.58030556
        ]
      },
      "properties": {
        "label": "Mesihovina wind farm",
        "type": "power plant",
        "entity": "http://www.wikidata.org/entity/Q56026061",
        "country_qid": "Q225",
        "Wikidata Qid": "Q56026061"
      }
    },
    {
      "type": "Feature",
      "geometry": {
        "type": "Point",
        "coordinates": [
          17.83005091,
          43.453091673
        ]
      },
      "properties": {
        "label": "Salakovac Lake",
        "type": "Reservoir",
        "entity": "http://www.wikidata.org/entity/Q7403502",
        "country_qid": "Q225",
        "Wikidata Qid": "Q7403502"
      }
    },
    {
      "type": "Feature",
      "geometry": {
        "type": "Point",
        "coordinates": [
          19.268055555,
          43.758611111
        ]
      },
      "properties": {
        "label": "Višegradsko Lake",
        "type": "Reservoir",
        "entity": "http://www.wikidata.org/entity/Q2349379",
        "country_qid": "Q225",
        "Wikidata Qid": "Q2349379"
      }
    },
    {
      "type": "Feature",
      "geometry": {
        "type": "Point",
        "coordinates": [
          18.435428995,
          43.716383428
        ]
      },
      "properties": {
        "label": "Lake Bogatići",
        "type": "Reservoir",
        "entity": "http://www.wikidata.org/entity/Q126002734",
        "country_qid": "Q225",
        "Wikidata Qid": "Q126002734"
      }
    },
    {
      "type": "Feature",
      "geometry": {
        "type": "Point",
        "coordinates": [
          19.410753,
          43.965024
        ]
      },
      "properties": {
        "label": "Perućac lake",
        "type": "Reservoir",
        "entity": "http://www.wikidata.org/entity/Q932846",
        "country_qid": "Q225",
        "Wikidata Qid": "Q932846"
      }
    },
    {
      "type": "Feature",
      "geometry": {
        "type": "Point",
        "coordinates": [
          17.8275,
          43.692222222
        ]
      },
      "properties": {
        "label": "Jablaničko Lake",
        "type": "Reservoir",
        "entity": "http://www.wikidata.org/entity/Q1541439",
        "country_qid": "Q225",
        "Wikidata Qid": "Q1541439"
      }
    },
    {
      "type": "Feature",
      "geometry": {
        "type": "Point",
        "coordinates": [
          18.438055555,
          42.825277777
        ]
      },
      "properties": {
        "label": "Bilećko Lake",
        "type": "Reservoir",
        "entity": "http://www.wikidata.org/entity/Q2656960",
        "country_qid": "Q225",
        "Wikidata Qid": "Q2656960"
      }
    },
    {
      "type": "Feature",
      "geometry": {
        "type": "Point",
        "coordinates": [
          18.431219444,
          43.859675
        ]
      },
      "properties": {
        "label": "Sebilj",
        "type": "Reservoir",
        "entity": "http://www.wikidata.org/entity/Q1062192",
        "country_qid": "Q225",
        "Wikidata Qid": "Q1062192"
      }
    },
    {
      "type": "Feature",
      "geometry": {
        "type": "Point",
        "coordinates": [
          17.831044,
          42.934681
        ]
      },
      "properties": {
        "label": "Vrutak",
        "type": "Reservoir",
        "entity": "http://www.wikidata.org/entity/Q55886759",
        "country_qid": "Q225",
        "Wikidata Qid": "Q55886759"
      }
    },
    {
      "type": "Feature",
      "geometry": {
        "type": "Point",
        "coordinates": [
          18.52138889,
          44.49611111
        ]
      },
      "properties": {
        "label": "Modrac Lake",
        "type": "Reservoir",
        "entity": "http://www.wikidata.org/entity/Q1282719",
        "country_qid": "Q225",
        "Wikidata Qid": "Q1282719"
      }
    },
    {
      "type": "Feature",
      "geometry": {
        "type": "Point",
        "coordinates": [
          17.76194444,
          43.62277778
        ]
      },
      "properties": {
        "label": "Grabovičko Lake",
        "type": "Reservoir",
        "entity": "http://www.wikidata.org/entity/Q3395450",
        "country_qid": "Q225",
        "Wikidata Qid": "Q3395450"
      }
    },
    {
      "type": "Feature",
      "geometry": {
        "type": "Point",
        "coordinates": [
          17.518,
          43.8031
        ]
      },
      "properties": {
        "label": "Rama Lake",
        "type": "Reservoir",
        "entity": "http://www.wikidata.org/entity/Q3390892",
        "country_qid": "Q225",
        "Wikidata Qid": "Q3390892"
      }
    },
    {
      "type": "Feature",
      "geometry": {
        "type": "Point",
        "coordinates": [
          17.0239,
          43.6607
        ]
      },
      "properties": {
        "label": "Buško Blato",
        "type": "Reservoir",
        "entity": "http://www.wikidata.org/entity/Q776520",
        "country_qid": "Q225",
        "Wikidata Qid": "Q776520"
      }
    },
    {
      "type": "Feature",
      "geometry": {
        "type": "Point",
        "coordinates": [
          18.33906,
          42.86657
        ]
      },
      "properties": {
        "label": "Stara Čatrnja",
        "type": "Reservoir",
        "entity": "http://www.wikidata.org/entity/Q110161857",
        "country_qid": "Q225",
        "Wikidata Qid": "Q110161857"
      }
    },
    {
      "type": "Feature",
      "geometry": {
        "type": "Point",
        "coordinates": [
          18.33268,
          42.86347
        ]
      },
      "properties": {
        "label": "Stankovića Čatrnja",
        "type": "Reservoir",
        "entity": "http://www.wikidata.org/entity/Q110161545",
        "country_qid": "Q225",
        "Wikidata Qid": "Q110161545"
      }
    },
    {
      "type": "Feature",
      "geometry": {
        "type": "Point",
        "coordinates": [
          16.671944,
          44.765833
        ]
      },
      "properties": {
        "label": "Sanski Most railway station",
        "type": "Industrial building",
        "entity": "http://www.wikidata.org/entity/Q20581080",
        "country_qid": "Q225",
        "Wikidata Qid": "Q20581080"
      }
    },
    {
      "type": "Feature",
      "geometry": {
        "type": "Point",
        "coordinates": [
          17.269224,
          44.33784
        ]
      },
      "properties": {
        "label": "Building of railway station Šipad (the building of ex railway station Steinbeiss), historical monument",
        "type": "Industrial building",
        "entity": "http://www.wikidata.org/entity/Q43948418",
        "country_qid": "Q225",
        "Wikidata Qid": "Q43948418"
      }
    },
    {
      "type": "Feature",
      "geometry": {
        "type": "Point",
        "coordinates": [
          18.4119195,
          43.8557442
        ]
      },
      "properties": {
        "label": "Electric power station at Hiseta",
        "type": "Industrial building",
        "entity": "http://www.wikidata.org/entity/Q43955816",
        "country_qid": "Q225",
        "Wikidata Qid": "Q43955816"
      }
    },
    {
      "type": "Feature",
      "geometry": {
        "type": "Point",
        "coordinates": [
          18.5061592,
          44.5485164
        ]
      },
      "properties": {
        "label": "Q133894420",
        "type": "Industrial building",
        "entity": "http://www.wikidata.org/entity/Q133894420",
        "country_qid": "Q225",
        "Wikidata Qid": "Q133894420"
      }
    },
    {
      "type": "Feature",
      "geometry": {
        "type": "Point",
        "coordinates": [
          18.417794444,
          43.855416666
        ]
      },
      "properties": {
        "label": "Sarajevo fire brigade barracks",
        "type": "Industrial building",
        "entity": "http://www.wikidata.org/entity/Q61362418",
        "country_qid": "Q225",
        "Wikidata Qid": "Q61362418"
      }
    },
    {
      "type": "Feature",
      "geometry": {
        "type": "Point",
        "coordinates": [
          18.4376597,
          43.8524631
        ]
      },
      "properties": {
        "label": "Electric power station at Hrid (Dudin Hrid), the industrial architectural ensemble",
        "type": "Industrial building",
        "entity": "http://www.wikidata.org/entity/Q43955841",
        "country_qid": "Q225",
        "Wikidata Qid": "Q43955841"
      }
    },
    {
      "type": "Feature",
      "geometry": {
        "type": "Point",
        "coordinates": [
          17.226513888,
          44.34705
        ]
      },
      "properties": {
        "label": "Pliva River Watermills",
        "type": "Industrial building",
        "entity": "http://www.wikidata.org/entity/Q56855159",
        "country_qid": "Q225",
        "Wikidata Qid": "Q56855159"
      }
    },
    {
      "type": "Feature",
      "geometry": {
        "type": "Point",
        "coordinates": [
          18.872278,
          43.619654
        ]
      },
      "properties": {
        "label": "Daorsia",
        "type": "Industrial building",
        "entity": "http://www.wikidata.org/entity/Q127430094",
        "country_qid": "Q225",
        "Wikidata Qid": "Q127430094"
      }
    },
    {
      "type": "Feature",
      "geometry": {
        "type": "Point",
        "coordinates": [
          17.004166666,
          43.825833333
        ]
      },
      "properties": {
        "label": "Livno coal mine",
        "type": "Mine",
        "entity": "http://www.wikidata.org/entity/Q16967694",
        "country_qid": "Q225",
        "Wikidata Qid": "Q16967694"
      }
    },
    {
      "type": "Feature",
      "geometry": {
        "type": "Point",
        "coordinates": [
          19.2975,
          44.177222222
        ]
      },
      "properties": {
        "label": "Q21719697",
        "type": "Mine",
        "entity": "http://www.wikidata.org/entity/Q21719697",
        "country_qid": "Q225",
        "Wikidata Qid": "Q21719697"
      }
    },
    {
      "type": "Feature",
      "geometry": {
        "type": "Point",
        "coordinates": [
          18.366632,
          44.145812
        ]
      },
      "properties": {
        "label": "Daštansko",
        "type": "Mine",
        "entity": "http://www.wikidata.org/entity/Q67084874",
        "country_qid": "Q225",
        "Wikidata Qid": "Q67084874"
      }
    },
    {
      "type": "Feature",
      "geometry": {
        "type": "Point",
        "coordinates": [
          19.345833333,
          44.117777777
        ]
      },
      "properties": {
        "label": "Q21719699",
        "type": "Mine",
        "entity": "http://www.wikidata.org/entity/Q21719699",
        "country_qid": "Q225",
        "Wikidata Qid": "Q21719699"
      }
    },
    {
      "type": "Feature",
      "geometry": {
        "type": "Point",
        "coordinates": [
          17.958202,
          43.85775
        ]
      },
      "properties": {
        "label": "Dezevica",
        "type": "Mine",
        "entity": "http://www.wikidata.org/entity/Q67084495",
        "country_qid": "Q225",
        "Wikidata Qid": "Q67084495"
      }
    },
    {
      "type": "Feature",
      "geometry": {
        "type": "Point",
        "coordinates": [
          18.478888888,
          44.398055555
        ]
      },
      "properties": {
        "label": "Q21719079",
        "type": "Mine",
        "entity": "http://www.wikidata.org/entity/Q21719079",
        "country_qid": "Q225",
        "Wikidata Qid": "Q21719079"
      }
    },
    {
      "type": "Feature",
      "geometry": {
        "type": "Point",
        "coordinates": [
          19.367693,
          44.136798
        ]
      },
      "properties": {
        "label": "Srebrenica mine",
        "type": "Mine",
        "entity": "http://www.wikidata.org/entity/Q67079829",
        "country_qid": "Q225",
        "Wikidata Qid": "Q67079829"
      }
    },
    {
      "type": "Feature",
      "geometry": {
        "type": "Point",
        "coordinates": [
          18.6421846,
          43.5109627
        ]
      },
      "properties": {
        "label": "Miljevina coal mine",
        "type": "Mine",
        "entity": "http://www.wikidata.org/entity/Q16969315",
        "country_qid": "Q225",
        "Wikidata Qid": "Q16969315"
      }
    },
    {
      "type": "Feature",
      "geometry": {
        "type": "Point",
        "coordinates": [
          16.576111111,
          44.790277777
        ]
      },
      "properties": {
        "label": "Kamengrad coal mine",
        "type": "Mine",
        "entity": "http://www.wikidata.org/entity/Q16976045",
        "country_qid": "Q225",
        "Wikidata Qid": "Q16976045"
      }
    },
    {
      "type": "Feature",
      "geometry": {
        "type": "Point",
        "coordinates": [
          17.525833333,
          44.723888888
        ]
      },
      "properties": {
        "label": "Q21723640",
        "type": "Mine",
        "entity": "http://www.wikidata.org/entity/Q21723640",
        "country_qid": "Q225",
        "Wikidata Qid": "Q21723640"
      }
    },
    {
      "type": "Feature",
      "geometry": {
        "type": "Point",
        "coordinates": [
          18.15278,
          44.11278
        ]
      },
      "properties": {
        "label": "Kakanj Rudnik",
        "type": "Mine",
        "entity": "http://www.wikidata.org/entity/Q21717302",
        "country_qid": "Q225",
        "Wikidata Qid": "Q21717302"
      }
    },
    {
      "type": "Feature",
      "geometry": {
        "type": "Point",
        "coordinates": [
          18.278333333,
          44.005
        ]
      },
      "properties": {
        "label": "Breza coal mine",
        "type": "Mine",
        "entity": "http://www.wikidata.org/entity/Q16255422",
        "country_qid": "Q225",
        "Wikidata Qid": "Q16255422"
      }
    },
    {
      "type": "Feature",
      "geometry": {
        "type": "Point",
        "coordinates": [
          17.8275,
          44.48085
        ]
      },
      "properties": {
        "label": "Magnezit",
        "type": "Mine",
        "entity": "http://www.wikidata.org/entity/Q21727157",
        "country_qid": "Q225",
        "Wikidata Qid": "Q21727157"
      }
    },
    {
      "type": "Feature",
      "geometry": {
        "type": "Point",
        "coordinates": [
          16.45778,
          45.01389
        ]
      },
      "properties": {
        "label": "Q21736654",
        "type": "Mine",
        "entity": "http://www.wikidata.org/entity/Q21736654",
        "country_qid": "Q225",
        "Wikidata Qid": "Q21736654"
      }
    },
    {
      "type": "Feature",
      "geometry": {
        "type": "Point",
        "coordinates": [
          18.513055555,
          43.172777777
        ]
      },
      "properties": {
        "label": "Gacko coal mine",
        "type": "Mine",
        "entity": "http://www.wikidata.org/entity/Q16975878",
        "country_qid": "Q225",
        "Wikidata Qid": "Q16975878"
      }
    },
    {
      "type": "Feature",
      "geometry": {
        "type": "Point",
        "coordinates": [
          18.984722222,
          44.663611111
        ]
      },
      "properties": {
        "label": "Ugljevik coal mine",
        "type": "Mine",
        "entity": "http://www.wikidata.org/entity/Q16976213",
        "country_qid": "Q225",
        "Wikidata Qid": "Q16976213"
      }
    },
    {
      "type": "Feature",
      "geometry": {
        "type": "Point",
        "coordinates": [
          17.937391,
          43.969284
        ]
      },
      "properties": {
        "label": "Ostruznica",
        "type": "Mine",
        "entity": "http://www.wikidata.org/entity/Q67084748",
        "country_qid": "Q225",
        "Wikidata Qid": "Q67084748"
      }
    },
    {
      "type": "Feature",
      "geometry": {
        "type": "Point",
        "coordinates": [
          18.327305,
          44.154693
        ]
      },
      "properties": {
        "label": "Vareš",
        "type": "Mine",
        "entity": "http://www.wikidata.org/entity/Q67084326",
        "country_qid": "Q225",
        "Wikidata Qid": "Q67084326"
      }
    },
    {
      "type": "Feature",
      "geometry": {
        "type": "Point",
        "coordinates": [
          17.896644,
          43.963827
        ]
      },
      "properties": {
        "label": "Fojnica",
        "type": "Mine",
        "entity": "http://www.wikidata.org/entity/Q67084688",
        "country_qid": "Q225",
        "Wikidata Qid": "Q67084688"
      }
    },
    {
      "type": "Feature",
      "geometry": {
        "type": "Point",
        "coordinates": [
          16.664693,
          44.763965
        ]
      },
      "properties": {
        "label": "Kemengrad",
        "type": "Mine",
        "entity": "http://www.wikidata.org/entity/Q67119368",
        "country_qid": "Q225",
        "Wikidata Qid": "Q67119368"
      }
    },
    {
      "type": "Feature",
      "geometry": {
        "type": "Point",
        "coordinates": [
          19.364908888,
          44.126621111
        ]
      },
      "properties": {
        "label": "Sase mine",
        "type": "Mine",
        "entity": "http://www.wikidata.org/entity/Q67023080",
        "country_qid": "Q225",
        "Wikidata Qid": "Q67023080"
      }
    },
    {
      "type": "Feature",
      "geometry": {
        "type": "Point",
        "coordinates": [
          19.073618,
          43.556836
        ]
      },
      "properties": {
        "label": "Čajniče",
        "type": "Mine",
        "entity": "http://www.wikidata.org/entity/Q67084812",
        "country_qid": "Q225",
        "Wikidata Qid": "Q67084812"
      }
    },
    {
      "type": "Feature",
      "geometry": {
        "type": "Point",
        "coordinates": [
          16.785277777,
          44.860833333
        ]
      },
      "properties": {
        "label": "Q21727308",
        "type": "Mine",
        "entity": "http://www.wikidata.org/entity/Q21727308",
        "country_qid": "Q225",
        "Wikidata Qid": "Q21727308"
      }
    },
    {
      "type": "Feature",
      "geometry": {
        "type": "Point",
        "coordinates": [
          17.930658,
          43.877071
        ]
      },
      "properties": {
        "label": "Dusina",
        "type": "Mine",
        "entity": "http://www.wikidata.org/entity/Q67084554",
        "country_qid": "Q225",
        "Wikidata Qid": "Q67084554"
      }
    },
    {
      "type": "Feature",
      "geometry": {
        "type": "Point",
        "coordinates": [
          17.824722222,
          44.765277777
        ]
      },
      "properties": {
        "label": "Stanari coal mine",
        "type": "Mine",
        "entity": "http://www.wikidata.org/entity/Q16976114",
        "country_qid": "Q225",
        "Wikidata Qid": "Q16976114"
      }
    },
    {
      "type": "Feature",
      "geometry": {
        "type": "Point",
        "coordinates": [
          18.58251,
          44.125312
        ]
      },
      "properties": {
        "label": "Olovo mine",
        "type": "Mine",
        "entity": "http://www.wikidata.org/entity/Q67084228",
        "country_qid": "Q225",
        "Wikidata Qid": "Q67084228"
      }
    },
    {
      "type": "Feature",
      "geometry": {
        "type": "Point",
        "coordinates": [
          15.873,
          43.959
        ]
      },
      "properties": {
        "label": "Kakanj coal mine",
        "type": "Mine",
        "entity": "http://www.wikidata.org/entity/Q16976141",
        "country_qid": "Q225",
        "Wikidata Qid": "Q16976141"
      }
    },
    {
      "type": "Feature",
      "geometry": {
        "type": "Point",
        "coordinates": [
          18.649166666,
          44.399166666
        ]
      },
      "properties": {
        "label": "Đurđević coal mine",
        "type": "Mine",
        "entity": "http://www.wikidata.org/entity/Q16976044",
        "country_qid": "Q225",
        "Wikidata Qid": "Q16976044"
      }
    },
    {
      "type": "Feature",
      "geometry": {
        "type": "Point",
        "coordinates": [
          18.034588,
          43.865617
        ]
      },
      "properties": {
        "label": "Kreševo",
        "type": "Mine",
        "entity": "http://www.wikidata.org/entity/Q67084432",
        "country_qid": "Q225",
        "Wikidata Qid": "Q67084432"
      }
    },
    {
      "type": "Feature",
      "geometry": {
        "type": "Point",
        "coordinates": [
          17.72215,
          44.01815
        ]
      },
      "properties": {
        "label": "Sebešić mine",
        "type": "Mine",
        "entity": "http://www.wikidata.org/entity/Q67085240",
        "country_qid": "Q225",
        "Wikidata Qid": "Q67085240"
      }
    },
    {
      "type": "Feature",
      "geometry": {
        "type": "Point",
        "coordinates": [
          17.091666666,
          43.738888888
        ]
      },
      "properties": {
        "label": "Tušnica coal mine",
        "type": "Mine",
        "entity": "http://www.wikidata.org/entity/Q16975848",
        "country_qid": "Q225",
        "Wikidata Qid": "Q16975848"
      }
    },
    {
      "type": "Feature",
      "geometry": {
        "type": "Point",
        "coordinates": [
          19.34822,
          44.11617
        ]
      },
      "properties": {
        "label": "Tri Kralja",
        "type": "Mine",
        "entity": "http://www.wikidata.org/entity/Q21719700",
        "country_qid": "Q225",
        "Wikidata Qid": "Q21719700"
      }
    },
    {
      "type": "Feature",
      "geometry": {
        "type": "Point",
        "coordinates": [
          18.545,
          44.426944444
        ]
      },
      "properties": {
        "label": "Banovići coal mine",
        "type": "Mine",
        "entity": "http://www.wikidata.org/entity/Q17005460",
        "country_qid": "Q225",
        "Wikidata Qid": "Q17005460"
      }
    },
    {
      "type": "Feature",
      "geometry": {
        "type": "Point",
        "coordinates": [
          16.035,
          45.113333333
        ]
      },
      "properties": {
        "label": "Q21737356",
        "type": "Mine",
        "entity": "http://www.wikidata.org/entity/Q21737356",
        "country_qid": "Q225",
        "Wikidata Qid": "Q21737356"
      }
    },
    {
      "type": "Feature",
      "geometry": {
        "type": "Point",
        "coordinates": [
          17.450555555,
          44.056944444
        ]
      },
      "properties": {
        "label": "Bugojno coal mine",
        "type": "Mine",
        "entity": "http://www.wikidata.org/entity/Q16255778",
        "country_qid": "Q225",
        "Wikidata Qid": "Q16255778"
      }
    },
    {
      "type": "Feature",
      "geometry": {
        "type": "Point",
        "coordinates": [
          18.539991666,
          44.579761111
        ]
      },
      "properties": {
        "label": "Kreka coal mine",
        "type": "Mine",
        "entity": "http://www.wikidata.org/entity/Q16971562",
        "country_qid": "Q225",
        "Wikidata Qid": "Q16971562"
      }
    },
    {
      "type": "Feature",
      "geometry": {
        "type": "Point",
        "coordinates": [
          16.604662,
          44.915428
        ]
      },
      "properties": {
        "label": "Ljubija mine",
        "type": "Mine",
        "entity": "http://www.wikidata.org/entity/Q6660897",
        "country_qid": "Q225",
        "Wikidata Qid": "Q6660897"
      }
    },
    {
      "type": "Feature",
      "geometry": {
        "type": "Point",
        "coordinates": [
          16.645555555,
          44.059166666
        ]
      },
      "properties": {
        "label": "Q21719693",
        "type": "Mine",
        "entity": "http://www.wikidata.org/entity/Q21719693",
        "country_qid": "Q225",
        "Wikidata Qid": "Q21719693"
      }
    },
    {
      "type": "Feature",
      "geometry": {
        "type": "Point",
        "coordinates": [
          17.333333333,
          43.648055555
        ]
      },
      "properties": {
        "label": "Kongora coal mine",
        "type": "Mine",
        "entity": "http://www.wikidata.org/entity/Q16975820",
        "country_qid": "Q225",
        "Wikidata Qid": "Q16975820"
      }
    },
    {
      "type": "Feature",
      "geometry": {
        "type": "Point",
        "coordinates": [
          17.930277777,
          44.186666666
        ]
      },
      "properties": {
        "label": "Zenica coal mine",
        "type": "Mine",
        "entity": "http://www.wikidata.org/entity/Q16976182",
        "country_qid": "Q225",
        "Wikidata Qid": "Q16976182"
      }
    },
    {
      "type": "Feature",
      "geometry": {
        "type": "Point",
        "coordinates": [
          18.38647222,
          43.87247222
        ]
      },
      "properties": {
        "label": "Hum Tower",
        "type": "Communication tower",
        "entity": "http://www.wikidata.org/entity/Q24970077",
        "country_qid": "Q225",
        "Wikidata Qid": "Q24970077"
      }
    }
  ]
}