{
  "type": "FeatureCollection",
  "features": [
    {
      "type": "Feature",
      "geometry": {
        "type": "Point",
        "coordinates": [
          -83.995826,
          9.777102
        ]
      },
      "properties": {
        "label": "Los Santos Wind Farm",
        "type": "power plant",
        "entity": "http://www.wikidata.org/entity/Q96390826",
        "country_qid": "Q800",
        "Wikidata Qid": "Q96390826"
      }
    },
    {
      "type": "Feature",
      "geometry": {
        "type": "Point",
        "coordinates": [
          -83.58021944,
          10.06556944
        ]
      },
      "properties": {
        "label": "Reventazón Dam",
        "type": "power plant",
        "entity": "http://www.wikidata.org/entity/Q21159726",
        "country_qid": "Q800",
        "Wikidata Qid": "Q21159726"
      }
    },
    {
      "type": "Feature",
      "geometry": {
        "type": "Point",
        "coordinates": [
          -83.29555556,
          9.08222222
        ]
      },
      "properties": {
        "label": "El Diquís Hydroelectric Project",
        "type": "power plant",
        "entity": "http://www.wikidata.org/entity/Q939077",
        "country_qid": "Q800",
        "Wikidata Qid": "Q939077"
      }
    },
    {
      "type": "Feature",
      "geometry": {
        "type": "Point",
        "coordinates": [
          -83.686944444,
          9.854194444
        ]
      },
      "properties": {
        "label": "Q61448203",
        "type": "power plant",
        "entity": "http://www.wikidata.org/entity/Q61448203",
        "country_qid": "Q800",
        "Wikidata Qid": "Q61448203"
      }
    },
    {
      "type": "Feature",
      "geometry": {
        "type": "Point",
        "coordinates": [
          -83.841555555,
          9.775638888
        ]
      },
      "properties": {
        "label": "Q19387189",
        "type": "power plant",
        "entity": "http://www.wikidata.org/entity/Q19387189",
        "country_qid": "Q800",
        "Wikidata Qid": "Q19387189"
      }
    },
    {
      "type": "Feature",
      "geometry": {
        "type": "Point",
        "coordinates": [
          -83.753222222,
          9.869777777
        ]
      },
      "properties": {
        "label": "Q17761523",
        "type": "power plant",
        "entity": "http://www.wikidata.org/entity/Q17761523",
        "country_qid": "Q800",
        "Wikidata Qid": "Q17761523"
      }
    },
    {
      "type": "Feature",
      "geometry": {
        "type": "Point",
        "coordinates": [
          -85.179528,
          10.718467
        ]
      },
      "properties": {
        "label": "Miravalles Solar Park",
        "type": "power plant",
        "entity": "http://www.wikidata.org/entity/Q96393430",
        "country_qid": "Q800",
        "Wikidata Qid": "Q96393430"
      }
    },
    {
      "type": "Feature",
      "geometry": {
        "type": "Point",
        "coordinates": [
          -84.452472222,
          9.921833333
        ]
      },
      "properties": {
        "label": "Q61448211",
        "type": "power plant",
        "entity": "http://www.wikidata.org/entity/Q61448211",
        "country_qid": "Q800",
        "Wikidata Qid": "Q61448211"
      }
    },
    {
      "type": "Feature",
      "geometry": {
        "type": "Point",
        "coordinates": [
          -84.386555555,
          9.931555555
        ]
      },
      "properties": {
        "label": "Q61448210",
        "type": "power plant",
        "entity": "http://www.wikidata.org/entity/Q61448210",
        "country_qid": "Q800",
        "Wikidata Qid": "Q61448210"
      }
    },
    {
      "type": "Feature",
      "geometry": {
        "type": "Point",
        "coordinates": [
          -84.259416666,
          10.280361111
        ]
      },
      "properties": {
        "label": "Q61448207",
        "type": "power plant",
        "entity": "http://www.wikidata.org/entity/Q61448207",
        "country_qid": "Q800",
        "Wikidata Qid": "Q61448207"
      }
    },
    {
      "type": "Feature",
      "geometry": {
        "type": "Point",
        "coordinates": [
          -83.622361111,
          9.949222222
        ]
      },
      "properties": {
        "label": "Q61448206",
        "type": "power plant",
        "entity": "http://www.wikidata.org/entity/Q61448206",
        "country_qid": "Q800",
        "Wikidata Qid": "Q61448206"
      }
    },
    {
      "type": "Feature",
      "geometry": {
        "type": "Point",
        "coordinates": [
          -84.198305555,
          9.631583333
        ]
      },
      "properties": {
        "label": "Pirrís Dam",
        "type": "power plant",
        "entity": "http://www.wikidata.org/entity/Q27661755",
        "country_qid": "Q800",
        "Wikidata Qid": "Q27661755"
      }
    },
    {
      "type": "Feature",
      "geometry": {
        "type": "Point",
        "coordinates": [
          -84.35925,
          9.934194444
        ]
      },
      "properties": {
        "label": "Q61448209",
        "type": "power plant",
        "entity": "http://www.wikidata.org/entity/Q61448209",
        "country_qid": "Q800",
        "Wikidata Qid": "Q61448209"
      }
    },
    {
      "type": "Feature",
      "geometry": {
        "type": "Point",
        "coordinates": [
          -84.178083333,
          10.309055555
        ]
      },
      "properties": {
        "label": "Q61448205",
        "type": "power plant",
        "entity": "http://www.wikidata.org/entity/Q61448205",
        "country_qid": "Q800",
        "Wikidata Qid": "Q61448205"
      }
    },
    {
      "type": "Feature",
      "geometry": {
        "type": "Point",
        "coordinates": [
          -85.07616667,
          10.46947222
        ]
      },
      "properties": {
        "label": "Q84766532",
        "type": "power plant",
        "entity": "http://www.wikidata.org/entity/Q84766532",
        "country_qid": "Q800",
        "Wikidata Qid": "Q84766532"
      }
    },
    {
      "type": "Feature",
      "geometry": {
        "type": "Point",
        "coordinates": [
          -83.642361111,
          9.922305555
        ]
      },
      "properties": {
        "label": "Angostura Dam",
        "type": "power plant",
        "entity": "http://www.wikidata.org/entity/Q11958104",
        "country_qid": "Q800",
        "Wikidata Qid": "Q11958104"
      }
    },
    {
      "type": "Feature",
      "geometry": {
        "type": "Point",
        "coordinates": [
          -84.933333333,
          10.533333333
        ]
      },
      "properties": {
        "label": "Lake Arenal",
        "type": "Reservoir",
        "entity": "http://www.wikidata.org/entity/Q31938",
        "country_qid": "Q800",
        "Wikidata Qid": "Q31938"
      }
    },
    {
      "type": "Feature",
      "geometry": {
        "type": "Point",
        "coordinates": [
          -84.716666666,
          9.943333333
        ]
      },
      "properties": {
        "label": "Caldera",
        "type": "Hydraulic structure",
        "entity": "http://www.wikidata.org/entity/Q1026433",
        "country_qid": "Q800",
        "Wikidata Qid": "Q1026433"
      }
    },
    {
      "type": "Feature",
      "geometry": {
        "type": "Point",
        "coordinates": [
          -83.804058333,
          9.840136111
        ]
      },
      "properties": {
        "label": "Cachí Dam",
        "type": "Hydraulic structure",
        "entity": "http://www.wikidata.org/entity/Q110684438",
        "country_qid": "Q800",
        "Wikidata Qid": "Q110684438"
      }
    },
    {
      "type": "Feature",
      "geometry": {
        "type": "Point",
        "coordinates": [
          -84.71814,
          9.912799
        ]
      },
      "properties": {
        "label": "Puerto Caldera",
        "type": "Hydraulic structure",
        "entity": "http://www.wikidata.org/entity/Q105967064",
        "country_qid": "Q800",
        "Wikidata Qid": "Q105967064"
      }
    },
    {
      "type": "Feature",
      "geometry": {
        "type": "Point",
        "coordinates": [
          -83.036231,
          9.995647
        ]
      },
      "properties": {
        "label": "Puerto Limon",
        "type": "Hydraulic structure",
        "entity": "http://www.wikidata.org/entity/Q111386657",
        "country_qid": "Q800",
        "Wikidata Qid": "Q111386657"
      }
    },
    {
      "type": "Feature",
      "geometry": {
        "type": "Point",
        "coordinates": [
          -83.35825,
          10.28748
        ]
      },
      "properties": {
        "label": "Puerto de Carño Blanco",
        "type": "Hydraulic structure",
        "entity": "http://www.wikidata.org/entity/Q23747044",
        "country_qid": "Q800",
        "Wikidata Qid": "Q23747044"
      }
    },
    {
      "type": "Feature",
      "geometry": {
        "type": "Point",
        "coordinates": [
          -84.761,
          10.475
        ]
      },
      "properties": {
        "label": "Presa Sangregado Dam",
        "type": "Hydraulic structure",
        "entity": "http://www.wikidata.org/entity/Q7240706",
        "country_qid": "Q800",
        "Wikidata Qid": "Q7240706"
      }
    },
    {
      "type": "Feature",
      "geometry": {
        "type": "Point",
        "coordinates": [
          -84.396944444,
          9.508055555
        ]
      },
      "properties": {
        "label": "Canal F",
        "type": "Hydraulic structure",
        "entity": "http://www.wikidata.org/entity/Q23741789",
        "country_qid": "Q800",
        "Wikidata Qid": "Q23741789"
      }
    },
    {
      "type": "Feature",
      "geometry": {
        "type": "Point",
        "coordinates": [
          -83.17015171,
          8.636369
        ]
      },
      "properties": {
        "label": "Golfito",
        "type": "Hydraulic structure",
        "entity": "http://www.wikidata.org/entity/Q111387031",
        "country_qid": "Q800",
        "Wikidata Qid": "Q111387031"
      }
    },
    {
      "type": "Feature",
      "geometry": {
        "type": "Point",
        "coordinates": [
          -84.707,
          10.1122
        ]
      },
      "properties": {
        "label": "Q19951133",
        "type": "Mine",
        "entity": "http://www.wikidata.org/entity/Q19951133",
        "country_qid": "Q800",
        "Wikidata Qid": "Q19951133"
      }
    }
  ]
}