{
  "type": "FeatureCollection",
  "features": [
    {
      "type": "Feature",
      "geometry": {
        "type": "Point",
        "coordinates": [
          -80.06740556,
          22.094275
        ]
      },
      "properties": {
        "label": "Hanabanilla Dam",
        "type": "power plant",
        "entity": "http://www.wikidata.org/entity/Q17004157",
        "country_qid": "Q241"
      }
    },
    {
      "type": "Feature",
      "geometry": {
        "type": "Point",
        "coordinates": [
          -81.52944,
          23.10263
        ]
      },
      "properties": {
        "label": "Q130604168",
        "type": "power plant",
        "entity": "http://www.wikidata.org/entity/Q130604168",
        "country_qid": "Q241"
      }
    },
    {
      "type": "Feature",
      "geometry": {
        "type": "Point",
        "coordinates": [
          -80.5092,
          22.0669
        ]
      },
      "properties": {
        "label": "Juragua Nuclear Power Plant",
        "type": "power plant",
        "entity": "http://www.wikidata.org/entity/Q1520114",
        "country_qid": "Q241"
      }
    },
    {
      "type": "Feature",
      "geometry": {
        "type": "Point",
        "coordinates": [
          -79.3557,
          21.8037
        ]
      },
      "properties": {
        "label": "Zaza Dam",
        "type": "power plant",
        "entity": "http://www.wikidata.org/entity/Q16904439",
        "country_qid": "Q241"
      }
    },
    {
      "type": "Feature",
      "geometry": {
        "type": "Point",
        "coordinates": [
          -81.529,
          23.102
        ]
      },
      "properties": {
        "label": "Antonio Guiteras thermoelectric plant",
        "type": "power plant",
        "entity": "http://www.wikidata.org/entity/Q130639758",
        "country_qid": "Q241"
      }
    },
    {
      "type": "Feature",
      "geometry": {
        "type": "Point",
        "coordinates": [
          -74.98043056,
          20.55805
        ]
      },
      "properties": {
        "label": "Nuevo Mundo Dam",
        "type": "power plant",
        "entity": "http://www.wikidata.org/entity/Q17012819",
        "country_qid": "Q241"
      }
    },
    {
      "type": "Feature",
      "geometry": {
        "type": "Point",
        "coordinates": [
          -80.04444,
          22.04306
        ]
      },
      "properties": {
        "label": "Embalse Hanabanilla",
        "type": "Reservoir",
        "entity": "http://www.wikidata.org/entity/Q23795436",
        "country_qid": "Q241"
      }
    },
    {
      "type": "Feature",
      "geometry": {
        "type": "Point",
        "coordinates": [
          -78.378888888,
          21.581388888
        ]
      },
      "properties": {
        "label": "Embalse Dolores",
        "type": "Reservoir",
        "entity": "http://www.wikidata.org/entity/Q23806002",
        "country_qid": "Q241"
      }
    },
    {
      "type": "Feature",
      "geometry": {
        "type": "Point",
        "coordinates": [
          -82.269444444,
          23.068888888
        ]
      },
      "properties": {
        "label": "Presa el Cacao",
        "type": "Reservoir",
        "entity": "http://www.wikidata.org/entity/Q23806162",
        "country_qid": "Q241"
      }
    },
    {
      "type": "Feature",
      "geometry": {
        "type": "Point",
        "coordinates": [
          -82.234166666,
          23.069166666
        ]
      },
      "properties": {
        "label": "Presa la Guayabo",
        "type": "Reservoir",
        "entity": "http://www.wikidata.org/entity/Q23806148",
        "country_qid": "Q241"
      }
    },
    {
      "type": "Feature",
      "geometry": {
        "type": "Point",
        "coordinates": [
          -75.815277777,
          20.073055555
        ]
      },
      "properties": {
        "label": "Embalse Chalons",
        "type": "Reservoir",
        "entity": "http://www.wikidata.org/entity/Q23806216",
        "country_qid": "Q241"
      }
    },
    {
      "type": "Feature",
      "geometry": {
        "type": "Point",
        "coordinates": [
          -82.9325,
          21.86806
        ]
      },
      "properties": {
        "label": "Embalse del Medio",
        "type": "Reservoir",
        "entity": "http://www.wikidata.org/entity/Q23806202",
        "country_qid": "Q241"
      }
    },
    {
      "type": "Feature",
      "geometry": {
        "type": "Point",
        "coordinates": [
          -78.05,
          21.56694
        ]
      },
      "properties": {
        "label": "Embalse Caonao",
        "type": "Reservoir",
        "entity": "http://www.wikidata.org/entity/Q23800659",
        "country_qid": "Q241"
      }
    },
    {
      "type": "Feature",
      "geometry": {
        "type": "Point",
        "coordinates": [
          -82.303888888,
          23.074444444
        ]
      },
      "properties": {
        "label": "Presa Hemingway Número Dos",
        "type": "Reservoir",
        "entity": "http://www.wikidata.org/entity/Q23806164",
        "country_qid": "Q241"
      }
    },
    {
      "type": "Feature",
      "geometry": {
        "type": "Point",
        "coordinates": [
          -83.56,
          22.471388888
        ]
      },
      "properties": {
        "label": "Embalse Ramírez",
        "type": "Reservoir",
        "entity": "http://www.wikidata.org/entity/Q23790072",
        "country_qid": "Q241"
      }
    },
    {
      "type": "Feature",
      "geometry": {
        "type": "Point",
        "coordinates": [
          -76.312777777,
          20.976944444
        ]
      },
      "properties": {
        "label": "Embalse Cacoyugüín",
        "type": "Reservoir",
        "entity": "http://www.wikidata.org/entity/Q23804000",
        "country_qid": "Q241"
      }
    },
    {
      "type": "Feature",
      "geometry": {
        "type": "Point",
        "coordinates": [
          -82.308333333,
          23.068055555
        ]
      },
      "properties": {
        "label": "Presa Hemingway Número Uno",
        "type": "Reservoir",
        "entity": "http://www.wikidata.org/entity/Q23806742",
        "country_qid": "Q241"
      }
    },
    {
      "type": "Feature",
      "geometry": {
        "type": "Point",
        "coordinates": [
          -78.400555555,
          21.582222222
        ]
      },
      "properties": {
        "label": "Embalse Orotava",
        "type": "Reservoir",
        "entity": "http://www.wikidata.org/entity/Q23793009",
        "country_qid": "Q241"
      }
    },
    {
      "type": "Feature",
      "geometry": {
        "type": "Point",
        "coordinates": [
          -82.888611111,
          21.799444444
        ]
      },
      "properties": {
        "label": "Presa Vietnam Heróico",
        "type": "Reservoir",
        "entity": "http://www.wikidata.org/entity/Q23806203",
        "country_qid": "Q241"
      }
    },
    {
      "type": "Feature",
      "geometry": {
        "type": "Point",
        "coordinates": [
          -80.13861,
          22.73611
        ]
      },
      "properties": {
        "label": "Presa Alacranes",
        "type": "Reservoir",
        "entity": "http://www.wikidata.org/entity/Q23806215",
        "country_qid": "Q241"
      }
    },
    {
      "type": "Feature",
      "geometry": {
        "type": "Point",
        "coordinates": [
          -82.261388888,
          23.090277777
        ]
      },
      "properties": {
        "label": "Presa las Palmas",
        "type": "Reservoir",
        "entity": "http://www.wikidata.org/entity/Q23806165",
        "country_qid": "Q241"
      }
    },
    {
      "type": "Feature",
      "geometry": {
        "type": "Point",
        "coordinates": [
          -80.86667,
          22.73889
        ]
      },
      "properties": {
        "label": "Embalse La Luisa",
        "type": "Reservoir",
        "entity": "http://www.wikidata.org/entity/Q23806748",
        "country_qid": "Q241"
      }
    },
    {
      "type": "Feature",
      "geometry": {
        "type": "Point",
        "coordinates": [
          -75.86278,
          20.64889
        ]
      },
      "properties": {
        "label": "Presa Nipe",
        "type": "Reservoir",
        "entity": "http://www.wikidata.org/entity/Q23806187",
        "country_qid": "Q241"
      }
    },
    {
      "type": "Feature",
      "geometry": {
        "type": "Point",
        "coordinates": [
          -77.592222222,
          21.287777777
        ]
      },
      "properties": {
        "label": "Presa La Mañana de Santa Ana",
        "type": "Reservoir",
        "entity": "http://www.wikidata.org/entity/Q23794815",
        "country_qid": "Q241"
      }
    },
    {
      "type": "Feature",
      "geometry": {
        "type": "Point",
        "coordinates": [
          -82.466666666,
          23.024722222
        ]
      },
      "properties": {
        "label": "Presa el Atrevido",
        "type": "Reservoir",
        "entity": "http://www.wikidata.org/entity/Q23806154",
        "country_qid": "Q241"
      }
    },
    {
      "type": "Feature",
      "geometry": {
        "type": "Point",
        "coordinates": [
          -82.22194,
          23.10472
        ]
      },
      "properties": {
        "label": "Embalse Bacuranao",
        "type": "Reservoir",
        "entity": "http://www.wikidata.org/entity/Q23806150",
        "country_qid": "Q241"
      }
    },
    {
      "type": "Feature",
      "geometry": {
        "type": "Point",
        "coordinates": [
          -79.88333,
          22.28333
        ]
      },
      "properties": {
        "label": "Embalse Agabama",
        "type": "Reservoir",
        "entity": "http://www.wikidata.org/entity/Q23806018",
        "country_qid": "Q241"
      }
    },
    {
      "type": "Feature",
      "geometry": {
        "type": "Point",
        "coordinates": [
          -76.000833333,
          20.077777777
        ]
      },
      "properties": {
        "label": "Charco Mono reservoir",
        "type": "Reservoir",
        "entity": "http://www.wikidata.org/entity/Q23798403",
        "country_qid": "Q241"
      }
    },
    {
      "type": "Feature",
      "geometry": {
        "type": "Point",
        "coordinates": [
          -82.718333333,
          22.990833333
        ]
      },
      "properties": {
        "label": "Presa Mosquito",
        "type": "Reservoir",
        "entity": "http://www.wikidata.org/entity/Q23806727",
        "country_qid": "Q241"
      }
    },
    {
      "type": "Feature",
      "geometry": {
        "type": "Point",
        "coordinates": [
          -82.385277777,
          23.046111111
        ]
      },
      "properties": {
        "label": "Presa Paila Numero Dos",
        "type": "Reservoir",
        "entity": "http://www.wikidata.org/entity/Q23806741",
        "country_qid": "Q241"
      }
    },
    {
      "type": "Feature",
      "geometry": {
        "type": "Point",
        "coordinates": [
          -82.332222222,
          23.026666666
        ]
      },
      "properties": {
        "label": "Embalse Ejército Rebelde",
        "type": "Reservoir",
        "entity": "http://www.wikidata.org/entity/Q23806160",
        "country_qid": "Q241"
      }
    },
    {
      "type": "Feature",
      "geometry": {
        "type": "Point",
        "coordinates": [
          -82.113611111,
          23.090277777
        ]
      },
      "properties": {
        "label": "Embalse Coca",
        "type": "Reservoir",
        "entity": "http://www.wikidata.org/entity/Q23806152",
        "country_qid": "Q241"
      }
    },
    {
      "type": "Feature",
      "geometry": {
        "type": "Point",
        "coordinates": [
          -77.80278,
          21.54944
        ]
      },
      "properties": {
        "label": "Embalse Montecitos",
        "type": "Reservoir",
        "entity": "http://www.wikidata.org/entity/Q23806752",
        "country_qid": "Q241"
      }
    },
    {
      "type": "Feature",
      "geometry": {
        "type": "Point",
        "coordinates": [
          -82.491388888,
          23.035
        ]
      },
      "properties": {
        "label": "Embalse Niña Bonita",
        "type": "Reservoir",
        "entity": "http://www.wikidata.org/entity/Q23806155",
        "country_qid": "Q241"
      }
    },
    {
      "type": "Feature",
      "geometry": {
        "type": "Point",
        "coordinates": [
          -80.77083,
          22.76667
        ]
      },
      "properties": {
        "label": "Embalse El Carmen",
        "type": "Reservoir",
        "entity": "http://www.wikidata.org/entity/Q23806746",
        "country_qid": "Q241"
      }
    },
    {
      "type": "Feature",
      "geometry": {
        "type": "Point",
        "coordinates": [
          -79.27667,
          21.98444
        ]
      },
      "properties": {
        "label": "Presa Siguaney",
        "type": "Reservoir",
        "entity": "http://www.wikidata.org/entity/Q23806758",
        "country_qid": "Q241"
      }
    },
    {
      "type": "Feature",
      "geometry": {
        "type": "Point",
        "coordinates": [
          -82.372777777,
          23.048611111
        ]
      },
      "properties": {
        "label": "Presa el Bosque",
        "type": "Reservoir",
        "entity": "http://www.wikidata.org/entity/Q23806159",
        "country_qid": "Q241"
      }
    },
    {
      "type": "Feature",
      "geometry": {
        "type": "Point",
        "coordinates": [
          -82.226111111,
          23.085833333
        ]
      },
      "properties": {
        "label": "Presa Peñalver",
        "type": "Reservoir",
        "entity": "http://www.wikidata.org/entity/Q23806149",
        "country_qid": "Q241"
      }
    },
    {
      "type": "Feature",
      "geometry": {
        "type": "Point",
        "coordinates": [
          -82.440277777,
          23.032222222
        ]
      },
      "properties": {
        "label": "Presa Teresita",
        "type": "Reservoir",
        "entity": "http://www.wikidata.org/entity/Q23806157",
        "country_qid": "Q241"
      }
    },
    {
      "type": "Feature",
      "geometry": {
        "type": "Point",
        "coordinates": [
          -78.35806,
          21.55417
        ]
      },
      "properties": {
        "label": "Embalse Pastora",
        "type": "Reservoir",
        "entity": "http://www.wikidata.org/entity/Q23792292",
        "country_qid": "Q241"
      }
    },
    {
      "type": "Feature",
      "geometry": {
        "type": "Point",
        "coordinates": [
          -82.313333333,
          23.058333333
        ]
      },
      "properties": {
        "label": "Presa Río Hondo",
        "type": "Reservoir",
        "entity": "http://www.wikidata.org/entity/Q23806161",
        "country_qid": "Q241"
      }
    },
    {
      "type": "Feature",
      "geometry": {
        "type": "Point",
        "coordinates": [
          -79.00028,
          22.27667
        ]
      },
      "properties": {
        "label": "Presa Aridanes",
        "type": "Reservoir",
        "entity": "http://www.wikidata.org/entity/Q23806145",
        "country_qid": "Q241"
      }
    },
    {
      "type": "Feature",
      "geometry": {
        "type": "Point",
        "coordinates": [
          -82.683333333,
          21.75
        ]
      },
      "properties": {
        "label": "Embalse Antonio Briones Montoto",
        "type": "Reservoir",
        "entity": "http://www.wikidata.org/entity/Q23805431",
        "country_qid": "Q241"
      }
    },
    {
      "type": "Feature",
      "geometry": {
        "type": "Point",
        "coordinates": [
          -80.055555555,
          22.441666666
        ]
      },
      "properties": {
        "label": "Presa Chichicate",
        "type": "Reservoir",
        "entity": "http://www.wikidata.org/entity/Q23806751",
        "country_qid": "Q241"
      }
    },
    {
      "type": "Feature",
      "geometry": {
        "type": "Point",
        "coordinates": [
          -82.432222222,
          23.035277777
        ]
      },
      "properties": {
        "label": "Presa Naranjito",
        "type": "Reservoir",
        "entity": "http://www.wikidata.org/entity/Q23806158",
        "country_qid": "Q241"
      }
    },
    {
      "type": "Feature",
      "geometry": {
        "type": "Point",
        "coordinates": [
          -83.333333333,
          22.590277777
        ]
      },
      "properties": {
        "label": "Presa de la Juventud",
        "type": "Reservoir",
        "entity": "http://www.wikidata.org/entity/Q23794661",
        "country_qid": "Q241"
      }
    },
    {
      "type": "Feature",
      "geometry": {
        "type": "Point",
        "coordinates": [
          -80.84167,
          22.71667
        ]
      },
      "properties": {
        "label": "Embalse Las Brisas",
        "type": "Reservoir",
        "entity": "http://www.wikidata.org/entity/Q23806747",
        "country_qid": "Q241"
      }
    },
    {
      "type": "Feature",
      "geometry": {
        "type": "Point",
        "coordinates": [
          -78.254444444,
          21.431666666
        ]
      },
      "properties": {
        "label": "Embalse Angel I",
        "type": "Reservoir",
        "entity": "http://www.wikidata.org/entity/Q23805410",
        "country_qid": "Q241"
      }
    },
    {
      "type": "Feature",
      "geometry": {
        "type": "Point",
        "coordinates": [
          -79.79528,
          22.41528
        ]
      },
      "properties": {
        "label": "Embalse Minerva",
        "type": "Reservoir",
        "entity": "http://www.wikidata.org/entity/Q23806221",
        "country_qid": "Q241"
      }
    },
    {
      "type": "Feature",
      "geometry": {
        "type": "Point",
        "coordinates": [
          -82.493055555,
          23.056111111
        ]
      },
      "properties": {
        "label": "Presa Cuatro Caminos del Falcón",
        "type": "Reservoir",
        "entity": "http://www.wikidata.org/entity/Q23806153",
        "country_qid": "Q241"
      }
    },
    {
      "type": "Feature",
      "geometry": {
        "type": "Point",
        "coordinates": [
          -82.96528,
          21.79028
        ]
      },
      "properties": {
        "label": "Presa Cristal",
        "type": "Reservoir",
        "entity": "http://www.wikidata.org/entity/Q23806204",
        "country_qid": "Q241"
      }
    },
    {
      "type": "Feature",
      "geometry": {
        "type": "Point",
        "coordinates": [
          -82.280833333,
          23.082222222
        ]
      },
      "properties": {
        "label": "Embalse El Pitirre",
        "type": "Reservoir",
        "entity": "http://www.wikidata.org/entity/Q23806163",
        "country_qid": "Q241"
      }
    },
    {
      "type": "Feature",
      "geometry": {
        "type": "Point",
        "coordinates": [
          -78.259444444,
          21.409166666
        ]
      },
      "properties": {
        "label": "Embalse Angel II",
        "type": "Reservoir",
        "entity": "http://www.wikidata.org/entity/Q23805407",
        "country_qid": "Q241"
      }
    },
    {
      "type": "Feature",
      "geometry": {
        "type": "Point",
        "coordinates": [
          -77.97472,
          21.57556
        ]
      },
      "properties": {
        "label": "Embalse de Pontezuela",
        "type": "Reservoir",
        "entity": "http://www.wikidata.org/entity/Q23792607",
        "country_qid": "Q241"
      }
    },
    {
      "type": "Feature",
      "geometry": {
        "type": "Point",
        "coordinates": [
          -76.35944,
          20.45861
        ]
      },
      "properties": {
        "label": "Embalse las Villas",
        "type": "Reservoir",
        "entity": "http://www.wikidata.org/entity/Q23806218",
        "country_qid": "Q241"
      }
    },
    {
      "type": "Feature",
      "geometry": {
        "type": "Point",
        "coordinates": [
          -82.277222222,
          23.104444444
        ]
      },
      "properties": {
        "label": "Embalse Las Monjas",
        "type": "Reservoir",
        "entity": "http://www.wikidata.org/entity/Q23806166",
        "country_qid": "Q241"
      }
    },
    {
      "type": "Feature",
      "geometry": {
        "type": "Point",
        "coordinates": [
          -82.064166666,
          22.961111111
        ]
      },
      "properties": {
        "label": "Embalse Mampostón",
        "type": "Reservoir",
        "entity": "http://www.wikidata.org/entity/Q23794090",
        "country_qid": "Q241"
      }
    },
    {
      "type": "Feature",
      "geometry": {
        "type": "Point",
        "coordinates": [
          -83.57833,
          22.35667
        ]
      },
      "properties": {
        "label": "Embalse el Punto",
        "type": "Reservoir",
        "entity": "http://www.wikidata.org/entity/Q23796930",
        "country_qid": "Q241"
      }
    },
    {
      "type": "Feature",
      "geometry": {
        "type": "Point",
        "coordinates": [
          -81.033333333,
          23.019444444
        ]
      },
      "properties": {
        "label": "Embalse La Lometa",
        "type": "Reservoir",
        "entity": "http://www.wikidata.org/entity/Q23806743",
        "country_qid": "Q241"
      }
    },
    {
      "type": "Feature",
      "geometry": {
        "type": "Point",
        "coordinates": [
          -76.246944444,
          20.246666666
        ]
      },
      "properties": {
        "label": "Embalse Carlos Manuel de Céspedes",
        "type": "Reservoir",
        "entity": "http://www.wikidata.org/entity/Q23806219",
        "country_qid": "Q241"
      }
    },
    {
      "type": "Feature",
      "geometry": {
        "type": "Point",
        "coordinates": [
          -78.025555555,
          21.216944444
        ]
      },
      "properties": {
        "label": "Embalse de Jimaguayú",
        "type": "Reservoir",
        "entity": "http://www.wikidata.org/entity/Q23795144",
        "country_qid": "Q241"
      }
    },
    {
      "type": "Feature",
      "geometry": {
        "type": "Point",
        "coordinates": [
          -76.090833333,
          20.117777777
        ]
      },
      "properties": {
        "label": "Presa Gilbert",
        "type": "Reservoir",
        "entity": "http://www.wikidata.org/entity/Q23806217",
        "country_qid": "Q241"
      }
    },
    {
      "type": "Feature",
      "geometry": {
        "type": "Point",
        "coordinates": [
          -82.278055555,
          23.131388888
        ]
      },
      "properties": {
        "label": "Presa la Ceiba",
        "type": "Reservoir",
        "entity": "http://www.wikidata.org/entity/Q23806167",
        "country_qid": "Q241"
      }
    },
    {
      "type": "Feature",
      "geometry": {
        "type": "Point",
        "coordinates": [
          -82.148055555,
          23.082777777
        ]
      },
      "properties": {
        "label": "Embalse La Zarza",
        "type": "Reservoir",
        "entity": "http://www.wikidata.org/entity/Q23806151",
        "country_qid": "Q241"
      }
    },
    {
      "type": "Feature",
      "geometry": {
        "type": "Point",
        "coordinates": [
          -82.445,
          23.041666666
        ]
      },
      "properties": {
        "label": "Presa el Doctor",
        "type": "Reservoir",
        "entity": "http://www.wikidata.org/entity/Q23806156",
        "country_qid": "Q241"
      }
    },
    {
      "type": "Feature",
      "geometry": {
        "type": "Point",
        "coordinates": [
          -78.22889,
          21.29944
        ]
      },
      "properties": {
        "label": "Laguna Palmarito",
        "type": "Reservoir",
        "entity": "http://www.wikidata.org/entity/Q23793075",
        "country_qid": "Q241"
      }
    },
    {
      "type": "Feature",
      "geometry": {
        "type": "Point",
        "coordinates": [
          -80.17194,
          22.17778
        ]
      },
      "properties": {
        "label": "Embalse Aviles",
        "type": "Reservoir",
        "entity": "http://www.wikidata.org/entity/Q23806749",
        "country_qid": "Q241"
      }
    },
    {
      "type": "Feature",
      "geometry": {
        "type": "Point",
        "coordinates": [
          -78.303333333,
          21.578611111
        ]
      },
      "properties": {
        "label": "Laguna Estrella",
        "type": "Reservoir",
        "entity": "http://www.wikidata.org/entity/Q23797019",
        "country_qid": "Q241"
      }
    },
    {
      "type": "Feature",
      "geometry": {
        "type": "Point",
        "coordinates": [
          -76.312222222,
          20.85
        ]
      },
      "properties": {
        "label": "Embalse Güirabo",
        "type": "Reservoir",
        "entity": "http://www.wikidata.org/entity/Q23795418",
        "country_qid": "Q241"
      }
    },
    {
      "type": "Feature",
      "geometry": {
        "type": "Point",
        "coordinates": [
          -84.29167,
          22.10444
        ]
      },
      "properties": {
        "label": "Embalse Laguna Grande",
        "type": "Reservoir",
        "entity": "http://www.wikidata.org/entity/Q25343630",
        "country_qid": "Q241"
      }
    },
    {
      "type": "Feature",
      "geometry": {
        "type": "Point",
        "coordinates": [
          -79.169369,
          22.036082
        ]
      },
      "properties": {
        "label": "Embalse Lebrije",
        "type": "Reservoir",
        "entity": "http://www.wikidata.org/entity/Q5830385",
        "country_qid": "Q241"
      }
    },
    {
      "type": "Feature",
      "geometry": {
        "type": "Point",
        "coordinates": [
          -79.366666666,
          21.833333333
        ]
      },
      "properties": {
        "label": "Zaza Reservoir",
        "type": "Reservoir",
        "entity": "http://www.wikidata.org/entity/Q3647927",
        "country_qid": "Q241"
      }
    },
    {
      "type": "Feature",
      "geometry": {
        "type": "Point",
        "coordinates": [
          -75.6,
          20.733333333
        ]
      },
      "properties": {
        "label": "Felton",
        "type": "Hydraulic structure",
        "entity": "http://www.wikidata.org/entity/Q111386569",
        "country_qid": "Q241"
      }
    },
    {
      "type": "Feature",
      "geometry": {
        "type": "Point",
        "coordinates": [
          -82.966666666,
          23.0
        ]
      },
      "properties": {
        "label": "Cabanas",
        "type": "Hydraulic structure",
        "entity": "http://www.wikidata.org/entity/Q111386567",
        "country_qid": "Q241"
      }
    },
    {
      "type": "Feature",
      "geometry": {
        "type": "Point",
        "coordinates": [
          -75.833333333,
          20.016666666
        ]
      },
      "properties": {
        "label": "Santiago de Cuba",
        "type": "Hydraulic structure",
        "entity": "http://www.wikidata.org/entity/Q111386654",
        "country_qid": "Q241"
      }
    },
    {
      "type": "Feature",
      "geometry": {
        "type": "Point",
        "coordinates": [
          -75.35929167,
          20.12692778
        ]
      },
      "properties": {
        "label": "La Yaya Dam",
        "type": "Hydraulic structure",
        "entity": "http://www.wikidata.org/entity/Q17093160",
        "country_qid": "Q241"
      }
    },
    {
      "type": "Feature",
      "geometry": {
        "type": "Point",
        "coordinates": [
          -83.166666666,
          22.966666666
        ]
      },
      "properties": {
        "label": "Dársena de Buenavista",
        "type": "Hydraulic structure",
        "entity": "http://www.wikidata.org/entity/Q23806304",
        "country_qid": "Q241"
      }
    },
    {
      "type": "Feature",
      "geometry": {
        "type": "Point",
        "coordinates": [
          -80.45,
          22.15
        ]
      },
      "properties": {
        "label": "Cienfuegos",
        "type": "Hydraulic structure",
        "entity": "http://www.wikidata.org/entity/Q111386645",
        "country_qid": "Q241"
      }
    },
    {
      "type": "Feature",
      "geometry": {
        "type": "Point",
        "coordinates": [
          -82.366666666,
          23.133333333
        ]
      },
      "properties": {
        "label": "BAHAI DE LA HABANA",
        "type": "Hydraulic structure",
        "entity": "http://www.wikidata.org/entity/Q111386565",
        "country_qid": "Q241"
      }
    },
    {
      "type": "Feature",
      "geometry": {
        "type": "Point",
        "coordinates": [
          -75.16,
          19.9175
        ]
      },
      "properties": {
        "label": "Guantanamo Bay Naval Base",
        "type": "Hydraulic structure",
        "entity": "http://www.wikidata.org/entity/Q762570",
        "country_qid": "Q241"
      }
    },
    {
      "type": "Feature",
      "geometry": {
        "type": "Point",
        "coordinates": [
          -78.724,
          22.302
        ]
      },
      "properties": {
        "label": "Chicola",
        "type": "Hydraulic structure",
        "entity": "http://www.wikidata.org/entity/Q5096464",
        "country_qid": "Q241"
      }
    },
    {
      "type": "Feature",
      "geometry": {
        "type": "Point",
        "coordinates": [
          -77.600555555,
          21.772222222
        ]
      },
      "properties": {
        "label": "Canal de desague el Río Máximo",
        "type": "Hydraulic structure",
        "entity": "http://www.wikidata.org/entity/Q23790199",
        "country_qid": "Q241"
      }
    },
    {
      "type": "Feature",
      "geometry": {
        "type": "Point",
        "coordinates": [
          -82.347222222,
          23.130555555
        ]
      },
      "properties": {
        "label": "Margarito Iglesias Marine Terminal",
        "type": "Hydraulic structure",
        "entity": "http://www.wikidata.org/entity/Q23805972",
        "country_qid": "Q241"
      }
    },
    {
      "type": "Feature",
      "geometry": {
        "type": "Point",
        "coordinates": [
          -74.9,
          20.666666666
        ]
      },
      "properties": {
        "label": "Cayo Moa Grande",
        "type": "Hydraulic structure",
        "entity": "http://www.wikidata.org/entity/Q111386524",
        "country_qid": "Q241"
      }
    },
    {
      "type": "Feature",
      "geometry": {
        "type": "Point",
        "coordinates": [
          -77.266666666,
          21.55
        ]
      },
      "properties": {
        "label": "Nuevitas Bay",
        "type": "Hydraulic structure",
        "entity": "http://www.wikidata.org/entity/Q111386568",
        "country_qid": "Q241"
      }
    },
    {
      "type": "Feature",
      "geometry": {
        "type": "Point",
        "coordinates": [
          -75.55,
          20.716666666
        ]
      },
      "properties": {
        "label": "Nicaro",
        "type": "Hydraulic structure",
        "entity": "http://www.wikidata.org/entity/Q111386570",
        "country_qid": "Q241"
      }
    },
    {
      "type": "Feature",
      "geometry": {
        "type": "Point",
        "coordinates": [
          -78.66194,
          21.59111
        ]
      },
      "properties": {
        "label": "Canal Itabo",
        "type": "Hydraulic structure",
        "entity": "http://www.wikidata.org/entity/Q23795597",
        "country_qid": "Q241"
      }
    },
    {
      "type": "Feature",
      "geometry": {
        "type": "Point",
        "coordinates": [
          -80.066666666,
          22.1
        ]
      },
      "properties": {
        "label": "Presa Hanabanilla",
        "type": "Hydraulic structure",
        "entity": "http://www.wikidata.org/entity/Q23795437",
        "country_qid": "Q241"
      }
    },
    {
      "type": "Feature",
      "geometry": {
        "type": "Point",
        "coordinates": [
          -80.066666666,
          22.1
        ]
      },
      "properties": {
        "label": "Presa Antigua",
        "type": "Hydraulic structure",
        "entity": "http://www.wikidata.org/entity/Q23805420",
        "country_qid": "Q241"
      }
    },
    {
      "type": "Feature",
      "geometry": {
        "type": "Point",
        "coordinates": [
          -80.0,
          22.95
        ]
      },
      "properties": {
        "label": "Isabela de Sagua",
        "type": "Hydraulic structure",
        "entity": "http://www.wikidata.org/entity/Q111386566",
        "country_qid": "Q241"
      }
    },
    {
      "type": "Feature",
      "geometry": {
        "type": "Point",
        "coordinates": [
          -76.816666666,
          21.366666666
        ]
      },
      "properties": {
        "label": "Manati",
        "type": "Hydraulic structure",
        "entity": "http://www.wikidata.org/entity/Q111386628",
        "country_qid": "Q241"
      }
    },
    {
      "type": "Feature",
      "geometry": {
        "type": "Point",
        "coordinates": [
          -76.007796967,
          20.08200068
        ]
      },
      "properties": {
        "label": "Charco Mono Dam",
        "type": "Hydraulic structure",
        "entity": "http://www.wikidata.org/entity/Q119826725",
        "country_qid": "Q241"
      }
    },
    {
      "type": "Feature",
      "geometry": {
        "type": "Point",
        "coordinates": [
          -78.68333,
          22.25
        ]
      },
      "properties": {
        "label": "Canal de Chicola",
        "type": "Hydraulic structure",
        "entity": "http://www.wikidata.org/entity/Q23798418",
        "country_qid": "Q241"
      }
    },
    {
      "type": "Feature",
      "geometry": {
        "type": "Point",
        "coordinates": [
          -75.133333333,
          19.983333333
        ]
      },
      "properties": {
        "label": "Puerto Guantanamo",
        "type": "Hydraulic structure",
        "entity": "http://www.wikidata.org/entity/Q111386662",
        "country_qid": "Q241"
      }
    },
    {
      "type": "Feature",
      "geometry": {
        "type": "Point",
        "coordinates": [
          -82.75,
          22.983333333
        ]
      },
      "properties": {
        "label": "Mariel",
        "type": "Hydraulic structure",
        "entity": "http://www.wikidata.org/entity/Q111386564",
        "country_qid": "Q241"
      }
    },
    {
      "type": "Feature",
      "geometry": {
        "type": "Point",
        "coordinates": [
          -77.992222222,
          21.578333333
        ]
      },
      "properties": {
        "label": "Presa Pontezuela",
        "type": "Hydraulic structure",
        "entity": "http://www.wikidata.org/entity/Q23792609",
        "country_qid": "Q241"
      }
    },
    {
      "type": "Feature",
      "geometry": {
        "type": "Point",
        "coordinates": [
          -82.297777777,
          22.680833333
        ]
      },
      "properties": {
        "label": "Canal de Refugio",
        "type": "Hydraulic structure",
        "entity": "http://www.wikidata.org/entity/Q23806176",
        "country_qid": "Q241"
      }
    },
    {
      "type": "Feature",
      "geometry": {
        "type": "Point",
        "coordinates": [
          -75.66375833,
          20.59883056
        ]
      },
      "properties": {
        "label": "Melones Dam",
        "type": "Hydraulic structure",
        "entity": "http://www.wikidata.org/entity/Q17009842",
        "country_qid": "Q241"
      }
    },
    {
      "type": "Feature",
      "geometry": {
        "type": "Point",
        "coordinates": [
          -81.043055555,
          22.698333333
        ]
      },
      "properties": {
        "label": "Canal Cochino",
        "type": "Hydraulic structure",
        "entity": "http://www.wikidata.org/entity/Q23798506",
        "country_qid": "Q241"
      }
    },
    {
      "type": "Feature",
      "geometry": {
        "type": "Point",
        "coordinates": [
          -75.333333333,
          20.683333333
        ]
      },
      "properties": {
        "label": "Bahía de Sagua de Tánamo",
        "type": "Hydraulic structure",
        "entity": "http://www.wikidata.org/entity/Q23789653",
        "country_qid": "Q241"
      }
    },
    {
      "type": "Feature",
      "geometry": {
        "type": "Point",
        "coordinates": [
          -79.983333333,
          21.75
        ]
      },
      "properties": {
        "label": "Casilda",
        "type": "Hydraulic structure",
        "entity": "http://www.wikidata.org/entity/Q111386688",
        "country_qid": "Q241"
      }
    },
    {
      "type": "Feature",
      "geometry": {
        "type": "Point",
        "coordinates": [
          -82.8,
          21.916666666
        ]
      },
      "properties": {
        "label": "Nueva Gerona port",
        "type": "Hydraulic structure",
        "entity": "http://www.wikidata.org/entity/Q111386573",
        "country_qid": "Q241"
      }
    },
    {
      "type": "Feature",
      "geometry": {
        "type": "Point",
        "coordinates": [
          -82.352777777,
          23.126388888
        ]
      },
      "properties": {
        "label": "Manuel Díaz Marine Terminal",
        "type": "Hydraulic structure",
        "entity": "http://www.wikidata.org/entity/Q23805973",
        "country_qid": "Q241"
      }
    },
    {
      "type": "Feature",
      "geometry": {
        "type": "Point",
        "coordinates": [
          -79.55,
          21.633333333
        ]
      },
      "properties": {
        "label": "Tunas de Zaza",
        "type": "Hydraulic structure",
        "entity": "http://www.wikidata.org/entity/Q111386687",
        "country_qid": "Q241"
      }
    },
    {
      "type": "Feature",
      "geometry": {
        "type": "Point",
        "coordinates": [
          -78.85,
          21.616666666
        ]
      },
      "properties": {
        "label": "Jucaro",
        "type": "Hydraulic structure",
        "entity": "http://www.wikidata.org/entity/Q111386686",
        "country_qid": "Q241"
      }
    },
    {
      "type": "Feature",
      "geometry": {
        "type": "Point",
        "coordinates": [
          -81.051666666,
          22.702222222
        ]
      },
      "properties": {
        "label": "Canal Bermejo",
        "type": "Hydraulic structure",
        "entity": "http://www.wikidata.org/entity/Q23804795",
        "country_qid": "Q241"
      }
    },
    {
      "type": "Feature",
      "geometry": {
        "type": "Point",
        "coordinates": [
          -76.533333333,
          21.283333333
        ]
      },
      "properties": {
        "label": "Puerto Padre",
        "type": "Hydraulic structure",
        "entity": "http://www.wikidata.org/entity/Q111386660",
        "country_qid": "Q241"
      }
    },
    {
      "type": "Feature",
      "geometry": {
        "type": "Point",
        "coordinates": [
          -77.98,
          21.92722
        ]
      },
      "properties": {
        "label": "Canal Aguas Verdes",
        "type": "Hydraulic structure",
        "entity": "http://www.wikidata.org/entity/Q23805283",
        "country_qid": "Q241"
      }
    },
    {
      "type": "Feature",
      "geometry": {
        "type": "Point",
        "coordinates": [
          -82.275,
          23.04
        ]
      },
      "properties": {
        "label": "Q5831761",
        "type": "Industrial building",
        "entity": "http://www.wikidata.org/entity/Q5831761",
        "country_qid": "Q241"
      }
    },
    {
      "type": "Feature",
      "geometry": {
        "type": "Point",
        "coordinates": [
          -75.8305,
          20.03586
        ]
      },
      "properties": {
        "label": "Santiago de Cuba Brewery",
        "type": "Industrial building",
        "entity": "http://www.wikidata.org/entity/Q115466648",
        "country_qid": "Q241"
      }
    },
    {
      "type": "Feature",
      "geometry": {
        "type": "Point",
        "coordinates": [
          -82.346,
          23.12
        ]
      },
      "properties": {
        "label": "Polvorín de San Antonio",
        "type": "Industrial building",
        "entity": "http://www.wikidata.org/entity/Q65121887",
        "country_qid": "Q241"
      }
    },
    {
      "type": "Feature",
      "geometry": {
        "type": "Point",
        "coordinates": [
          -82.360629,
          23.134246
        ]
      },
      "properties": {
        "label": "Real Fabrica de Tabacos Partagás",
        "type": "Industrial building",
        "entity": "http://www.wikidata.org/entity/Q7300912",
        "country_qid": "Q241"
      }
    },
    {
      "type": "Feature",
      "geometry": {
        "type": "Point",
        "coordinates": [
          -81.94194444,
          23.12944444
        ]
      },
      "properties": {
        "label": "Camilo Cienfuegos (Hershey)",
        "type": "Industrial building",
        "entity": "http://www.wikidata.org/entity/Q20170744",
        "country_qid": "Q241"
      }
    },
    {
      "type": "Feature",
      "geometry": {
        "type": "Point",
        "coordinates": [
          -82.366480555,
          23.137019444
        ]
      },
      "properties": {
        "label": "Estudios Areito",
        "type": "Industrial building",
        "entity": "http://www.wikidata.org/entity/Q96435826",
        "country_qid": "Q241"
      }
    },
    {
      "type": "Feature",
      "geometry": {
        "type": "Point",
        "coordinates": [
          -82.411111111,
          23.106666666
        ]
      },
      "properties": {
        "label": "La Tropical Brewery",
        "type": "Industrial building",
        "entity": "http://www.wikidata.org/entity/Q116694462",
        "country_qid": "Q241"
      }
    },
    {
      "type": "Feature",
      "geometry": {
        "type": "Point",
        "coordinates": [
          -77.866666666,
          21.466666666
        ]
      },
      "properties": {
        "label": "Walfrido",
        "type": "Mine",
        "entity": "http://www.wikidata.org/entity/Q23785899",
        "country_qid": "Q241"
      }
    },
    {
      "type": "Feature",
      "geometry": {
        "type": "Point",
        "coordinates": [
          -77.666666666,
          21.433333333
        ]
      },
      "properties": {
        "label": "San Juan del Cercado",
        "type": "Mine",
        "entity": "http://www.wikidata.org/entity/Q23789103",
        "country_qid": "Q241"
      }
    },
    {
      "type": "Feature",
      "geometry": {
        "type": "Point",
        "coordinates": [
          -77.811666666,
          21.427222222
        ]
      },
      "properties": {
        "label": "Zoila",
        "type": "Mine",
        "entity": "http://www.wikidata.org/entity/Q23786035",
        "country_qid": "Q241"
      }
    },
    {
      "type": "Feature",
      "geometry": {
        "type": "Point",
        "coordinates": [
          -76.366666666,
          20.2
        ]
      },
      "properties": {
        "label": "San Alberto",
        "type": "Mine",
        "entity": "http://www.wikidata.org/entity/Q23789721",
        "country_qid": "Q241"
      }
    },
    {
      "type": "Feature",
      "geometry": {
        "type": "Point",
        "coordinates": [
          -76.266666666,
          20.216666666
        ]
      },
      "properties": {
        "label": "Santa Ana",
        "type": "Mine",
        "entity": "http://www.wikidata.org/entity/Q23789154",
        "country_qid": "Q241"
      }
    },
    {
      "type": "Feature",
      "geometry": {
        "type": "Point",
        "coordinates": [
          -75.815833333,
          20.087222222
        ]
      },
      "properties": {
        "label": "Santa María",
        "type": "Mine",
        "entity": "http://www.wikidata.org/entity/Q23789217",
        "country_qid": "Q241"
      }
    },
    {
      "type": "Feature",
      "geometry": {
        "type": "Point",
        "coordinates": [
          -76.4,
          20.2
        ]
      },
      "properties": {
        "label": "Milagrosa",
        "type": "Mine",
        "entity": "http://www.wikidata.org/entity/Q23793809",
        "country_qid": "Q241"
      }
    },
    {
      "type": "Feature",
      "geometry": {
        "type": "Point",
        "coordinates": [
          -76.416666666,
          20.183333333
        ]
      },
      "properties": {
        "label": "Lola",
        "type": "Mine",
        "entity": "http://www.wikidata.org/entity/Q23794522",
        "country_qid": "Q241"
      }
    },
    {
      "type": "Feature",
      "geometry": {
        "type": "Point",
        "coordinates": [
          -75.714444444,
          20.114166666
        ]
      },
      "properties": {
        "label": "San Nicolás",
        "type": "Mine",
        "entity": "http://www.wikidata.org/entity/Q23789125",
        "country_qid": "Q241"
      }
    },
    {
      "type": "Feature",
      "geometry": {
        "type": "Point",
        "coordinates": [
          -76.166666666,
          20.116666666
        ]
      },
      "properties": {
        "label": "Luis Segundo",
        "type": "Mine",
        "entity": "http://www.wikidata.org/entity/Q23793925",
        "country_qid": "Q241"
      }
    },
    {
      "type": "Feature",
      "geometry": {
        "type": "Point",
        "coordinates": [
          -76.516666666,
          20.216666666
        ]
      },
      "properties": {
        "label": "San Bernardo",
        "type": "Mine",
        "entity": "http://www.wikidata.org/entity/Q23789740",
        "country_qid": "Q241"
      }
    },
    {
      "type": "Feature",
      "geometry": {
        "type": "Point",
        "coordinates": [
          -75.720277777,
          20.095833333
        ]
      },
      "properties": {
        "label": "Theirs",
        "type": "Mine",
        "entity": "http://www.wikidata.org/entity/Q23788792",
        "country_qid": "Q241"
      }
    },
    {
      "type": "Feature",
      "geometry": {
        "type": "Point",
        "coordinates": [
          -75.784166666,
          20.079722222
        ]
      },
      "properties": {
        "label": "Mammoth",
        "type": "Mine",
        "entity": "http://www.wikidata.org/entity/Q23794088",
        "country_qid": "Q241"
      }
    },
    {
      "type": "Feature",
      "geometry": {
        "type": "Point",
        "coordinates": [
          -75.602222222,
          20.200833333
        ]
      },
      "properties": {
        "label": "María",
        "type": "Mine",
        "entity": "http://www.wikidata.org/entity/Q23793640",
        "country_qid": "Q241"
      }
    },
    {
      "type": "Feature",
      "geometry": {
        "type": "Point",
        "coordinates": [
          -75.616666666,
          20.15
        ]
      },
      "properties": {
        "label": "Sultana",
        "type": "Mine",
        "entity": "http://www.wikidata.org/entity/Q23788721",
        "country_qid": "Q241"
      }
    },
    {
      "type": "Feature",
      "geometry": {
        "type": "Point",
        "coordinates": [
          -77.85,
          21.5
        ]
      },
      "properties": {
        "label": "Teyde",
        "type": "Mine",
        "entity": "http://www.wikidata.org/entity/Q23788791",
        "country_qid": "Q241"
      }
    },
    {
      "type": "Feature",
      "geometry": {
        "type": "Point",
        "coordinates": [
          -77.716666666,
          21.466666666
        ]
      },
      "properties": {
        "label": "Mina La Victoria",
        "type": "Mine",
        "entity": "http://www.wikidata.org/entity/Q23794408",
        "country_qid": "Q241"
      }
    },
    {
      "type": "Feature",
      "geometry": {
        "type": "Point",
        "coordinates": [
          -75.638888888,
          20.149722222
        ]
      },
      "properties": {
        "label": "La Isabelita",
        "type": "Mine",
        "entity": "http://www.wikidata.org/entity/Q23794768",
        "country_qid": "Q241"
      }
    },
    {
      "type": "Feature",
      "geometry": {
        "type": "Point",
        "coordinates": [
          -75.666666666,
          20.383333333
        ]
      },
      "properties": {
        "label": "Turquesa",
        "type": "Mine",
        "entity": "http://www.wikidata.org/entity/Q23787241",
        "country_qid": "Q241"
      }
    },
    {
      "type": "Feature",
      "geometry": {
        "type": "Point",
        "coordinates": [
          -75.728333333,
          20.096666666
        ]
      },
      "properties": {
        "label": "Segundo Rosita",
        "type": "Mine",
        "entity": "http://www.wikidata.org/entity/Q23788583",
        "country_qid": "Q241"
      }
    },
    {
      "type": "Feature",
      "geometry": {
        "type": "Point",
        "coordinates": [
          -76.483333333,
          20.316666666
        ]
      },
      "properties": {
        "label": "Vencedora",
        "type": "Mine",
        "entity": "http://www.wikidata.org/entity/Q23787312",
        "country_qid": "Q241"
      }
    },
    {
      "type": "Feature",
      "geometry": {
        "type": "Point",
        "coordinates": [
          -75.726944444,
          20.218888888
        ]
      },
      "properties": {
        "label": "San Vicente",
        "type": "Mine",
        "entity": "http://www.wikidata.org/entity/Q23789263",
        "country_qid": "Q241"
      }
    },
    {
      "type": "Feature",
      "geometry": {
        "type": "Point",
        "coordinates": [
          -76.266666666,
          20.216666666
        ]
      },
      "properties": {
        "label": "Mascote",
        "type": "Mine",
        "entity": "http://www.wikidata.org/entity/Q23793670",
        "country_qid": "Q241"
      }
    },
    {
      "type": "Feature",
      "geometry": {
        "type": "Point",
        "coordinates": [
          -75.666666666,
          20.333333333
        ]
      },
      "properties": {
        "label": "Valle de Manganesa",
        "type": "Mine",
        "entity": "http://www.wikidata.org/entity/Q23787287",
        "country_qid": "Q241"
      }
    },
    {
      "type": "Feature",
      "geometry": {
        "type": "Point",
        "coordinates": [
          -75.7125,
          20.101944444
        ]
      },
      "properties": {
        "label": "Pilar",
        "type": "Mine",
        "entity": "http://www.wikidata.org/entity/Q23792432",
        "country_qid": "Q241"
      }
    },
    {
      "type": "Feature",
      "geometry": {
        "type": "Point",
        "coordinates": [
          -83.966666666,
          22.583333333
        ]
      },
      "properties": {
        "label": "Minas de Matahambre",
        "type": "Mine",
        "entity": "http://www.wikidata.org/entity/Q23793685",
        "country_qid": "Q241"
      }
    },
    {
      "type": "Feature",
      "geometry": {
        "type": "Point",
        "coordinates": [
          -76.45,
          20.3
        ]
      },
      "properties": {
        "label": "Labor",
        "type": "Mine",
        "entity": "http://www.wikidata.org/entity/Q23794673",
        "country_qid": "Q241"
      }
    },
    {
      "type": "Feature",
      "geometry": {
        "type": "Point",
        "coordinates": [
          -76.383333333,
          20.233333333
        ]
      },
      "properties": {
        "label": "Montenegro",
        "type": "Mine",
        "entity": "http://www.wikidata.org/entity/Q23793302",
        "country_qid": "Q241"
      }
    },
    {
      "type": "Feature",
      "geometry": {
        "type": "Point",
        "coordinates": [
          -75.9,
          20.283333333
        ]
      },
      "properties": {
        "label": "Mary",
        "type": "Mine",
        "entity": "http://www.wikidata.org/entity/Q23793669",
        "country_qid": "Q241"
      }
    },
    {
      "type": "Feature",
      "geometry": {
        "type": "Point",
        "coordinates": [
          -75.628888888,
          20.153611111
        ]
      },
      "properties": {
        "label": "Ponupo",
        "type": "Mine",
        "entity": "http://www.wikidata.org/entity/Q23792616",
        "country_qid": "Q241"
      }
    },
    {
      "type": "Feature",
      "geometry": {
        "type": "Point",
        "coordinates": [
          -76.3,
          20.216666666
        ]
      },
      "properties": {
        "label": "Nueva Era",
        "type": "Mine",
        "entity": "http://www.wikidata.org/entity/Q23792933",
        "country_qid": "Q241"
      }
    },
    {
      "type": "Feature",
      "geometry": {
        "type": "Point",
        "coordinates": [
          -76.283333333,
          20.216666666
        ]
      },
      "properties": {
        "label": "San Joaquín",
        "type": "Mine",
        "entity": "http://www.wikidata.org/entity/Q23789798",
        "country_qid": "Q241"
      }
    },
    {
      "type": "Feature",
      "geometry": {
        "type": "Point",
        "coordinates": [
          -82.966666666,
          21.616666666
        ]
      },
      "properties": {
        "label": "Mina Lela",
        "type": "Mine",
        "entity": "http://www.wikidata.org/entity/Q23794431",
        "country_qid": "Q241"
      }
    },
    {
      "type": "Feature",
      "geometry": {
        "type": "Point",
        "coordinates": [
          -75.683333333,
          20.516666666
        ]
      },
      "properties": {
        "label": "La Estrella",
        "type": "Mine",
        "entity": "http://www.wikidata.org/entity/Q23794734",
        "country_qid": "Q241"
      }
    },
    {
      "type": "Feature",
      "geometry": {
        "type": "Point",
        "coordinates": [
          -77.633333333,
          21.483333333
        ]
      },
      "properties": {
        "label": "Mina Progreso",
        "type": "Mine",
        "entity": "http://www.wikidata.org/entity/Q23791608",
        "country_qid": "Q241"
      }
    },
    {
      "type": "Feature",
      "geometry": {
        "type": "Point",
        "coordinates": [
          -77.833333333,
          21.503055555
        ]
      },
      "properties": {
        "label": "Ofelia",
        "type": "Mine",
        "entity": "http://www.wikidata.org/entity/Q23792972",
        "country_qid": "Q241"
      }
    },
    {
      "type": "Feature",
      "geometry": {
        "type": "Point",
        "coordinates": [
          -75.724444444,
          20.221666666
        ]
      },
      "properties": {
        "label": "San Andrés",
        "type": "Mine",
        "entity": "http://www.wikidata.org/entity/Q23789723",
        "country_qid": "Q241"
      }
    },
    {
      "type": "Feature",
      "geometry": {
        "type": "Point",
        "coordinates": [
          -76.45,
          20.233333333
        ]
      },
      "properties": {
        "label": "Negligencia",
        "type": "Mine",
        "entity": "http://www.wikidata.org/entity/Q23793436",
        "country_qid": "Q241"
      }
    },
    {
      "type": "Feature",
      "geometry": {
        "type": "Point",
        "coordinates": [
          -76.25,
          20.266666666
        ]
      },
      "properties": {
        "label": "Sorpresa",
        "type": "Mine",
        "entity": "http://www.wikidata.org/entity/Q23788696",
        "country_qid": "Q241"
      }
    },
    {
      "type": "Feature",
      "geometry": {
        "type": "Point",
        "coordinates": [
          -75.695555555,
          20.127777777
        ]
      },
      "properties": {
        "label": "San Ricardo",
        "type": "Mine",
        "entity": "http://www.wikidata.org/entity/Q23789147",
        "country_qid": "Q241"
      }
    },
    {
      "type": "Feature",
      "geometry": {
        "type": "Point",
        "coordinates": [
          -76.5,
          20.216666666
        ]
      },
      "properties": {
        "label": "Toledo",
        "type": "Mine",
        "entity": "http://www.wikidata.org/entity/Q23787143",
        "country_qid": "Q241"
      }
    },
    {
      "type": "Feature",
      "geometry": {
        "type": "Point",
        "coordinates": [
          -76.483333333,
          20.183333333
        ]
      },
      "properties": {
        "label": "Sevilla (Cuba)",
        "type": "Mine",
        "entity": "http://www.wikidata.org/entity/Q23788598",
        "country_qid": "Q241"
      }
    },
    {
      "type": "Feature",
      "geometry": {
        "type": "Point",
        "coordinates": [
          -76.466666666,
          20.233333333
        ]
      },
      "properties": {
        "label": "Lego",
        "type": "Mine",
        "entity": "http://www.wikidata.org/entity/Q23794426",
        "country_qid": "Q241"
      }
    },
    {
      "type": "Feature",
      "geometry": {
        "type": "Point",
        "coordinates": [
          -77.766666666,
          21.533333333
        ]
      },
      "properties": {
        "label": "Pedro",
        "type": "Mine",
        "entity": "http://www.wikidata.org/entity/Q23792305",
        "country_qid": "Q241"
      }
    },
    {
      "type": "Feature",
      "geometry": {
        "type": "Point",
        "coordinates": [
          -76.533333333,
          20.166666666
        ]
      },
      "properties": {
        "label": "Nestor",
        "type": "Mine",
        "entity": "http://www.wikidata.org/entity/Q23793471",
        "country_qid": "Q241"
      }
    },
    {
      "type": "Feature",
      "geometry": {
        "type": "Point",
        "coordinates": [
          -76.35,
          20.183333333
        ]
      },
      "properties": {
        "label": "Pozo Prieto",
        "type": "Mine",
        "entity": "http://www.wikidata.org/entity/Q23792666",
        "country_qid": "Q241"
      }
    },
    {
      "type": "Feature",
      "geometry": {
        "type": "Point",
        "coordinates": [
          -82.010555555,
          22.936944444
        ]
      },
      "properties": {
        "label": "Cantera de Zaldívar",
        "type": "Mine",
        "entity": "http://www.wikidata.org/entity/Q23786009",
        "country_qid": "Q241"
      }
    },
    {
      "type": "Feature",
      "geometry": {
        "type": "Point",
        "coordinates": [
          -76.45,
          20.283333333
        ]
      },
      "properties": {
        "label": "Lucía",
        "type": "Mine",
        "entity": "http://www.wikidata.org/entity/Q23793918",
        "country_qid": "Q241"
      }
    },
    {
      "type": "Feature",
      "geometry": {
        "type": "Point",
        "coordinates": [
          -76.466666666,
          20.083333333
        ]
      },
      "properties": {
        "label": "Mina Lehigh",
        "type": "Mine",
        "entity": "http://www.wikidata.org/entity/Q23794430",
        "country_qid": "Q241"
      }
    },
    {
      "type": "Feature",
      "geometry": {
        "type": "Point",
        "coordinates": [
          -76.583333333,
          20.216666666
        ]
      },
      "properties": {
        "label": "Luz",
        "type": "Mine",
        "entity": "http://www.wikidata.org/entity/Q23793929",
        "country_qid": "Q241"
      }
    },
    {
      "type": "Feature",
      "geometry": {
        "type": "Point",
        "coordinates": [
          -76.266666666,
          20.216666666
        ]
      },
      "properties": {
        "label": "Sociedad",
        "type": "Mine",
        "entity": "http://www.wikidata.org/entity/Q23788663",
        "country_qid": "Q241"
      }
    },
    {
      "type": "Feature",
      "geometry": {
        "type": "Point",
        "coordinates": [
          -76.166666666,
          20.15
        ]
      },
      "properties": {
        "label": "Orión",
        "type": "Mine",
        "entity": "http://www.wikidata.org/entity/Q23793003",
        "country_qid": "Q241"
      }
    },
    {
      "type": "Feature",
      "geometry": {
        "type": "Point",
        "coordinates": [
          -76.183333333,
          20.133333333
        ]
      },
      "properties": {
        "label": "Pasaje",
        "type": "Mine",
        "entity": "http://www.wikidata.org/entity/Q23793159",
        "country_qid": "Q241"
      }
    },
    {
      "type": "Feature",
      "geometry": {
        "type": "Point",
        "coordinates": [
          -76.366666666,
          20.216666666
        ]
      },
      "properties": {
        "label": "Progreso",
        "type": "Mine",
        "entity": "http://www.wikidata.org/entity/Q23791607",
        "country_qid": "Q241"
      }
    },
    {
      "type": "Feature",
      "geometry": {
        "type": "Point",
        "coordinates": [
          -75.701111111,
          20.121666666
        ]
      },
      "properties": {
        "label": "María",
        "type": "Mine",
        "entity": "http://www.wikidata.org/entity/Q23793639",
        "country_qid": "Q241"
      }
    },
    {
      "type": "Feature",
      "geometry": {
        "type": "Point",
        "coordinates": [
          -80.616666666,
          22.75
        ]
      },
      "properties": {
        "label": "Mina Toledo",
        "type": "Mine",
        "entity": "http://www.wikidata.org/entity/Q23787144",
        "country_qid": "Q241"
      }
    },
    {
      "type": "Feature",
      "geometry": {
        "type": "Point",
        "coordinates": [
          -77.8,
          21.483333333
        ]
      },
      "properties": {
        "label": "Romana",
        "type": "Mine",
        "entity": "http://www.wikidata.org/entity/Q23789568",
        "country_qid": "Q241"
      }
    },
    {
      "type": "Feature",
      "geometry": {
        "type": "Point",
        "coordinates": [
          -76.333333333,
          20.166666666
        ]
      },
      "properties": {
        "label": "Matías",
        "type": "Mine",
        "entity": "http://www.wikidata.org/entity/Q23793699",
        "country_qid": "Q241"
      }
    },
    {
      "type": "Feature",
      "geometry": {
        "type": "Point",
        "coordinates": [
          -75.716666666,
          20.116666666
        ]
      },
      "properties": {
        "label": "Quinto",
        "type": "Mine",
        "entity": "http://www.wikidata.org/entity/Q23791694",
        "country_qid": "Q241"
      }
    },
    {
      "type": "Feature",
      "geometry": {
        "type": "Point",
        "coordinates": [
          -75.709444444,
          20.093333333
        ]
      },
      "properties": {
        "label": "San Roque",
        "type": "Mine",
        "entity": "http://www.wikidata.org/entity/Q23789148",
        "country_qid": "Q241"
      }
    },
    {
      "type": "Feature",
      "geometry": {
        "type": "Point",
        "coordinates": [
          -76.6,
          20.166666666
        ]
      },
      "properties": {
        "label": "María Lola",
        "type": "Mine",
        "entity": "http://www.wikidata.org/entity/Q23793648",
        "country_qid": "Q241"
      }
    },
    {
      "type": "Feature",
      "geometry": {
        "type": "Point",
        "coordinates": [
          -76.3,
          20.2
        ]
      },
      "properties": {
        "label": "Yeya",
        "type": "Mine",
        "entity": "http://www.wikidata.org/entity/Q23785983",
        "country_qid": "Q241"
      }
    },
    {
      "type": "Feature",
      "geometry": {
        "type": "Point",
        "coordinates": [
          -75.750277777,
          20.101111111
        ]
      },
      "properties": {
        "label": "San Luis",
        "type": "Mine",
        "entity": "http://www.wikidata.org/entity/Q23789111",
        "country_qid": "Q241"
      }
    },
    {
      "type": "Feature",
      "geometry": {
        "type": "Point",
        "coordinates": [
          -75.8,
          20.516666666
        ]
      },
      "properties": {
        "label": "Mina Loma Alta",
        "type": "Mine",
        "entity": "http://www.wikidata.org/entity/Q23794529",
        "country_qid": "Q241"
      }
    },
    {
      "type": "Feature",
      "geometry": {
        "type": "Point",
        "coordinates": [
          -77.777222222,
          21.499722222
        ]
      },
      "properties": {
        "label": "Romanita",
        "type": "Mine",
        "entity": "http://www.wikidata.org/entity/Q23789569",
        "country_qid": "Q241"
      }
    },
    {
      "type": "Feature",
      "geometry": {
        "type": "Point",
        "coordinates": [
          -74.840555555,
          20.073055555
        ]
      },
      "properties": {
        "label": "Yeso Los Naranjos",
        "type": "Mine",
        "entity": "http://www.wikidata.org/entity/Q23785982",
        "country_qid": "Q241"
      }
    },
    {
      "type": "Feature",
      "geometry": {
        "type": "Point",
        "coordinates": [
          -75.7275,
          20.2225
        ]
      },
      "properties": {
        "label": "Omega",
        "type": "Mine",
        "entity": "http://www.wikidata.org/entity/Q23792988",
        "country_qid": "Q241"
      }
    },
    {
      "type": "Feature",
      "geometry": {
        "type": "Point",
        "coordinates": [
          -76.416666666,
          21.2
        ]
      },
      "properties": {
        "label": "Ruiseñor",
        "type": "Mine",
        "entity": "http://www.wikidata.org/entity/Q23789609",
        "country_qid": "Q241"
      }
    },
    {
      "type": "Feature",
      "geometry": {
        "type": "Point",
        "coordinates": [
          -75.743888888,
          20.101944444
        ]
      },
      "properties": {
        "label": "Tordero",
        "type": "Mine",
        "entity": "http://www.wikidata.org/entity/Q23787156",
        "country_qid": "Q241"
      }
    },
    {
      "type": "Feature",
      "geometry": {
        "type": "Point",
        "coordinates": [
          -80.081388888,
          22.196388888
        ]
      },
      "properties": {
        "label": "Las Minas de San Fernando",
        "type": "Mine",
        "entity": "http://www.wikidata.org/entity/Q23789773",
        "country_qid": "Q241"
      }
    },
    {
      "type": "Feature",
      "geometry": {
        "type": "Point",
        "coordinates": [
          -76.516666666,
          20.2
        ]
      },
      "properties": {
        "label": "San Rafael",
        "type": "Mine",
        "entity": "http://www.wikidata.org/entity/Q23789141",
        "country_qid": "Q241"
      }
    },
    {
      "type": "Feature",
      "geometry": {
        "type": "Point",
        "coordinates": [
          -75.703333333,
          20.097777777
        ]
      },
      "properties": {
        "label": "Mirón",
        "type": "Mine",
        "entity": "http://www.wikidata.org/entity/Q23793263",
        "country_qid": "Q241"
      }
    },
    {
      "type": "Feature",
      "geometry": {
        "type": "Point",
        "coordinates": [
          -76.316666666,
          20.183333333
        ]
      },
      "properties": {
        "label": "Sonia",
        "type": "Mine",
        "entity": "http://www.wikidata.org/entity/Q23788690",
        "country_qid": "Q241"
      }
    },
    {
      "type": "Feature",
      "geometry": {
        "type": "Point",
        "coordinates": [
          -75.65,
          20.333333333
        ]
      },
      "properties": {
        "label": "Tejón",
        "type": "Mine",
        "entity": "http://www.wikidata.org/entity/Q23788778",
        "country_qid": "Q241"
      }
    },
    {
      "type": "Feature",
      "geometry": {
        "type": "Point",
        "coordinates": [
          -76.166666666,
          20.15
        ]
      },
      "properties": {
        "label": "La Central",
        "type": "Mine",
        "entity": "http://www.wikidata.org/entity/Q23794706",
        "country_qid": "Q241"
      }
    },
    {
      "type": "Feature",
      "geometry": {
        "type": "Point",
        "coordinates": [
          -76.35,
          20.183333333
        ]
      },
      "properties": {
        "label": "Magela",
        "type": "Mine",
        "entity": "http://www.wikidata.org/entity/Q23793995",
        "country_qid": "Q241"
      }
    },
    {
      "type": "Feature",
      "geometry": {
        "type": "Point",
        "coordinates": [
          -77.904722222,
          21.542222222
        ]
      },
      "properties": {
        "label": "Rosalina",
        "type": "Mine",
        "entity": "http://www.wikidata.org/entity/Q23789588",
        "country_qid": "Q241"
      }
    },
    {
      "type": "Feature",
      "geometry": {
        "type": "Point",
        "coordinates": [
          -76.633333333,
          20.216666666
        ]
      },
      "properties": {
        "label": "La Justa",
        "type": "Mine",
        "entity": "http://www.wikidata.org/entity/Q23794784",
        "country_qid": "Q241"
      }
    },
    {
      "type": "Feature",
      "geometry": {
        "type": "Point",
        "coordinates": [
          -75.783333333,
          20.283333333
        ]
      },
      "properties": {
        "label": "Tres Josefas",
        "type": "Mine",
        "entity": "http://www.wikidata.org/entity/Q23787197",
        "country_qid": "Q241"
      }
    },
    {
      "type": "Feature",
      "geometry": {
        "type": "Point",
        "coordinates": [
          -77.781111111,
          21.495277777
        ]
      },
      "properties": {
        "label": "Seguridad",
        "type": "Mine",
        "entity": "http://www.wikidata.org/entity/Q23788585",
        "country_qid": "Q241"
      }
    },
    {
      "type": "Feature",
      "geometry": {
        "type": "Point",
        "coordinates": [
          -76.383333333,
          20.2
        ]
      },
      "properties": {
        "label": "San Salvador",
        "type": "Mine",
        "entity": "http://www.wikidata.org/entity/Q23789149",
        "country_qid": "Q241"
      }
    },
    {
      "type": "Feature",
      "geometry": {
        "type": "Point",
        "coordinates": [
          -76.383333333,
          20.25
        ]
      },
      "properties": {
        "label": "Tercera Unidad",
        "type": "Mine",
        "entity": "http://www.wikidata.org/entity/Q23788786",
        "country_qid": "Q241"
      }
    },
    {
      "type": "Feature",
      "geometry": {
        "type": "Point",
        "coordinates": [
          -77.798055555,
          21.515
        ]
      },
      "properties": {
        "label": "Leocadia",
        "type": "Mine",
        "entity": "http://www.wikidata.org/entity/Q23794443",
        "country_qid": "Q241"
      }
    },
    {
      "type": "Feature",
      "geometry": {
        "type": "Point",
        "coordinates": [
          -77.65,
          21.433333333
        ]
      },
      "properties": {
        "label": "Provenir",
        "type": "Mine",
        "entity": "http://www.wikidata.org/entity/Q23791610",
        "country_qid": "Q241"
      }
    },
    {
      "type": "Feature",
      "geometry": {
        "type": "Point",
        "coordinates": [
          -76.366666666,
          20.15
        ]
      },
      "properties": {
        "label": "La Única",
        "type": "Mine",
        "entity": "http://www.wikidata.org/entity/Q23794395",
        "country_qid": "Q241"
      }
    },
    {
      "type": "Feature",
      "geometry": {
        "type": "Point",
        "coordinates": [
          -77.633333333,
          21.45
        ]
      },
      "properties": {
        "label": "La Caridad",
        "type": "Mine",
        "entity": "http://www.wikidata.org/entity/Q23794692",
        "country_qid": "Q241"
      }
    },
    {
      "type": "Feature",
      "geometry": {
        "type": "Point",
        "coordinates": [
          -77.828611111,
          21.518888888
        ]
      },
      "properties": {
        "label": "Lola",
        "type": "Mine",
        "entity": "http://www.wikidata.org/entity/Q23794523",
        "country_qid": "Q241"
      }
    },
    {
      "type": "Feature",
      "geometry": {
        "type": "Point",
        "coordinates": [
          -81.314722222,
          22.921388888
        ]
      },
      "properties": {
        "label": "La Esperanza",
        "type": "Mine",
        "entity": "http://www.wikidata.org/entity/Q23794730",
        "country_qid": "Q241"
      }
    },
    {
      "type": "Feature",
      "geometry": {
        "type": "Point",
        "coordinates": [
          -77.828055555,
          21.459444444
        ]
      },
      "properties": {
        "label": "Roma",
        "type": "Mine",
        "entity": "http://www.wikidata.org/entity/Q23789566",
        "country_qid": "Q241"
      }
    },
    {
      "type": "Feature",
      "geometry": {
        "type": "Point",
        "coordinates": [
          -77.780555555,
          21.499722222
        ]
      },
      "properties": {
        "label": "Mabel",
        "type": "Mine",
        "entity": "http://www.wikidata.org/entity/Q23793931",
        "country_qid": "Q241"
      }
    },
    {
      "type": "Feature",
      "geometry": {
        "type": "Point",
        "coordinates": [
          -77.8,
          21.583333333
        ]
      },
      "properties": {
        "label": "Nuevos Amigos",
        "type": "Mine",
        "entity": "http://www.wikidata.org/entity/Q23792943",
        "country_qid": "Q241"
      }
    },
    {
      "type": "Feature",
      "geometry": {
        "type": "Point",
        "coordinates": [
          -76.483333333,
          20.25
        ]
      },
      "properties": {
        "label": "Seguada Gloria",
        "type": "Mine",
        "entity": "http://www.wikidata.org/entity/Q23788579",
        "country_qid": "Q241"
      }
    },
    {
      "type": "Feature",
      "geometry": {
        "type": "Point",
        "coordinates": [
          -76.483333333,
          20.25
        ]
      },
      "properties": {
        "label": "Taratana",
        "type": "Mine",
        "entity": "http://www.wikidata.org/entity/Q23788765",
        "country_qid": "Q241"
      }
    },
    {
      "type": "Feature",
      "geometry": {
        "type": "Point",
        "coordinates": [
          -79.716666666,
          22.283333333
        ]
      },
      "properties": {
        "label": "Mina Melonera",
        "type": "Mine",
        "entity": "http://www.wikidata.org/entity/Q23793777",
        "country_qid": "Q241"
      }
    },
    {
      "type": "Feature",
      "geometry": {
        "type": "Point",
        "coordinates": [
          -83.123055555,
          22.896388888
        ]
      },
      "properties": {
        "label": "Minas de San Federico",
        "type": "Mine",
        "entity": "http://www.wikidata.org/entity/Q23789759",
        "country_qid": "Q241"
      }
    },
    {
      "type": "Feature",
      "geometry": {
        "type": "Point",
        "coordinates": [
          -75.536666666,
          19.972777777
        ]
      },
      "properties": {
        "label": "Non Plus Ultra",
        "type": "Mine",
        "entity": "http://www.wikidata.org/entity/Q23793491",
        "country_qid": "Q241"
      }
    },
    {
      "type": "Feature",
      "geometry": {
        "type": "Point",
        "coordinates": [
          -77.816666666,
          21.433333333
        ]
      },
      "properties": {
        "label": "Rafael",
        "type": "Mine",
        "entity": "http://www.wikidata.org/entity/Q23790065",
        "country_qid": "Q241"
      }
    },
    {
      "type": "Feature",
      "geometry": {
        "type": "Point",
        "coordinates": [
          -77.833333333,
          21.35
        ]
      },
      "properties": {
        "label": "Margarita Valls",
        "type": "Mine",
        "entity": "http://www.wikidata.org/entity/Q23793638",
        "country_qid": "Q241"
      }
    },
    {
      "type": "Feature",
      "geometry": {
        "type": "Point",
        "coordinates": [
          -76.366666666,
          20.2
        ]
      },
      "properties": {
        "label": "San Pablo",
        "type": "Mine",
        "entity": "http://www.wikidata.org/entity/Q23789128",
        "country_qid": "Q241"
      }
    },
    {
      "type": "Feature",
      "geometry": {
        "type": "Point",
        "coordinates": [
          -75.609444444,
          19.945
        ]
      },
      "properties": {
        "label": "Norte",
        "type": "Mine",
        "entity": "http://www.wikidata.org/entity/Q23792921",
        "country_qid": "Q241"
      }
    },
    {
      "type": "Feature",
      "geometry": {
        "type": "Point",
        "coordinates": [
          -77.766666666,
          21.533333333
        ]
      },
      "properties": {
        "label": "Halulu",
        "type": "Mine",
        "entity": "http://www.wikidata.org/entity/Q23795432",
        "country_qid": "Q241"
      }
    },
    {
      "type": "Feature",
      "geometry": {
        "type": "Point",
        "coordinates": [
          -75.733333333,
          20.55
        ]
      },
      "properties": {
        "label": "Colorado",
        "type": "Mine",
        "entity": "http://www.wikidata.org/entity/Q23798569",
        "country_qid": "Q241"
      }
    },
    {
      "type": "Feature",
      "geometry": {
        "type": "Point",
        "coordinates": [
          -82.083333333,
          22.883333333
        ]
      },
      "properties": {
        "label": "Cantera",
        "type": "Mine",
        "entity": "http://www.wikidata.org/entity/Q23800641",
        "country_qid": "Q241"
      }
    },
    {
      "type": "Feature",
      "geometry": {
        "type": "Point",
        "coordinates": [
          -76.466666666,
          20.166666666
        ]
      },
      "properties": {
        "label": "Josefina",
        "type": "Mine",
        "entity": "http://www.wikidata.org/entity/Q23795183",
        "country_qid": "Q241"
      }
    },
    {
      "type": "Feature",
      "geometry": {
        "type": "Point",
        "coordinates": [
          -76.3,
          20.25
        ]
      },
      "properties": {
        "label": "Flora",
        "type": "Mine",
        "entity": "http://www.wikidata.org/entity/Q23797065",
        "country_qid": "Q241"
      }
    },
    {
      "type": "Feature",
      "geometry": {
        "type": "Point",
        "coordinates": [
          -75.632777777,
          20.158055555
        ]
      },
      "properties": {
        "label": "Juanita",
        "type": "Mine",
        "entity": "http://www.wikidata.org/entity/Q23795206",
        "country_qid": "Q241"
      }
    },
    {
      "type": "Feature",
      "geometry": {
        "type": "Point",
        "coordinates": [
          -77.283333333,
          20.983333333
        ]
      },
      "properties": {
        "label": "Iron Hill",
        "type": "Mine",
        "entity": "http://www.wikidata.org/entity/Q23795588",
        "country_qid": "Q241"
      }
    },
    {
      "type": "Feature",
      "geometry": {
        "type": "Point",
        "coordinates": [
          -76.45,
          20.183333333
        ]
      },
      "properties": {
        "label": "Carrera",
        "type": "Mine",
        "entity": "http://www.wikidata.org/entity/Q23800749",
        "country_qid": "Q241"
      }
    },
    {
      "type": "Feature",
      "geometry": {
        "type": "Point",
        "coordinates": [
          -76.333333333,
          20.216666666
        ]
      },
      "properties": {
        "label": "Candas",
        "type": "Mine",
        "entity": "http://www.wikidata.org/entity/Q23800604",
        "country_qid": "Q241"
      }
    },
    {
      "type": "Feature",
      "geometry": {
        "type": "Point",
        "coordinates": [
          -76.3,
          20.2
        ]
      },
      "properties": {
        "label": "Defensa",
        "type": "Mine",
        "entity": "http://www.wikidata.org/entity/Q23797426",
        "country_qid": "Q241"
      }
    },
    {
      "type": "Feature",
      "geometry": {
        "type": "Point",
        "coordinates": [
          -75.65,
          20.383333333
        ]
      },
      "properties": {
        "label": "Guanabá",
        "type": "Mine",
        "entity": "http://www.wikidata.org/entity/Q23796069",
        "country_qid": "Q241"
      }
    },
    {
      "type": "Feature",
      "geometry": {
        "type": "Point",
        "coordinates": [
          -76.183333333,
          20.15
        ]
      },
      "properties": {
        "label": "Guadalupe",
        "type": "Mine",
        "entity": "http://www.wikidata.org/entity/Q23796032",
        "country_qid": "Q241"
      }
    },
    {
      "type": "Feature",
      "geometry": {
        "type": "Point",
        "coordinates": [
          -77.855,
          21.489722222
        ]
      },
      "properties": {
        "label": "Buck",
        "type": "Mine",
        "entity": "http://www.wikidata.org/entity/Q23803899",
        "country_qid": "Q241"
      }
    },
    {
      "type": "Feature",
      "geometry": {
        "type": "Point",
        "coordinates": [
          -75.666666666,
          20.366666666
        ]
      },
      "properties": {
        "label": "Ibars de Urgel",
        "type": "Mine",
        "entity": "http://www.wikidata.org/entity/Q23795539",
        "country_qid": "Q241"
      }
    },
    {
      "type": "Feature",
      "geometry": {
        "type": "Point",
        "coordinates": [
          -75.833333333,
          20.333333333
        ]
      },
      "properties": {
        "label": "Elvira",
        "type": "Mine",
        "entity": "http://www.wikidata.org/entity/Q23796944",
        "country_qid": "Q241"
      }
    },
    {
      "type": "Feature",
      "geometry": {
        "type": "Point",
        "coordinates": [
          -77.9,
          21.416666666
        ]
      },
      "properties": {
        "label": "Celita",
        "type": "Mine",
        "entity": "http://www.wikidata.org/entity/Q23798372",
        "country_qid": "Q241"
      }
    },
    {
      "type": "Feature",
      "geometry": {
        "type": "Point",
        "coordinates": [
          -76.283333333,
          20.25
        ]
      },
      "properties": {
        "label": "Fortuna",
        "type": "Mine",
        "entity": "http://www.wikidata.org/entity/Q23797076",
        "country_qid": "Q241"
      }
    },
    {
      "type": "Feature",
      "geometry": {
        "type": "Point",
        "coordinates": [
          -77.891944444,
          21.641666666
        ]
      },
      "properties": {
        "label": "Flor",
        "type": "Mine",
        "entity": "http://www.wikidata.org/entity/Q23797064",
        "country_qid": "Q241"
      }
    },
    {
      "type": "Feature",
      "geometry": {
        "type": "Point",
        "coordinates": [
          -75.6975,
          20.125277777
        ]
      },
      "properties": {
        "label": "Consuelo",
        "type": "Mine",
        "entity": "http://www.wikidata.org/entity/Q23798628",
        "country_qid": "Q241"
      }
    },
    {
      "type": "Feature",
      "geometry": {
        "type": "Point",
        "coordinates": [
          -75.525277777,
          19.966666666
        ]
      },
      "properties": {
        "label": "Graham",
        "type": "Mine",
        "entity": "http://www.wikidata.org/entity/Q23795955",
        "country_qid": "Q241"
      }
    },
    {
      "type": "Feature",
      "geometry": {
        "type": "Point",
        "coordinates": [
          -77.6,
          21.216666666
        ]
      },
      "properties": {
        "label": "Cantera de Caballeros",
        "type": "Mine",
        "entity": "http://www.wikidata.org/entity/Q23803944",
        "country_qid": "Q241"
      }
    },
    {
      "type": "Feature",
      "geometry": {
        "type": "Point",
        "coordinates": [
          -76.483333333,
          20.233333333
        ]
      },
      "properties": {
        "label": "Caridad",
        "type": "Mine",
        "entity": "http://www.wikidata.org/entity/Q23800726",
        "country_qid": "Q241"
      }
    },
    {
      "type": "Feature",
      "geometry": {
        "type": "Point",
        "coordinates": [
          -76.45,
          20.283333333
        ]
      },
      "properties": {
        "label": "Charco Azul",
        "type": "Mine",
        "entity": "http://www.wikidata.org/entity/Q23798398",
        "country_qid": "Q241"
      }
    },
    {
      "type": "Feature",
      "geometry": {
        "type": "Point",
        "coordinates": [
          -84.1,
          22.38333
        ]
      },
      "properties": {
        "label": "Mina Dora",
        "type": "Mine",
        "entity": "http://www.wikidata.org/entity/Q23797543",
        "country_qid": "Q241"
      }
    },
    {
      "type": "Feature",
      "geometry": {
        "type": "Point",
        "coordinates": [
          -75.6,
          20.2
        ]
      },
      "properties": {
        "label": "Dolores",
        "type": "Mine",
        "entity": "http://www.wikidata.org/entity/Q23797514",
        "country_qid": "Q241"
      }
    },
    {
      "type": "Feature",
      "geometry": {
        "type": "Point",
        "coordinates": [
          -77.7,
          21.416666666
        ]
      },
      "properties": {
        "label": "Camagüey",
        "type": "Mine",
        "entity": "http://www.wikidata.org/entity/Q23800495",
        "country_qid": "Q241"
      }
    },
    {
      "type": "Feature",
      "geometry": {
        "type": "Point",
        "coordinates": [
          -75.766666666,
          20.283333333
        ]
      },
      "properties": {
        "label": "Cubanita",
        "type": "Mine",
        "entity": "http://www.wikidata.org/entity/Q23797282",
        "country_qid": "Q241"
      }
    },
    {
      "type": "Feature",
      "geometry": {
        "type": "Point",
        "coordinates": [
          -77.85,
          21.433333333
        ]
      },
      "properties": {
        "label": "El Próximo",
        "type": "Mine",
        "entity": "http://www.wikidata.org/entity/Q23796929",
        "country_qid": "Q241"
      }
    },
    {
      "type": "Feature",
      "geometry": {
        "type": "Point",
        "coordinates": [
          -77.866666666,
          21.583333333
        ]
      },
      "properties": {
        "label": "Guillermina",
        "type": "Mine",
        "entity": "http://www.wikidata.org/entity/Q23795403",
        "country_qid": "Q241"
      }
    },
    {
      "type": "Feature",
      "geometry": {
        "type": "Point",
        "coordinates": [
          -77.798333333,
          21.419722222
        ]
      },
      "properties": {
        "label": "Caridad",
        "type": "Mine",
        "entity": "http://www.wikidata.org/entity/Q23800728",
        "country_qid": "Q241"
      }
    },
    {
      "type": "Feature",
      "geometry": {
        "type": "Point",
        "coordinates": [
          -79.733333333,
          22.3
        ]
      },
      "properties": {
        "label": "Mina del Descanso",
        "type": "Mine",
        "entity": "http://www.wikidata.org/entity/Q23797442",
        "country_qid": "Q241"
      }
    },
    {
      "type": "Feature",
      "geometry": {
        "type": "Point",
        "coordinates": [
          -75.706388888,
          20.121944444
        ]
      },
      "properties": {
        "label": "Botsford",
        "type": "Mine",
        "entity": "http://www.wikidata.org/entity/Q23803857",
        "country_qid": "Q241"
      }
    },
    {
      "type": "Feature",
      "geometry": {
        "type": "Point",
        "coordinates": [
          -75.6,
          20.616666666
        ]
      },
      "properties": {
        "label": "Bella María",
        "type": "Mine",
        "entity": "http://www.wikidata.org/entity/Q23804779",
        "country_qid": "Q241"
      }
    },
    {
      "type": "Feature",
      "geometry": {
        "type": "Point",
        "coordinates": [
          -76.5,
          20.2
        ]
      },
      "properties": {
        "label": "Covadonga",
        "type": "Mine",
        "entity": "http://www.wikidata.org/entity/Q23798723",
        "country_qid": "Q241"
      }
    },
    {
      "type": "Feature",
      "geometry": {
        "type": "Point",
        "coordinates": [
          -76.383333333,
          20.2
        ]
      },
      "properties": {
        "label": "Amelia",
        "type": "Mine",
        "entity": "http://www.wikidata.org/entity/Q23805386",
        "country_qid": "Q241"
      }
    },
    {
      "type": "Feature",
      "geometry": {
        "type": "Point",
        "coordinates": [
          -76.45,
          20.233333333
        ]
      },
      "properties": {
        "label": "Las Cajitas",
        "type": "Mine",
        "entity": "http://www.wikidata.org/entity/Q23794900",
        "country_qid": "Q241"
      }
    },
    {
      "type": "Feature",
      "geometry": {
        "type": "Point",
        "coordinates": [
          -76.466666666,
          20.183333333
        ]
      },
      "properties": {
        "label": "Condesita",
        "type": "Mine",
        "entity": "http://www.wikidata.org/entity/Q23798620",
        "country_qid": "Q241"
      }
    },
    {
      "type": "Feature",
      "geometry": {
        "type": "Point",
        "coordinates": [
          -76.45,
          20.2
        ]
      },
      "properties": {
        "label": "Desperto",
        "type": "Mine",
        "entity": "http://www.wikidata.org/entity/Q23797455",
        "country_qid": "Q241"
      }
    },
    {
      "type": "Feature",
      "geometry": {
        "type": "Point",
        "coordinates": [
          -75.610277777,
          19.949444444
        ]
      },
      "properties": {
        "label": "Concepción (mine)",
        "type": "Mine",
        "entity": "http://www.wikidata.org/entity/Q23798607",
        "country_qid": "Q241"
      }
    },
    {
      "type": "Feature",
      "geometry": {
        "type": "Point",
        "coordinates": [
          -77.816666666,
          21.416666666
        ]
      },
      "properties": {
        "label": "Eloísa",
        "type": "Mine",
        "entity": "http://www.wikidata.org/entity/Q23796919",
        "country_qid": "Q241"
      }
    },
    {
      "type": "Feature",
      "geometry": {
        "type": "Point",
        "coordinates": [
          -75.798611111,
          20.087777777
        ]
      },
      "properties": {
        "label": "Caridad",
        "type": "Mine",
        "entity": "http://www.wikidata.org/entity/Q23800724",
        "country_qid": "Q241"
      }
    },
    {
      "type": "Feature",
      "geometry": {
        "type": "Point",
        "coordinates": [
          -77.816666666,
          21.4
        ]
      },
      "properties": {
        "label": "Las Cuevas",
        "type": "Mine",
        "entity": "http://www.wikidata.org/entity/Q23794910",
        "country_qid": "Q241"
      }
    },
    {
      "type": "Feature",
      "geometry": {
        "type": "Point",
        "coordinates": [
          -76.483333333,
          20.2
        ]
      },
      "properties": {
        "label": "Esperancita",
        "type": "Mine",
        "entity": "http://www.wikidata.org/entity/Q23796981",
        "country_qid": "Q241"
      }
    },
    {
      "type": "Feature",
      "geometry": {
        "type": "Point",
        "coordinates": [
          -77.816666666,
          21.4
        ]
      },
      "properties": {
        "label": "Isabel",
        "type": "Mine",
        "entity": "http://www.wikidata.org/entity/Q23795589",
        "country_qid": "Q241"
      }
    },
    {
      "type": "Feature",
      "geometry": {
        "type": "Point",
        "coordinates": [
          -76.416666666,
          20.266666666
        ]
      },
      "properties": {
        "label": "Casualidad",
        "type": "Mine",
        "entity": "http://www.wikidata.org/entity/Q23800775",
        "country_qid": "Q241"
      }
    },
    {
      "type": "Feature",
      "geometry": {
        "type": "Point",
        "coordinates": [
          -76.433333333,
          20.25
        ]
      },
      "properties": {
        "label": "Charco Redondo",
        "type": "Mine",
        "entity": "http://www.wikidata.org/entity/Q23798404",
        "country_qid": "Q241"
      }
    },
    {
      "type": "Feature",
      "geometry": {
        "type": "Point",
        "coordinates": [
          -76.416666666,
          20.25
        ]
      },
      "properties": {
        "label": "Casualidad",
        "type": "Mine",
        "entity": "http://www.wikidata.org/entity/Q23800774",
        "country_qid": "Q241"
      }
    },
    {
      "type": "Feature",
      "geometry": {
        "type": "Point",
        "coordinates": [
          -77.890277777,
          21.613333333
        ]
      },
      "properties": {
        "label": "La Perla",
        "type": "Mine",
        "entity": "http://www.wikidata.org/entity/Q23794844",
        "country_qid": "Q241"
      }
    },
    {
      "type": "Feature",
      "geometry": {
        "type": "Point",
        "coordinates": [
          -75.583333333,
          20.133333333
        ]
      },
      "properties": {
        "label": "Cuatro Caminos",
        "type": "Mine",
        "entity": "http://www.wikidata.org/entity/Q23797272",
        "country_qid": "Q241"
      }
    },
    {
      "type": "Feature",
      "geometry": {
        "type": "Point",
        "coordinates": [
          -77.761111111,
          21.491944444
        ]
      },
      "properties": {
        "label": "Altagracia",
        "type": "Mine",
        "entity": "http://www.wikidata.org/entity/Q23805364",
        "country_qid": "Q241"
      }
    },
    {
      "type": "Feature",
      "geometry": {
        "type": "Point",
        "coordinates": [
          -77.866666666,
          21.466666666
        ]
      },
      "properties": {
        "label": "Ellen",
        "type": "Mine",
        "entity": "http://www.wikidata.org/entity/Q23796904",
        "country_qid": "Q241"
      }
    },
    {
      "type": "Feature",
      "geometry": {
        "type": "Point",
        "coordinates": [
          -75.683333333,
          20.533333333
        ]
      },
      "properties": {
        "label": "Mina Caledonia",
        "type": "Mine",
        "entity": "http://www.wikidata.org/entity/Q23800457",
        "country_qid": "Q241"
      }
    },
    {
      "type": "Feature",
      "geometry": {
        "type": "Point",
        "coordinates": [
          -77.871944444,
          21.450555555
        ]
      },
      "properties": {
        "label": "Clara",
        "type": "Mine",
        "entity": "http://www.wikidata.org/entity/Q23798488",
        "country_qid": "Q241"
      }
    },
    {
      "type": "Feature",
      "geometry": {
        "type": "Point",
        "coordinates": [
          -75.816666666,
          20.35
        ]
      },
      "properties": {
        "label": "Jesús Segundo",
        "type": "Mine",
        "entity": "http://www.wikidata.org/entity/Q23795097",
        "country_qid": "Q241"
      }
    },
    {
      "type": "Feature",
      "geometry": {
        "type": "Point",
        "coordinates": [
          -76.3,
          20.216666666
        ]
      },
      "properties": {
        "label": "Dichosa",
        "type": "Mine",
        "entity": "http://www.wikidata.org/entity/Q23797478",
        "country_qid": "Q241"
      }
    },
    {
      "type": "Feature",
      "geometry": {
        "type": "Point",
        "coordinates": [
          -75.6,
          20.2
        ]
      },
      "properties": {
        "label": "Altagracia",
        "type": "Mine",
        "entity": "http://www.wikidata.org/entity/Q23805363",
        "country_qid": "Q241"
      }
    },
    {
      "type": "Feature",
      "geometry": {
        "type": "Point",
        "coordinates": [
          -77.833333333,
          21.483333333
        ]
      },
      "properties": {
        "label": "Cantera",
        "type": "Mine",
        "entity": "http://www.wikidata.org/entity/Q23800640",
        "country_qid": "Q241"
      }
    },
    {
      "type": "Feature",
      "geometry": {
        "type": "Point",
        "coordinates": [
          -76.316666666,
          20.2
        ]
      },
      "properties": {
        "label": "Eduardo",
        "type": "Mine",
        "entity": "http://www.wikidata.org/entity/Q23797603",
        "country_qid": "Q241"
      }
    },
    {
      "type": "Feature",
      "geometry": {
        "type": "Point",
        "coordinates": [
          -76.333333333,
          20.216666666
        ]
      },
      "properties": {
        "label": "Caridad",
        "type": "Mine",
        "entity": "http://www.wikidata.org/entity/Q23800725",
        "country_qid": "Q241"
      }
    },
    {
      "type": "Feature",
      "geometry": {
        "type": "Point",
        "coordinates": [
          -75.666666666,
          20.366666666
        ]
      },
      "properties": {
        "label": "Federico",
        "type": "Mine",
        "entity": "http://www.wikidata.org/entity/Q23797035",
        "country_qid": "Q241"
      }
    },
    {
      "type": "Feature",
      "geometry": {
        "type": "Point",
        "coordinates": [
          -77.816666666,
          21.416666666
        ]
      },
      "properties": {
        "label": "Elvira",
        "type": "Mine",
        "entity": "http://www.wikidata.org/entity/Q23796945",
        "country_qid": "Q241"
      }
    },
    {
      "type": "Feature",
      "geometry": {
        "type": "Point",
        "coordinates": [
          -77.75,
          21.483333333
        ]
      },
      "properties": {
        "label": "Altagracia Segunda",
        "type": "Mine",
        "entity": "http://www.wikidata.org/entity/Q23805366",
        "country_qid": "Q241"
      }
    },
    {
      "type": "Feature",
      "geometry": {
        "type": "Point",
        "coordinates": [
          -77.7575,
          21.496111111
        ]
      },
      "properties": {
        "label": "Altagracia Cuarta",
        "type": "Mine",
        "entity": "http://www.wikidata.org/entity/Q23805365",
        "country_qid": "Q241"
      }
    },
    {
      "type": "Feature",
      "geometry": {
        "type": "Point",
        "coordinates": [
          -76.3,
          20.2
        ]
      },
      "properties": {
        "label": "Amy",
        "type": "Mine",
        "entity": "http://www.wikidata.org/entity/Q23805390",
        "country_qid": "Q241"
      }
    },
    {
      "type": "Feature",
      "geometry": {
        "type": "Point",
        "coordinates": [
          -77.816666666,
          21.4
        ]
      },
      "properties": {
        "label": "Isabel Segunda",
        "type": "Mine",
        "entity": "http://www.wikidata.org/entity/Q23795593",
        "country_qid": "Q241"
      }
    },
    {
      "type": "Feature",
      "geometry": {
        "type": "Point",
        "coordinates": [
          -75.65,
          20.366666666
        ]
      },
      "properties": {
        "label": "Corinto",
        "type": "Mine",
        "entity": "http://www.wikidata.org/entity/Q23798662",
        "country_qid": "Q241"
      }
    },
    {
      "type": "Feature",
      "geometry": {
        "type": "Point",
        "coordinates": [
          -75.753333333,
          20.096944444
        ]
      },
      "properties": {
        "label": "España",
        "type": "Mine",
        "entity": "http://www.wikidata.org/entity/Q23796976",
        "country_qid": "Q241"
      }
    },