{
  "type": "FeatureCollection",
  "features": [
    {
      "type": "Feature",
      "geometry": {
        "type": "Point",
        "coordinates": [
          -6.8702,
          61.4861
        ]
      },
      "properties": {
        "label": "Botnur power plant",
        "type": "power plant",
        "entity": "http://www.wikidata.org/entity/Q3445129",
        "country_qid": "Q4628"
      }
    },
    {
      "type": "Feature",
      "geometry": {
        "type": "Point",
        "coordinates": [
          -7.0725,
          62.28111111
        ]
      },
      "properties": {
        "label": "Eiði power plant",
        "type": "power plant",
        "entity": "http://www.wikidata.org/entity/Q17769372",
        "country_qid": "Q4628"
      }
    },
    {
      "type": "Feature",
      "geometry": {
        "type": "Point",
        "coordinates": [
          -7.083055555,
          62.170833333
        ]
      },
      "properties": {
        "label": "Mýrarnar",
        "type": "Reservoir",
        "entity": "http://www.wikidata.org/entity/Q29100290",
        "country_qid": "Q4628"
      }
    },
    {
      "type": "Feature",
      "geometry": {
        "type": "Point",
        "coordinates": [
          -7.15,
          62.166666666
        ]
      },
      "properties": {
        "label": "Lomundaroyri",
        "type": "Reservoir",
        "entity": "http://www.wikidata.org/entity/Q29100373",
        "country_qid": "Q4628"
      }
    },
    {
      "type": "Feature",
      "geometry": {
        "type": "Point",
        "coordinates": [
          -7.083333333,
          62.166666666
        ]
      },
      "properties": {
        "label": "Heljareyge",
        "type": "Reservoir",
        "entity": "http://www.wikidata.org/entity/Q29100728",
        "country_qid": "Q4628"
      }
    },
    {
      "type": "Feature",
      "geometry": {
        "type": "Point",
        "coordinates": [
          -6.52203,
          62.29781
        ]
      },
      "properties": {
        "label": "Q121782205",
        "type": "Hydraulic structure",
        "entity": "http://www.wikidata.org/entity/Q121782205",
        "country_qid": "Q4628"
      }
    },
    {
      "type": "Feature",
      "geometry": {
        "type": "Point",
        "coordinates": [
          -6.8,
          61.55
        ]
      },
      "properties": {
        "label": "Tvoroyri",
        "type": "Hydraulic structure",
        "entity": "http://www.wikidata.org/entity/Q111387608",
        "country_qid": "Q4628"
      }
    },
    {
      "type": "Feature",
      "geometry": {
        "type": "Point",
        "coordinates": [
          -7.6484087,
          62.1019426
        ]
      },
      "properties": {
        "label": "Q121782117",
        "type": "Hydraulic structure",
        "entity": "http://www.wikidata.org/entity/Q121782117",
        "country_qid": "Q4628"
      }
    },
    {
      "type": "Feature",
      "geometry": {
        "type": "Point",
        "coordinates": [
          -6.27586,
          62.32718
        ]
      },
      "properties": {
        "label": "Q121782223",
        "type": "Hydraulic structure",
        "entity": "http://www.wikidata.org/entity/Q121782223",
        "country_qid": "Q4628"
      }
    },
    {
      "type": "Feature",
      "geometry": {
        "type": "Point",
        "coordinates": [
          -7.32607,
          62.07101
        ]
      },
      "properties": {
        "label": "Q121782072",
        "type": "Hydraulic structure",
        "entity": "http://www.wikidata.org/entity/Q121782072",
        "country_qid": "Q4628"
      }
    },
    {
      "type": "Feature",
      "geometry": {
        "type": "Point",
        "coordinates": [
          -6.67247,
          62.00673
        ]
      },
      "properties": {
        "label": "Q121815549",
        "type": "Hydraulic structure",
        "entity": "http://www.wikidata.org/entity/Q121815549",
        "country_qid": "Q4628"
      }
    },
    {
      "type": "Feature",
      "geometry": {
        "type": "Point",
        "coordinates": [
          -6.76983333,
          62.00622222
        ]
      },
      "properties": {
        "label": "Port of Tórshavn",
        "type": "Hydraulic structure",
        "entity": "http://www.wikidata.org/entity/Q258746",
        "country_qid": "Q4628"
      }
    },
    {
      "type": "Feature",
      "geometry": {
        "type": "Point",
        "coordinates": [
          -6.589317462,
          62.230130517
        ]
      },
      "properties": {
        "label": "Q113463644",
        "type": "Hydraulic structure",
        "entity": "http://www.wikidata.org/entity/Q113463644",
        "country_qid": "Q4628"
      }
    }
  ]
}