{
  "type": "FeatureCollection",
  "features": [
    {
      "type": "Feature",
      "geometry": {
        "type": "Point",
        "coordinates": [
          41.01861111,
          43.15944444
        ]
      },
      "properties": {
        "label": "Sokhumi Hydro Power Plant",
        "type": "power plant",
        "entity": "http://www.wikidata.org/entity/Q4447455",
        "country_qid": "Q230"
      }
    },
    {
      "type": "Feature",
      "geometry": {
        "type": "Point",
        "coordinates": [
          42.70055556,
          42.15305556
        ]
      },
      "properties": {
        "label": "Cascade of Vartsikhe hydro power plants",
        "type": "power plant",
        "entity": "http://www.wikidata.org/entity/Q4104053",
        "country_qid": "Q230"
      }
    },
    {
      "type": "Feature",
      "geometry": {
        "type": "Point",
        "coordinates": [
          42.691944444,
          42.371944444
        ]
      },
      "properties": {
        "label": "Zhoneti Hydro Power Plant",
        "type": "power plant",
        "entity": "http://www.wikidata.org/entity/Q7353201",
        "country_qid": "Q230"
      }
    },
    {
      "type": "Feature",
      "geometry": {
        "type": "Point",
        "coordinates": [
          41.71447222,
          41.51511111
        ]
      },
      "properties": {
        "label": "Q84761121",
        "type": "power plant",
        "entity": "http://www.wikidata.org/entity/Q84761121",
        "country_qid": "Q230"
      }
    },
    {
      "type": "Feature",
      "geometry": {
        "type": "Point",
        "coordinates": [
          42.1534145,
          41.6387033
        ]
      },
      "properties": {
        "label": "Shuakhevi Hydro Power Plant",
        "type": "power plant",
        "entity": "http://www.wikidata.org/entity/Q6002123",
        "country_qid": "Q230"
      }
    },
    {
      "type": "Feature",
      "geometry": {
        "type": "Point",
        "coordinates": [
          43.29138889,
          41.4695
        ]
      },
      "properties": {
        "label": "Q84761127",
        "type": "power plant",
        "entity": "http://www.wikidata.org/entity/Q84761127",
        "country_qid": "Q230"
      }
    },
    {
      "type": "Feature",
      "geometry": {
        "type": "Point",
        "coordinates": [
          45.0605214,
          41.4704591
        ]
      },
      "properties": {
        "label": "Tbilsresi",
        "type": "power plant",
        "entity": "http://www.wikidata.org/entity/Q12864975",
        "country_qid": "Q230"
      }
    },
    {
      "type": "Feature",
      "geometry": {
        "type": "Point",
        "coordinates": [
          44.631111111,
          42.736111111
        ]
      },
      "properties": {
        "label": "Kazbegskaya Gidroelektricheskaya Stantsiya",
        "type": "power plant",
        "entity": "http://www.wikidata.org/entity/Q24687176",
        "country_qid": "Q230"
      }
    },
    {
      "type": "Feature",
      "geometry": {
        "type": "Point",
        "coordinates": [
          42.70388889,
          42.32027778
        ]
      },
      "properties": {
        "label": "Gumati 1 hydro power plant",
        "type": "power plant",
        "entity": "http://www.wikidata.org/entity/Q4152038",
        "country_qid": "Q230"
      }
    },
    {
      "type": "Feature",
      "geometry": {
        "type": "Point",
        "coordinates": [
          42.03101,
          42.7592
        ]
      },
      "properties": {
        "label": "Enguri hydroelectric power plant",
        "type": "power plant",
        "entity": "http://www.wikidata.org/entity/Q162887",
        "country_qid": "Q230"
      }
    },
    {
      "type": "Feature",
      "geometry": {
        "type": "Point",
        "coordinates": [
          44.9331,
          41.704775
        ]
      },
      "properties": {
        "label": "Tetrikhevi HPP",
        "type": "power plant",
        "entity": "http://www.wikidata.org/entity/Q131340136",
        "country_qid": "Q230"
      }
    },
    {
      "type": "Feature",
      "geometry": {
        "type": "Point",
        "coordinates": [
          44.7594444,
          41.8225
        ]
      },
      "properties": {
        "label": "Zemo Avchala Dam",
        "type": "power plant",
        "entity": "http://www.wikidata.org/entity/Q56665",
        "country_qid": "Q230"
      }
    },
    {
      "type": "Feature",
      "geometry": {
        "type": "Point",
        "coordinates": [
          43.00333,
          42.36361
        ]
      },
      "properties": {
        "label": "Shaori Hydro Power Plant",
        "type": "power plant",
        "entity": "http://www.wikidata.org/entity/Q4520171",
        "country_qid": "Q230"
      }
    },
    {
      "type": "Feature",
      "geometry": {
        "type": "Point",
        "coordinates": [
          44.771944444,
          42.135
        ]
      },
      "properties": {
        "label": "Zhinvali HPP",
        "type": "power plant",
        "entity": "http://www.wikidata.org/entity/Q3493773",
        "country_qid": "Q230"
      }
    },
    {
      "type": "Feature",
      "geometry": {
        "type": "Point",
        "coordinates": [
          43.11297222,
          41.68844444
        ]
      },
      "properties": {
        "label": "Q84761125",
        "type": "power plant",
        "entity": "http://www.wikidata.org/entity/Q84761125",
        "country_qid": "Q230"
      }
    },
    {
      "type": "Feature",
      "geometry": {
        "type": "Point",
        "coordinates": [
          41.75611111,
          42.65222222
        ]
      },
      "properties": {
        "label": "Vardnili Hydroelectric Power Station",
        "type": "power plant",
        "entity": "http://www.wikidata.org/entity/Q4350700",
        "country_qid": "Q230"
      }
    },
    {
      "type": "Feature",
      "geometry": {
        "type": "Point",
        "coordinates": [
          44.6326312,
          42.7319264
        ]
      },
      "properties": {
        "label": "Dariali Hydropower Plant",
        "type": "power plant",
        "entity": "http://www.wikidata.org/entity/Q11774288",
        "country_qid": "Q230"
      }
    },
    {
      "type": "Feature",
      "geometry": {
        "type": "Point",
        "coordinates": [
          45.0534582,
          41.738211
        ]
      },
      "properties": {
        "label": "Satskhenisi Hydro Power Plant",
        "type": "power plant",
        "entity": "http://www.wikidata.org/entity/Q16375544",
        "country_qid": "Q230"
      }
    },
    {
      "type": "Feature",
      "geometry": {
        "type": "Point",
        "coordinates": [
          44.77288889,
          42.13302778
        ]
      },
      "properties": {
        "label": "Q84761118",
        "type": "power plant",
        "entity": "http://www.wikidata.org/entity/Q84761118",
        "country_qid": "Q230"
      }
    },
    {
      "type": "Feature",
      "geometry": {
        "type": "Point",
        "coordinates": [
          44.214972222,
          41.465138888
        ]
      },
      "properties": {
        "label": "Khramhesi II",
        "type": "power plant",
        "entity": "http://www.wikidata.org/entity/Q4501177",
        "country_qid": "Q230"
      }
    },
    {
      "type": "Feature",
      "geometry": {
        "type": "Point",
        "coordinates": [
          42.19388889,
          42.95472222
        ]
      },
      "properties": {
        "label": "Khudoni Hydro Power Plant",
        "type": "power plant",
        "entity": "http://www.wikidata.org/entity/Q1326165",
        "country_qid": "Q230"
      }
    },
    {
      "type": "Feature",
      "geometry": {
        "type": "Point",
        "coordinates": [
          44.12055556,
          41.54833333
        ]
      },
      "properties": {
        "label": "Khramhesi I",
        "type": "power plant",
        "entity": "http://www.wikidata.org/entity/Q4501176",
        "country_qid": "Q230"
      }
    },
    {
      "type": "Feature",
      "geometry": {
        "type": "Point",
        "coordinates": [
          44.82611111,
          41.68277778
        ]
      },
      "properties": {
        "label": "Ortachala Hydro Power Plant",
        "type": "power plant",
        "entity": "http://www.wikidata.org/entity/Q4337097",
        "country_qid": "Q230"
      }
    },
    {
      "type": "Feature",
      "geometry": {
        "type": "Point",
        "coordinates": [
          40.151944444,
          43.448055555
        ]
      },
      "properties": {
        "label": "Bagnar Gidroelektricheskaya Stantsiya",
        "type": "power plant",
        "entity": "http://www.wikidata.org/entity/Q24687533",
        "country_qid": "Q230"
      }
    },
    {
      "type": "Feature",
      "geometry": {
        "type": "Point",
        "coordinates": [
          42.8472378,
          42.5668307
        ]
      },
      "properties": {
        "label": "Lajanuri Hydro Power Plant",
        "type": "power plant",
        "entity": "http://www.wikidata.org/entity/Q3650523",
        "country_qid": "Q230"
      }
    },
    {
      "type": "Feature",
      "geometry": {
        "type": "Point",
        "coordinates": [
          45.3315906,
          42.2530795
        ]
      },
      "properties": {
        "label": "Khadorhesi",
        "type": "power plant",
        "entity": "http://www.wikidata.org/entity/Q12871352",
        "country_qid": "Q230"
      }
    },
    {
      "type": "Feature",
      "geometry": {
        "type": "Point",
        "coordinates": [
          41.6780119,
          42.8421307
        ]
      },
      "properties": {
        "label": "Tkvarcheli thermal power plant",
        "type": "power plant",
        "entity": "http://www.wikidata.org/entity/Q19392642",
        "country_qid": "Q230"
      }
    },
    {
      "type": "Feature",
      "geometry": {
        "type": "Point",
        "coordinates": [
          42.380555555,
          43.047222222
        ]
      },
      "properties": {
        "label": "Nenskra hydro power plant",
        "type": "power plant",
        "entity": "http://www.wikidata.org/entity/Q27077030",
        "country_qid": "Q230"
      }
    },
    {
      "type": "Feature",
      "geometry": {
        "type": "Point",
        "coordinates": [
          41.86147222,
          41.57030556
        ]
      },
      "properties": {
        "label": "Atsi Hydro Power Plant",
        "type": "power plant",
        "entity": "http://www.wikidata.org/entity/Q4057513",
        "country_qid": "Q230"
      }
    },
    {
      "type": "Feature",
      "geometry": {
        "type": "Point",
        "coordinates": [
          42.71777778,
          42.30722222
        ]
      },
      "properties": {
        "label": "Gumati 2 hydro power plant",
        "type": "power plant",
        "entity": "http://www.wikidata.org/entity/Q4152037",
        "country_qid": "Q230"
      }
    },
    {
      "type": "Feature",
      "geometry": {
        "type": "Point",
        "coordinates": [
          42.725755,
          42.200587
        ]
      },
      "properties": {
        "label": "Rioni Hydroelectric Power Plant",
        "type": "power plant",
        "entity": "http://www.wikidata.org/entity/Q4394751",
        "country_qid": "Q230"
      }
    },
    {
      "type": "Feature",
      "geometry": {
        "type": "Point",
        "coordinates": [
          45.023611111,
          41.744722222
        ]
      },
      "properties": {
        "label": "Martkobi Gidroelektrostantsiya",
        "type": "power plant",
        "entity": "http://www.wikidata.org/entity/Q24687255",
        "country_qid": "Q230"
      }
    },
    {
      "type": "Feature",
      "geometry": {
        "type": "Point",
        "coordinates": [
          43.30111111,
          41.79138889
        ]
      },
      "properties": {
        "label": "Chitakhevi hydro power plant",
        "type": "power plant",
        "entity": "http://www.wikidata.org/entity/Q4516651",
        "country_qid": "Q230"
      }
    },
    {
      "type": "Feature",
      "geometry": {
        "type": "Point",
        "coordinates": [
          41.76163889,
          42.65247222
        ]
      },
      "properties": {
        "label": "Q84761112",
        "type": "power plant",
        "entity": "http://www.wikidata.org/entity/Q84761112",
        "country_qid": "Q230"
      }
    },
    {
      "type": "Feature",
      "geometry": {
        "type": "Point",
        "coordinates": [
          42.9573745,
          42.2620933
        ]
      },
      "properties": {
        "label": "Dzevri hydro power plant",
        "type": "power plant",
        "entity": "http://www.wikidata.org/entity/Q4459016",
        "country_qid": "Q230"
      }
    },
    {
      "type": "Feature",
      "geometry": {
        "type": "Point",
        "coordinates": [
          44.761294126,
          41.823533303
        ]
      },
      "properties": {
        "label": "Zahesi electrical substation",
        "type": "Electrical substation",
        "entity": "http://www.wikidata.org/entity/Q113496842",
        "country_qid": "Q230"
      }
    },
    {
      "type": "Feature",
      "geometry": {
        "type": "Point",
        "coordinates": [
          44.77407217,
          41.740049545
        ]
      },
      "properties": {
        "label": "Didube electrical substation",
        "type": "Electrical substation",
        "entity": "http://www.wikidata.org/entity/Q113496830",
        "country_qid": "Q230"
      }
    },
    {
      "type": "Feature",
      "geometry": {
        "type": "Point",
        "coordinates": [
          44.772972222,
          42.150555555
        ]
      },
      "properties": {
        "label": "Zhinvali reservoir",
        "type": "Reservoir",
        "entity": "http://www.wikidata.org/entity/Q24687340",
        "country_qid": "Q230"
      }
    },
    {
      "type": "Feature",
      "geometry": {
        "type": "Point",
        "coordinates": [
          44.520055555,
          41.588666666
        ]
      },
      "properties": {
        "label": "Algeti reservoir",
        "type": "Reservoir",
        "entity": "http://www.wikidata.org/entity/Q4060655",
        "country_qid": "Q230"
      }
    },
    {
      "type": "Feature",
      "geometry": {
        "type": "Point",
        "coordinates": [
          44.04988,
          41.62131
        ]
      },
      "properties": {
        "label": "Tsalka Reservoir",
        "type": "Reservoir",
        "entity": "http://www.wikidata.org/entity/Q3495441",
        "country_qid": "Q230"
      }
    },
    {
      "type": "Feature",
      "geometry": {
        "type": "Point",
        "coordinates": [
          42.929416666,
          42.295722222
        ]
      },
      "properties": {
        "label": "Tkibuli Reservoir",
        "type": "Reservoir",
        "entity": "http://www.wikidata.org/entity/Q4459019",
        "country_qid": "Q230"
      }
    },
    {
      "type": "Feature",
      "geometry": {
        "type": "Point",
        "coordinates": [
          44.155277777,
          41.338055555
        ]
      },
      "properties": {
        "label": "Q97252114",
        "type": "Reservoir",
        "entity": "http://www.wikidata.org/entity/Q97252114",
        "country_qid": "Q230"
      }
    },
    {
      "type": "Feature",
      "geometry": {
        "type": "Point",
        "coordinates": [
          43.076944444,
          42.422777777
        ]
      },
      "properties": {
        "label": "Shaori Reservoir",
        "type": "Reservoir",
        "entity": "http://www.wikidata.org/entity/Q24682231",
        "country_qid": "Q230"
      }
    },
    {
      "type": "Feature",
      "geometry": {
        "type": "Point",
        "coordinates": [
          45.809444444,
          41.525
        ]
      },
      "properties": {
        "label": "Q24690516",
        "type": "Reservoir",
        "entity": "http://www.wikidata.org/entity/Q24690516",
        "country_qid": "Q230"
      }
    },
    {
      "type": "Feature",
      "geometry": {
        "type": "Point",
        "coordinates": [
          44.999833333,
          42.005055555
        ]
      },
      "properties": {
        "label": "Sioni Reservoir",
        "type": "Reservoir",
        "entity": "http://www.wikidata.org/entity/Q12869325",
        "country_qid": "Q230"
      }
    },
    {
      "type": "Feature",
      "geometry": {
        "type": "Point",
        "coordinates": [
          45.882222222,
          41.925416666
        ]
      },
      "properties": {
        "label": "Q20581463",
        "type": "Reservoir",
        "entity": "http://www.wikidata.org/entity/Q20581463",
        "country_qid": "Q230"
      }
    },
    {
      "type": "Feature",
      "geometry": {
        "type": "Point",
        "coordinates": [
          41.801861111,
          42.654111111
        ]
      },
      "properties": {
        "label": "Gali Reservoir",
        "type": "Reservoir",
        "entity": "http://www.wikidata.org/entity/Q24687358",
        "country_qid": "Q230"
      }
    },
    {
      "type": "Feature",
      "geometry": {
        "type": "Point",
        "coordinates": [
          42.840277777,
          42.598055555
        ]
      },
      "properties": {
        "label": "Lajanura Reservoir",
        "type": "Reservoir",
        "entity": "http://www.wikidata.org/entity/Q24689598",
        "country_qid": "Q230"
      }
    },
    {
      "type": "Feature",
      "geometry": {
        "type": "Point",
        "coordinates": [
          42.724027777,
          42.166638888
        ]
      },
      "properties": {
        "label": "Q24682367",
        "type": "Reservoir",
        "entity": "http://www.wikidata.org/entity/Q24682367",
        "country_qid": "Q230"
      }
    },
    {
      "type": "Feature",
      "geometry": {
        "type": "Point",
        "coordinates": [
          44.180555555,
          42.286388888
        ]
      },
      "properties": {
        "label": "Zonkari reservoir",
        "type": "Reservoir",
        "entity": "http://www.wikidata.org/entity/Q141281",
        "country_qid": "Q230"
      }
    },
    {
      "type": "Feature",
      "geometry": {
        "type": "Point",
        "coordinates": [
          44.2827,
          41.99785
        ]
      },
      "properties": {
        "label": "Nadarbazevis Tba",
        "type": "Reservoir",
        "entity": "http://www.wikidata.org/entity/Q24683507",
        "country_qid": "Q230"
      }
    },
    {
      "type": "Feature",
      "geometry": {
        "type": "Point",
        "coordinates": [
          42.032777777,
          42.790277777
        ]
      },
      "properties": {
        "label": "Jvari Reservoir",
        "type": "Reservoir",
        "entity": "http://www.wikidata.org/entity/Q24687357",
        "country_qid": "Q230"
      }
    },
    {
      "type": "Feature",
      "geometry": {
        "type": "Point",
        "coordinates": [
          44.845555555,
          41.749444444
        ]
      },
      "properties": {
        "label": "Tbilisi sea",
        "type": "Reservoir",
        "entity": "http://www.wikidata.org/entity/Q1899389",
        "country_qid": "Q230"
      }
    },
    {
      "type": "Feature",
      "geometry": {
        "type": "Point",
        "coordinates": [
          44.751388888,
          41.546944444
        ]
      },
      "properties": {
        "label": "Q31354912",
        "type": "Reservoir",
        "entity": "http://www.wikidata.org/entity/Q31354912",
        "country_qid": "Q230"
      }
    },
    {
      "type": "Feature",
      "geometry": {
        "type": "Point",
        "coordinates": [
          42.696972222,
          42.336416666
        ]
      },
      "properties": {
        "label": "Q24687354",
        "type": "Reservoir",
        "entity": "http://www.wikidata.org/entity/Q24687354",
        "country_qid": "Q230"
      }
    },
    {
      "type": "Feature",
      "geometry": {
        "type": "Point",
        "coordinates": [
          45.878611111,
          41.293055555
        ]
      },
      "properties": {
        "label": "Q16368012",
        "type": "Reservoir",
        "entity": "http://www.wikidata.org/entity/Q16368012",
        "country_qid": "Q230"
      }
    },
    {
      "type": "Feature",
      "geometry": {
        "type": "Point",
        "coordinates": [
          42.026111111,
          42.861944444
        ]
      },
      "properties": {
        "label": "Q24687212",
        "type": "Reservoir",
        "entity": "http://www.wikidata.org/entity/Q24687212",
        "country_qid": "Q230"
      }
    },
    {
      "type": "Feature",
      "geometry": {
        "type": "Point",
        "coordinates": [
          44.759722222,
          41.515555555
        ]
      },
      "properties": {
        "label": "Kanal Basharkhi",
        "type": "Hydraulic structure",
        "entity": "http://www.wikidata.org/entity/Q24687162",
        "country_qid": "Q230"
      }
    },
    {
      "type": "Feature",
      "geometry": {
        "type": "Point",
        "coordinates": [
          45.18361,
          41.45806
        ]
      },
      "properties": {
        "label": "Q24683472",
        "type": "Hydraulic structure",
        "entity": "http://www.wikidata.org/entity/Q24683472",
        "country_qid": "Q230"
      }
    },
    {
      "type": "Feature",
      "geometry": {
        "type": "Point",
        "coordinates": [
          40.983333333,
          42.983333333
        ]
      },
      "properties": {
        "label": "Sokhumi",
        "type": "Hydraulic structure",
        "entity": "http://www.wikidata.org/entity/Q111387116",
        "country_qid": "Q230"
      }
    },
    {
      "type": "Feature",
      "geometry": {
        "type": "Point",
        "coordinates": [
          46.086944444,
          41.680277777
        ]
      },
      "properties": {
        "label": "Akhali-Arkhi",
        "type": "Hydraulic structure",
        "entity": "http://www.wikidata.org/entity/Q24687809",
        "country_qid": "Q230"
      }
    },
    {
      "type": "Feature",
      "geometry": {
        "type": "Point",
        "coordinates": [
          41.658333333,
          42.158888888
        ]
      },
      "properties": {
        "label": "Poti Sea Port",
        "type": "Hydraulic structure",
        "entity": "http://www.wikidata.org/entity/Q2917500",
        "country_qid": "Q230"
      }
    },
    {
      "type": "Feature",
      "geometry": {
        "type": "Point",
        "coordinates": [
          41.705833333,
          42.253888888
        ]
      },
      "properties": {
        "label": "Kanal Tsiva",
        "type": "Hydraulic structure",
        "entity": "http://www.wikidata.org/entity/Q24690494",
        "country_qid": "Q230"
      }
    },
    {
      "type": "Feature",
      "geometry": {
        "type": "Point",
        "coordinates": [
          41.661666666,
          42.245277777
        ]
      },
      "properties": {
        "label": "Kanal Tsiya",
        "type": "Hydraulic structure",
        "entity": "http://www.wikidata.org/entity/Q24687367",
        "country_qid": "Q230"
      }
    },
    {
      "type": "Feature",
      "geometry": {
        "type": "Point",
        "coordinates": [
          41.643806,
          41.652083
        ]
      },
      "properties": {
        "label": "Port of Batumi",
        "type": "Hydraulic structure",
        "entity": "http://www.wikidata.org/entity/Q32947491",
        "country_qid": "Q230"
      }
    },
    {
      "type": "Feature",
      "geometry": {
        "type": "Point",
        "coordinates": [
          41.716666666,
          42.1
        ]
      },
      "properties": {
        "label": "Supsa Marine Terminal",
        "type": "Hydraulic structure",
        "entity": "http://www.wikidata.org/entity/Q111386435",
        "country_qid": "Q230"
      }
    },
    {
      "type": "Feature",
      "geometry": {
        "type": "Point",
        "coordinates": [
          41.657431,
          41.647326
        ]
      },
      "properties": {
        "label": "Batumi seaport",
        "type": "Hydraulic structure",
        "entity": "http://www.wikidata.org/entity/Q30968284",
        "country_qid": "Q230"
      }
    },
    {
      "type": "Feature",
      "geometry": {
        "type": "Point",
        "coordinates": [
          45.663055555,
          41.9325
        ]
      },
      "properties": {
        "label": "Alaznis Arkhi",
        "type": "Hydraulic structure",
        "entity": "http://www.wikidata.org/entity/Q12861488",
        "country_qid": "Q230"
      }
    },
    {
      "type": "Feature",
      "geometry": {
        "type": "Point",
        "coordinates": [
          44.89333,
          41.715
        ]
      },
      "properties": {
        "label": "Q16374902",
        "type": "Hydraulic structure",
        "entity": "http://www.wikidata.org/entity/Q16374902",
        "country_qid": "Q230"
      }
    },
    {
      "type": "Feature",
      "geometry": {
        "type": "Point",
        "coordinates": [
          41.021516666,
          42.996266666
        ]
      },
      "properties": {
        "label": "Port of Sukhumi",
        "type": "Hydraulic structure",
        "entity": "http://www.wikidata.org/entity/Q109659326",
        "country_qid": "Q230"
      }
    },
    {
      "type": "Feature",
      "geometry": {
        "type": "Point",
        "coordinates": [
          40.27,
          43.247777777
        ]
      },
      "properties": {
        "label": "Kanal Kolkhida",
        "type": "Hydraulic structure",
        "entity": "http://www.wikidata.org/entity/Q24687474",
        "country_qid": "Q230"
      }
    },
    {
      "type": "Feature",
      "geometry": {
        "type": "Point",
        "coordinates": [
          44.911944444,
          41.640277777
        ]
      },
      "properties": {
        "label": "Q24687156",
        "type": "Hydraulic structure",
        "entity": "http://www.wikidata.org/entity/Q24687156",
        "country_qid": "Q230"
      }
    },
    {
      "type": "Feature",
      "geometry": {
        "type": "Point",
        "coordinates": [
          41.858333333,
          42.106666666
        ]
      },
      "properties": {
        "label": "Q24687637",
        "type": "Hydraulic structure",
        "entity": "http://www.wikidata.org/entity/Q24687637",
        "country_qid": "Q230"
      }
    },
    {
      "type": "Feature",
      "geometry": {
        "type": "Point",
        "coordinates": [
          44.894444444,
          41.717777777
        ]
      },
      "properties": {
        "label": "Zemo Magistraluri Arkhi",
        "type": "Hydraulic structure",
        "entity": "http://www.wikidata.org/entity/Q16374898",
        "country_qid": "Q230"
      }
    },
    {
      "type": "Feature",
      "geometry": {
        "type": "Point",
        "coordinates": [
          44.215555555,
          42.145833333
        ]
      },
      "properties": {
        "label": "Kanal Tirifonskiy",
        "type": "Hydraulic structure",
        "entity": "http://www.wikidata.org/entity/Q12869655",
        "country_qid": "Q230"
      }
    },
    {
      "type": "Feature",
      "geometry": {
        "type": "Point",
        "coordinates": [
          45.5125,
          41.618333333
        ]
      },
      "properties": {
        "label": "Didi-Arkhi",
        "type": "Hydraulic structure",
        "entity": "http://www.wikidata.org/entity/Q24687093",
        "country_qid": "Q230"
      }
    },
    {
      "type": "Feature",
      "geometry": {
        "type": "Point",
        "coordinates": [
          41.692323,
          42.135867
        ]
      },
      "properties": {
        "label": "Phasis",
        "type": "Industrial building",
        "entity": "http://www.wikidata.org/entity/Q127431013",
        "country_qid": "Q230"
      }
    },
    {
      "type": "Feature",
      "geometry": {
        "type": "Point",
        "coordinates": [
          43.01843,
          42.12009
        ]
      },
      "properties": {
        "label": "Zestaponi Ferroalloy Factory",
        "type": "Industrial building",
        "entity": "http://www.wikidata.org/entity/Q16369632",
        "country_qid": "Q230"
      }
    },
    {
      "type": "Feature",
      "geometry": {
        "type": "Point",
        "coordinates": [
          41.003076,
          42.993299
        ]
      },
      "properties": {
        "label": "Dioscurias",
        "type": "Industrial building",
        "entity": "http://www.wikidata.org/entity/Q127430134",
        "country_qid": "Q230"
      }
    },
    {
      "type": "Feature",
      "geometry": {
        "type": "Point",
        "coordinates": [
          44.83368,
          41.69411
        ]
      },
      "properties": {
        "label": "Tiflis",
        "type": "Industrial building",
        "entity": "http://www.wikidata.org/entity/Q127431427",
        "country_qid": "Q230"
      }
    },
    {
      "type": "Feature",
      "geometry": {
        "type": "Point",
        "coordinates": [
          44.393472,
          41.386561
        ]
      },
      "properties": {
        "label": "Sakdrisi",
        "type": "Mine",
        "entity": "http://www.wikidata.org/entity/Q17081159",
        "country_qid": "Q230"
      }
    },
    {
      "type": "Feature",
      "geometry": {
        "type": "Point",
        "coordinates": [
          43.283333333,
          42.25
        ]
      },
      "properties": {
        "label": "Chiatura mine",
        "type": "Mine",
        "entity": "http://www.wikidata.org/entity/Q17007079",
        "country_qid": "Q230"
      }
    },
    {
      "type": "Feature",
      "geometry": {
        "type": "Point",
        "coordinates": [
          44.0475,
          42.031666666
        ]
      },
      "properties": {
        "label": "Gori TV Broadcasting Tower",
        "type": "Communication tower",
        "entity": "http://www.wikidata.org/entity/Q5586423",
        "country_qid": "Q230"
      }
    },
    {
      "type": "Feature",
      "geometry": {
        "type": "Point",
        "coordinates": [
          44.784722222,
          41.695833333
        ]
      },
      "properties": {
        "label": "Tbilisi TV Broadcasting Tower",
        "type": "Communication tower",
        "entity": "http://www.wikidata.org/entity/Q1407344",
        "country_qid": "Q230"
      }
    }
  ]
}