{
  "type": "FeatureCollection",
  "features": [
    {
      "type": "Feature",
      "geometry": {
        "type": "Point",
        "coordinates": [
          -12.662,
          10.529
        ]
      },
      "properties": {
        "label": "Garafiri Hydroelectric Power Plant",
        "type": "power plant",
        "entity": "http://www.wikidata.org/entity/Q24853719",
        "country_qid": "Q1006"
      }
    },
    {
      "type": "Feature",
      "geometry": {
        "type": "Point",
        "coordinates": [
          -12.682222222,
          11.7675
        ]
      },
      "properties": {
        "label": "Khoumagueli Solar Power Station",
        "type": "power plant",
        "entity": "http://www.wikidata.org/entity/Q107223266",
        "country_qid": "Q1006"
      }
    },
    {
      "type": "Feature",
      "geometry": {
        "type": "Point",
        "coordinates": [
          -13.281,
          10.464111111
        ]
      },
      "properties": {
        "label": "Barrage de Kaléta",
        "type": "power plant",
        "entity": "http://www.wikidata.org/entity/Q30744033",
        "country_qid": "Q1006"
      }
    },
    {
      "type": "Feature",
      "geometry": {
        "type": "Point",
        "coordinates": [
          -13.2819,
          10.4634
        ]
      },
      "properties": {
        "label": "Kaleta Hydropower Plant",
        "type": "power plant",
        "entity": "http://www.wikidata.org/entity/Q104856249",
        "country_qid": "Q1006"
      }
    },
    {
      "type": "Feature",
      "geometry": {
        "type": "Point",
        "coordinates": [
          -13.697638888,
          9.519388888
        ]
      },
      "properties": {
        "label": "Kaloum power plant",
        "type": "power plant",
        "entity": "http://www.wikidata.org/entity/Q56372824",
        "country_qid": "Q1006"
      }
    },
    {
      "type": "Feature",
      "geometry": {
        "type": "Point",
        "coordinates": [
          -11.345833333,
          11.268333333
        ]
      },
      "properties": {
        "label": "Koukoutamba Hydroelectric Power Station",
        "type": "power plant",
        "entity": "http://www.wikidata.org/entity/Q108502779",
        "country_qid": "Q1006"
      }
    },
    {
      "type": "Feature",
      "geometry": {
        "type": "Point",
        "coordinates": [
          -13.251305555,
          10.424555555
        ]
      },
      "properties": {
        "label": "Souapiti Dam",
        "type": "power plant",
        "entity": "http://www.wikidata.org/entity/Q46963910",
        "country_qid": "Q1006"
      }
    },
    {
      "type": "Feature",
      "geometry": {
        "type": "Point",
        "coordinates": [
          -12.64,
          10.884166666
        ]
      },
      "properties": {
        "label": "Pita Hydroelectric Power Station",
        "type": "power plant",
        "entity": "http://www.wikidata.org/entity/Q108695986",
        "country_qid": "Q1006"
      }
    },
    {
      "type": "Feature",
      "geometry": {
        "type": "Point",
        "coordinates": [
          -13.7193,
          9.5144
        ]
      },
      "properties": {
        "label": "Port de Conakry",
        "type": "Hydraulic structure",
        "entity": "http://www.wikidata.org/entity/Q17332858",
        "country_qid": "Q1006"
      }
    },
    {
      "type": "Feature",
      "geometry": {
        "type": "Point",
        "coordinates": [
          -13.715693055,
          9.503910833
        ]
      },
      "properties": {
        "label": "Port de Pêche de Boulbinet",
        "type": "Hydraulic structure",
        "entity": "http://www.wikidata.org/entity/Q113218416",
        "country_qid": "Q1006"
      }
    },
    {
      "type": "Feature",
      "geometry": {
        "type": "Point",
        "coordinates": [
          -14.616666666,
          10.65
        ]
      },
      "properties": {
        "label": "Port of Kamsar",
        "type": "Hydraulic structure",
        "entity": "http://www.wikidata.org/entity/Q83616692",
        "country_qid": "Q1006"
      }
    },
    {
      "type": "Feature",
      "geometry": {
        "type": "Point",
        "coordinates": [
          -12.9963,
          10.0066
        ]
      },
      "properties": {
        "label": "Banieya Dam",
        "type": "Hydraulic structure",
        "entity": "http://www.wikidata.org/entity/Q11971557",
        "country_qid": "Q1006"
      }
    },
    {
      "type": "Feature",
      "geometry": {
        "type": "Point",
        "coordinates": [
          -13.2,
          9.166666666
        ]
      },
      "properties": {
        "label": "Benti",
        "type": "Hydraulic structure",
        "entity": "http://www.wikidata.org/entity/Q111387543",
        "country_qid": "Q1006"
      }
    },
    {
      "type": "Feature",
      "geometry": {
        "type": "Point",
        "coordinates": [
          -13.814444444,
          9.488611111
        ]
      },
      "properties": {
        "label": "Port Hug",
        "type": "Hydraulic structure",
        "entity": "http://www.wikidata.org/entity/Q24853801",
        "country_qid": "Q1006"
      }
    },
    {
      "type": "Feature",
      "geometry": {
        "type": "Point",
        "coordinates": [
          -13.1,
          9.916666666
        ]
      },
      "properties": {
        "label": "Barrage des Grandes Chutes",
        "type": "Hydraulic structure",
        "entity": "http://www.wikidata.org/entity/Q24850613",
        "country_qid": "Q1006"
      }
    },
    {
      "type": "Feature",
      "geometry": {
        "type": "Point",
        "coordinates": [
          -12.66261944,
          10.52977222
        ]
      },
      "properties": {
        "label": "Garafiri Dam",
        "type": "Hydraulic structure",
        "entity": "http://www.wikidata.org/entity/Q17015499",
        "country_qid": "Q1006"
      }
    },
    {
      "type": "Feature",
      "geometry": {
        "type": "Point",
        "coordinates": [
          -13.501718,
          9.722947
        ]
      },
      "properties": {
        "label": "Q108421709",
        "type": "Industrial building",
        "entity": "http://www.wikidata.org/entity/Q108421709",
        "country_qid": "Q1006"
      }
    },
    {
      "type": "Feature",
      "geometry": {
        "type": "Point",
        "coordinates": [
          -13.57824,
          10.38698
        ]
      },
      "properties": {
        "label": "Fria aluminum factory",
        "type": "Industrial building",
        "entity": "http://www.wikidata.org/entity/Q117409275",
        "country_qid": "Q1006"
      }
    },
    {
      "type": "Feature",
      "geometry": {
        "type": "Point",
        "coordinates": [
          -8.9,
          8.516666666
        ]
      },
      "properties": {
        "label": "Simandou mine",
        "type": "Mine",
        "entity": "http://www.wikidata.org/entity/Q16969455",
        "country_qid": "Q1006"
      }
    },
    {
      "type": "Feature",
      "geometry": {
        "type": "Point",
        "coordinates": [
          -13.766666666,
          11.1
        ]
      },
      "properties": {
        "label": "Q24848822",
        "type": "Mine",
        "entity": "http://www.wikidata.org/entity/Q24848822",
        "country_qid": "Q1006"
      }
    }
  ]
}