{
  "type": "FeatureCollection",
  "features": [
    {
      "type": "Feature",
      "geometry": {
        "type": "Point",
        "coordinates": [
          -87.981861111,
          15.040361111
        ]
      },
      "properties": {
        "label": "Río Lindo hydroelectric power station",
        "type": "power plant",
        "entity": "http://www.wikidata.org/entity/Q61448213",
        "country_qid": "Q783",
        "Wikidata Qid": "Q61448213"
      }
    },
    {
      "type": "Feature",
      "geometry": {
        "type": "Point",
        "coordinates": [
          -87.22,
          13.925
        ]
      },
      "properties": {
        "label": "Cerro de Hula wind farm",
        "type": "power plant",
        "entity": "http://www.wikidata.org/entity/Q16616331",
        "country_qid": "Q783",
        "Wikidata Qid": "Q16616331"
      }
    },
    {
      "type": "Feature",
      "geometry": {
        "type": "Point",
        "coordinates": [
          -87.75,
          15.03333333
        ]
      },
      "properties": {
        "label": "El Cajón Dam",
        "type": "power plant",
        "entity": "http://www.wikidata.org/entity/Q1242251",
        "country_qid": "Q783",
        "Wikidata Qid": "Q1242251"
      }
    },
    {
      "type": "Feature",
      "geometry": {
        "type": "Point",
        "coordinates": [
          -86.4675,
          16.346805555
        ]
      },
      "properties": {
        "label": "Roatán Power Plant",
        "type": "power plant",
        "entity": "http://www.wikidata.org/entity/Q56374155",
        "country_qid": "Q783",
        "Wikidata Qid": "Q56374155"
      }
    },
    {
      "type": "Feature",
      "geometry": {
        "type": "Point",
        "coordinates": [
          -87.666666666,
          15.033333333
        ]
      },
      "properties": {
        "label": "Q25287197",
        "type": "Reservoir",
        "entity": "http://www.wikidata.org/entity/Q25287197",
        "country_qid": "Q783",
        "Wikidata Qid": "Q25287197"
      }
    },
    {
      "type": "Feature",
      "geometry": {
        "type": "Point",
        "coordinates": [
          -87.358888888,
          13.196111111
        ]
      },
      "properties": {
        "label": "Q25282605",
        "type": "Hydraulic structure",
        "entity": "http://www.wikidata.org/entity/Q25282605",
        "country_qid": "Q783",
        "Wikidata Qid": "Q25282605"
      }
    },
    {
      "type": "Feature",
      "geometry": {
        "type": "Point",
        "coordinates": [
          -86.9,
          16.083333333
        ]
      },
      "properties": {
        "label": "Puerto Este",
        "type": "Hydraulic structure",
        "entity": "http://www.wikidata.org/entity/Q111387580",
        "country_qid": "Q783",
        "Wikidata Qid": "Q111387580"
      }
    },
    {
      "type": "Feature",
      "geometry": {
        "type": "Point",
        "coordinates": [
          -87.45,
          15.783333333
        ]
      },
      "properties": {
        "label": "Tela",
        "type": "Hydraulic structure",
        "entity": "http://www.wikidata.org/entity/Q111386468",
        "country_qid": "Q783",
        "Wikidata Qid": "Q111386468"
      }
    },
    {
      "type": "Feature",
      "geometry": {
        "type": "Point",
        "coordinates": [
          -86.55,
          16.316666666
        ]
      },
      "properties": {
        "label": "Coxen Hole",
        "type": "Hydraulic structure",
        "entity": "http://www.wikidata.org/entity/Q111386633",
        "country_qid": "Q783",
        "Wikidata Qid": "Q111386633"
      }
    },
    {
      "type": "Feature",
      "geometry": {
        "type": "Point",
        "coordinates": [
          -87.45,
          13.4
        ]
      },
      "properties": {
        "label": "Puerto de Hencan",
        "type": "Hydraulic structure",
        "entity": "http://www.wikidata.org/entity/Q111387023",
        "country_qid": "Q783",
        "Wikidata Qid": "Q111387023"
      }
    },
    {
      "type": "Feature",
      "geometry": {
        "type": "Point",
        "coordinates": [
          -85.95,
          15.916666666
        ]
      },
      "properties": {
        "label": "Trujillo",
        "type": "Hydraulic structure",
        "entity": "http://www.wikidata.org/entity/Q111386470",
        "country_qid": "Q783",
        "Wikidata Qid": "Q111386470"
      }
    },
    {
      "type": "Feature",
      "geometry": {
        "type": "Point",
        "coordinates": [
          -87.516666666,
          14.316666666
        ]
      },
      "properties": {
        "label": "Presa del Coyolar",
        "type": "Hydraulic structure",
        "entity": "http://www.wikidata.org/entity/Q25280528",
        "country_qid": "Q783",
        "Wikidata Qid": "Q25280528"
      }
    },
    {
      "type": "Feature",
      "geometry": {
        "type": "Point",
        "coordinates": [
          -85.983333333,
          16.0
        ]
      },
      "properties": {
        "label": "Puerto Castilla",
        "type": "Hydraulic structure",
        "entity": "http://www.wikidata.org/entity/Q111386471",
        "country_qid": "Q783",
        "Wikidata Qid": "Q111386471"
      }
    },
    {
      "type": "Feature",
      "geometry": {
        "type": "Point",
        "coordinates": [
          -87.866666666,
          15.816666666
        ]
      },
      "properties": {
        "label": "Canal de Chamber",
        "type": "Hydraulic structure",
        "entity": "http://www.wikidata.org/entity/Q25280245",
        "country_qid": "Q783",
        "Wikidata Qid": "Q25280245"
      }
    },
    {
      "type": "Feature",
      "geometry": {
        "type": "Point",
        "coordinates": [
          -88.18215,
          14.27285
        ]
      },
      "properties": {
        "label": "La Pozana",
        "type": "Hydraulic structure",
        "entity": "http://www.wikidata.org/entity/Q25284941",
        "country_qid": "Q783",
        "Wikidata Qid": "Q25284941"
      }
    },
    {
      "type": "Feature",
      "geometry": {
        "type": "Point",
        "coordinates": [
          -87.766666666,
          15.566666666
        ]
      },
      "properties": {
        "label": "Canal Seco",
        "type": "Hydraulic structure",
        "entity": "http://www.wikidata.org/entity/Q25269073",
        "country_qid": "Q783",
        "Wikidata Qid": "Q25269073"
      }
    },
    {
      "type": "Feature",
      "geometry": {
        "type": "Point",
        "coordinates": [
          -87.816666666,
          15.733333333
        ]
      },
      "properties": {
        "label": "Q25272013",
        "type": "Hydraulic structure",
        "entity": "http://www.wikidata.org/entity/Q25272013",
        "country_qid": "Q783",
        "Wikidata Qid": "Q25272013"
      }
    },
    {
      "type": "Feature",
      "geometry": {
        "type": "Point",
        "coordinates": [
          -86.8,
          15.783333333
        ]
      },
      "properties": {
        "label": "La Ceiba",
        "type": "Hydraulic structure",
        "entity": "http://www.wikidata.org/entity/Q111386469",
        "country_qid": "Q783",
        "Wikidata Qid": "Q111386469"
      }
    },
    {
      "type": "Feature",
      "geometry": {
        "type": "Point",
        "coordinates": [
          -87.022222222,
          13.281944444
        ]
      },
      "properties": {
        "label": "Clavo Rico",
        "type": "Mine",
        "entity": "http://www.wikidata.org/entity/Q25282552",
        "country_qid": "Q783",
        "Wikidata Qid": "Q25282552"
      }
    },
    {
      "type": "Feature",
      "geometry": {
        "type": "Point",
        "coordinates": [
          -88.9373,
          14.761
        ]
      },
      "properties": {
        "label": "Q19951150",
        "type": "Mine",
        "entity": "http://www.wikidata.org/entity/Q19951150",
        "country_qid": "Q783",
        "Wikidata Qid": "Q19951150"
      }
    },
    {
      "type": "Feature",
      "geometry": {
        "type": "Point",
        "coordinates": [
          -87.596388888,
          13.514444444
        ]
      },
      "properties": {
        "label": "Q25284528",
        "type": "Mine",
        "entity": "http://www.wikidata.org/entity/Q25284528",
        "country_qid": "Q783",
        "Wikidata Qid": "Q25284528"
      }
    },
    {
      "type": "Feature",
      "geometry": {
        "type": "Point",
        "coordinates": [
          -87.135555555,
          13.764444444
        ]
      },
      "properties": {
        "label": "Mineral de Yeso",
        "type": "Mine",
        "entity": "http://www.wikidata.org/entity/Q25283907",
        "country_qid": "Q783",
        "Wikidata Qid": "Q25283907"
      }
    },
    {
      "type": "Feature",
      "geometry": {
        "type": "Point",
        "coordinates": [
          -88.08333,
          14.83333
        ]
      },
      "properties": {
        "label": "El Mochito mine",
        "type": "Mine",
        "entity": "http://www.wikidata.org/entity/Q5351608",
        "country_qid": "Q783",
        "Wikidata Qid": "Q5351608"
      }
    }
  ]
}