{
  "type": "FeatureCollection",
  "features": [
    {
      "type": "Feature",
      "geometry": {
        "type": "Point",
        "coordinates": [
          20.907675,
          48.097814
        ]
      },
      "properties": {
        "label": "Q999642",
        "type": "power plant",
        "entity": "http://www.wikidata.org/entity/Q999642",
        "country_qid": "Q28",
        "Wikidata Qid": "Q999642"
      }
    },
    {
      "type": "Feature",
      "geometry": {
        "type": "Point",
        "coordinates": [
          17.559444,
          47.096111
        ]
      },
      "properties": {
        "label": "Q106413846",
        "type": "power plant",
        "entity": "http://www.wikidata.org/entity/Q106413846",
        "country_qid": "Q28",
        "Wikidata Qid": "Q106413846"
      }
    },
    {
      "type": "Feature",
      "geometry": {
        "type": "Point",
        "coordinates": [
          20.0625,
          47.79027778
        ]
      },
      "properties": {
        "label": "Mátra Power Plant",
        "type": "power plant",
        "entity": "http://www.wikidata.org/entity/Q168477",
        "country_qid": "Q28",
        "Wikidata Qid": "Q168477"
      }
    },
    {
      "type": "Feature",
      "geometry": {
        "type": "Point",
        "coordinates": [
          18.9053,
          47.3338
        ]
      },
      "properties": {
        "label": "Dunai Solar Park",
        "type": "power plant",
        "entity": "http://www.wikidata.org/entity/Q65074237",
        "country_qid": "Q28",
        "Wikidata Qid": "Q65074237"
      }
    },
    {
      "type": "Feature",
      "geometry": {
        "type": "Point",
        "coordinates": [
          20.883333,
          48.1
        ]
      },
      "properties": {
        "label": "Felsőzsolca Solar Park",
        "type": "power plant",
        "entity": "http://www.wikidata.org/entity/Q65074225",
        "country_qid": "Q28",
        "Wikidata Qid": "Q65074225"
      }
    },
    {
      "type": "Feature",
      "geometry": {
        "type": "Point",
        "coordinates": [
          19.055561111,
          47.463177777
        ]
      },
      "properties": {
        "label": "Kelenföld power station",
        "type": "power plant",
        "entity": "http://www.wikidata.org/entity/Q20440045",
        "country_qid": "Q28",
        "Wikidata Qid": "Q20440045"
      }
    },
    {
      "type": "Feature",
      "geometry": {
        "type": "Point",
        "coordinates": [
          19.165,
          47.456667
        ]
      },
      "properties": {
        "label": "Kispesti Erőmű",
        "type": "power plant",
        "entity": "http://www.wikidata.org/entity/Q1111392",
        "country_qid": "Q28",
        "Wikidata Qid": "Q1111392"
      }
    },
    {
      "type": "Feature",
      "geometry": {
        "type": "Point",
        "coordinates": [
          18.918333333,
          47.071666666
        ]
      },
      "properties": {
        "label": "Kulcsi wind farm",
        "type": "power plant",
        "entity": "http://www.wikidata.org/entity/Q1121741",
        "country_qid": "Q28",
        "Wikidata Qid": "Q1121741"
      }
    },
    {
      "type": "Feature",
      "geometry": {
        "type": "Point",
        "coordinates": [
          18.85416667,
          46.5725
        ]
      },
      "properties": {
        "label": "Paks Nuclear Power Plant",
        "type": "power plant",
        "entity": "http://www.wikidata.org/entity/Q1188635",
        "country_qid": "Q28",
        "Wikidata Qid": "Q1188635"
      }
    },
    {
      "type": "Feature",
      "geometry": {
        "type": "Point",
        "coordinates": [
          21.081688,
          48.261813
        ]
      },
      "properties": {
        "label": "Hydropower plant Felsődobsza",
        "type": "power plant",
        "entity": "http://www.wikidata.org/entity/Q121863498",
        "country_qid": "Q28",
        "Wikidata Qid": "Q121863498"
      }
    },
    {
      "type": "Feature",
      "geometry": {
        "type": "Point",
        "coordinates": [
          16.86888889,
          47.20083333
        ]
      },
      "properties": {
        "label": "Ikervár Wind Farm",
        "type": "power plant",
        "entity": "http://www.wikidata.org/entity/Q15228183",
        "country_qid": "Q28",
        "Wikidata Qid": "Q15228183"
      }
    },
    {
      "type": "Feature",
      "geometry": {
        "type": "Point",
        "coordinates": [
          21.055556,
          47.905278
        ]
      },
      "properties": {
        "label": "Q106413850",
        "type": "power plant",
        "entity": "http://www.wikidata.org/entity/Q106413850",
        "country_qid": "Q28",
        "Wikidata Qid": "Q106413850"
      }
    },
    {
      "type": "Feature",
      "geometry": {
        "type": "Point",
        "coordinates": [
          21.033205161,
          47.995969766
        ]
      },
      "properties": {
        "label": "Kesznyéten Hydroelectric Power Plant",
        "type": "power plant",
        "entity": "http://www.wikidata.org/entity/Q110664364",
        "country_qid": "Q28",
        "Wikidata Qid": "Q110664364"
      }
    },
    {
      "type": "Feature",
      "geometry": {
        "type": "Point",
        "coordinates": [
          19.677833333,
          47.716666666
        ]
      },
      "properties": {
        "label": "Lőrinci Gas Turbine Plant",
        "type": "power plant",
        "entity": "http://www.wikidata.org/entity/Q1212615",
        "country_qid": "Q28",
        "Wikidata Qid": "Q1212615"
      }
    },
    {
      "type": "Feature",
      "geometry": {
        "type": "Point",
        "coordinates": [
          17.17694444,
          47.81583333
        ]
      },
      "properties": {
        "label": "Q1472869",
        "type": "power plant",
        "entity": "http://www.wikidata.org/entity/Q1472869",
        "country_qid": "Q28",
        "Wikidata Qid": "Q1472869"
      }
    },
    {
      "type": "Feature",
      "geometry": {
        "type": "Point",
        "coordinates": [
          18.91732,
          47.32802
        ]
      },
      "properties": {
        "label": "Dunamenti Erőmű Power Plant",
        "type": "power plant",
        "entity": "http://www.wikidata.org/entity/Q911400",
        "country_qid": "Q28",
        "Wikidata Qid": "Q911400"
      }
    },
    {
      "type": "Feature",
      "geometry": {
        "type": "Point",
        "coordinates": [
          17.556111,
          47.094444
        ]
      },
      "properties": {
        "label": "Q106413847",
        "type": "power plant",
        "entity": "http://www.wikidata.org/entity/Q106413847",
        "country_qid": "Q28",
        "Wikidata Qid": "Q106413847"
      }
    },
    {
      "type": "Feature",
      "geometry": {
        "type": "Point",
        "coordinates": [
          17.06599,
          47.31146
        ]
      },
      "properties": {
        "label": "Q97343012",
        "type": "power plant",
        "entity": "http://www.wikidata.org/entity/Q97343012",
        "country_qid": "Q28",
        "Wikidata Qid": "Q97343012"
      }
    },
    {
      "type": "Feature",
      "geometry": {
        "type": "Point",
        "coordinates": [
          18.2702353,
          47.5017073
        ]
      },
      "properties": {
        "label": "Oroszlány power plant",
        "type": "power plant",
        "entity": "http://www.wikidata.org/entity/Q11994119",
        "country_qid": "Q28",
        "Wikidata Qid": "Q11994119"
      }
    },
    {
      "type": "Feature",
      "geometry": {
        "type": "Point",
        "coordinates": [
          18.201147,
          47.19977
        ]
      },
      "properties": {
        "label": "Inota Power Plant",
        "type": "power plant",
        "entity": "http://www.wikidata.org/entity/Q25863105",
        "country_qid": "Q28",
        "Wikidata Qid": "Q25863105"
      }
    },
    {
      "type": "Feature",
      "geometry": {
        "type": "Point",
        "coordinates": [
          20.51556944,
          47.49296111
        ]
      },
      "properties": {
        "label": "Tisza Dam",
        "type": "power plant",
        "entity": "http://www.wikidata.org/entity/Q17025650",
        "country_qid": "Q28",
        "Wikidata Qid": "Q17025650"
      }
    },
    {
      "type": "Feature",
      "geometry": {
        "type": "Point",
        "coordinates": [
          18.2573569,
          46.0596455
        ]
      },
      "properties": {
        "label": "Pécs Solar Park",
        "type": "power plant",
        "entity": "http://www.wikidata.org/entity/Q31093036",
        "country_qid": "Q28",
        "Wikidata Qid": "Q31093036"
      }
    },
    {
      "type": "Feature",
      "geometry": {
        "type": "Point",
        "coordinates": [
          18.26388889,
          46.06305556
        ]
      },
      "properties": {
        "label": "Pécs Power Station",
        "type": "power plant",
        "entity": "http://www.wikidata.org/entity/Q7264652",
        "country_qid": "Q28",
        "Wikidata Qid": "Q7264652"
      }
    },
    {
      "type": "Feature",
      "geometry": {
        "type": "Point",
        "coordinates": [
          16.599021,
          47.001024
        ]
      },
      "properties": {
        "label": "Q99571590",
        "type": "power plant",
        "entity": "http://www.wikidata.org/entity/Q99571590",
        "country_qid": "Q28",
        "Wikidata Qid": "Q99571590"
      }
    },
    {
      "type": "Feature",
      "geometry": {
        "type": "Point",
        "coordinates": [
          18.1952,
          47.204
        ]
      },
      "properties": {
        "label": "Q1097217",
        "type": "power plant",
        "entity": "http://www.wikidata.org/entity/Q1097217",
        "country_qid": "Q28",
        "Wikidata Qid": "Q1097217"
      }
    },
    {
      "type": "Feature",
      "geometry": {
        "type": "Point",
        "coordinates": [
          18.07111111,
          47.67472222
        ]
      },
      "properties": {
        "label": "Kisigmánd Wind Farm",
        "type": "power plant",
        "entity": "http://www.wikidata.org/entity/Q6416710",
        "country_qid": "Q28",
        "Wikidata Qid": "Q6416710"
      }
    },
    {
      "type": "Feature",
      "geometry": {
        "type": "Point",
        "coordinates": [
          21.1635,
          48.317944
        ]
      },
      "properties": {
        "label": "Gibárt Hydroelectric Power Plant",
        "type": "power plant",
        "entity": "http://www.wikidata.org/entity/Q56391938",
        "country_qid": "Q28",
        "Wikidata Qid": "Q56391938"
      }
    },
    {
      "type": "Feature",
      "geometry": {
        "type": "Point",
        "coordinates": [
          20.9698966,
          47.9394231
        ]
      },
      "properties": {
        "label": "Sajószöged Gas Turbine Power Plant",
        "type": "power plant",
        "entity": "http://www.wikidata.org/entity/Q106413862",
        "country_qid": "Q28",
        "Wikidata Qid": "Q106413862"
      }
    },
    {
      "type": "Feature",
      "geometry": {
        "type": "Point",
        "coordinates": [
          20.4995,
          46.891
        ]
      },
      "properties": {
        "label": "Békésszentandrás Weir",
        "type": "power plant",
        "entity": "http://www.wikidata.org/entity/Q854153",
        "country_qid": "Q28",
        "Wikidata Qid": "Q854153"
      }
    },
    {
      "type": "Feature",
      "geometry": {
        "type": "Point",
        "coordinates": [
          17.17583333,
          47.81544444
        ]
      },
      "properties": {
        "label": "Q1179341",
        "type": "power plant",
        "entity": "http://www.wikidata.org/entity/Q1179341",
        "country_qid": "Q28",
        "Wikidata Qid": "Q1179341"
      }
    },
    {
      "type": "Feature",
      "geometry": {
        "type": "Point",
        "coordinates": [
          16.934138,
          47.2173015
        ]
      },
      "properties": {
        "label": "Ikervár Hydroelectric Power Plant",
        "type": "power plant",
        "entity": "http://www.wikidata.org/entity/Q1096292",
        "country_qid": "Q28",
        "Wikidata Qid": "Q1096292"
      }
    },
    {
      "type": "Feature",
      "geometry": {
        "type": "Point",
        "coordinates": [
          21.05574,
          47.90531
        ]
      },
      "properties": {
        "label": "Power Plant Tiszapalkonya",
        "type": "power plant",
        "entity": "http://www.wikidata.org/entity/Q19392588",
        "country_qid": "Q28",
        "Wikidata Qid": "Q19392588"
      }
    },
    {
      "type": "Feature",
      "geometry": {
        "type": "Point",
        "coordinates": [
          19.0525,
          47.428
        ]
      },
      "properties": {
        "label": "Csepel II power plant",
        "type": "power plant",
        "entity": "http://www.wikidata.org/entity/Q11964226",
        "country_qid": "Q28",
        "Wikidata Qid": "Q11964226"
      }
    },
    {
      "type": "Feature",
      "geometry": {
        "type": "Point",
        "coordinates": [
          18.0142776,
          47.1076159
        ]
      },
      "properties": {
        "label": "Litér Gas Turbine Power Plant",
        "type": "power plant",
        "entity": "http://www.wikidata.org/entity/Q106413860",
        "country_qid": "Q28",
        "Wikidata Qid": "Q106413860"
      }
    },
    {
      "type": "Feature",
      "geometry": {
        "type": "Point",
        "coordinates": [
          17.803306,
          47.738389
        ]
      },
      "properties": {
        "label": "Gönyű power plant",
        "type": "power plant",
        "entity": "http://www.wikidata.org/entity/Q30973081",
        "country_qid": "Q28",
        "Wikidata Qid": "Q30973081"
      }
    },
    {
      "type": "Feature",
      "geometry": {
        "type": "Point",
        "coordinates": [
          18.939722222,
          46.921388888
        ]
      },
      "properties": {
        "label": "Dunaújváros Power Plant",
        "type": "power plant",
        "entity": "http://www.wikidata.org/entity/Q5314110",
        "country_qid": "Q28",
        "Wikidata Qid": "Q5314110"
      }
    },
    {
      "type": "Feature",
      "geometry": {
        "type": "Point",
        "coordinates": [
          20.05,
          47.8
        ]
      },
      "properties": {
        "label": "Mátra Solar Power Plant",
        "type": "power plant",
        "entity": "http://www.wikidata.org/entity/Q65074339",
        "country_qid": "Q28",
        "Wikidata Qid": "Q65074339"
      }
    },
    {
      "type": "Feature",
      "geometry": {
        "type": "Point",
        "coordinates": [
          20.44625,
          47.1432
        ]
      },
      "properties": {
        "label": "Törökszentmiklós Wind Farm",
        "type": "power plant",
        "entity": "http://www.wikidata.org/entity/Q1328584",
        "country_qid": "Q28",
        "Wikidata Qid": "Q1328584"
      }
    },
    {
      "type": "Feature",
      "geometry": {
        "type": "Point",
        "coordinates": [
          20.57576,
          47.01823
        ]
      },
      "properties": {
        "label": "Wind turbine in Mezőtúr",
        "type": "power plant",
        "entity": "http://www.wikidata.org/entity/Q1176581",
        "country_qid": "Q28",
        "Wikidata Qid": "Q1176581"
      }
    },
    {
      "type": "Feature",
      "geometry": {
        "type": "Point",
        "coordinates": [
          16.79694444,
          46.75277778
        ]
      },
      "properties": {
        "label": "Gellénháza Power Plant",
        "type": "power plant",
        "entity": "http://www.wikidata.org/entity/Q5530478",
        "country_qid": "Q28",
        "Wikidata Qid": "Q5530478"
      }
    },
    {
      "type": "Feature",
      "geometry": {
        "type": "Point",
        "coordinates": [
          21.0756756,
          47.9168905
        ]
      },
      "properties": {
        "label": "Tisza II power plant",
        "type": "power plant",
        "entity": "http://www.wikidata.org/entity/Q12006462",
        "country_qid": "Q28",
        "Wikidata Qid": "Q12006462"
      }
    },
    {
      "type": "Feature",
      "geometry": {
        "type": "Point",
        "coordinates": [
          21.908017,
          47.737657
        ]
      },
      "properties": {
        "label": "Szakoly Power Plant",
        "type": "power plant",
        "entity": "http://www.wikidata.org/entity/Q7664095",
        "country_qid": "Q28",
        "Wikidata Qid": "Q7664095"
      }
    },
    {
      "type": "Feature",
      "geometry": {
        "type": "Point",
        "coordinates": [
          21.3078761,
          48.0251409
        ]
      },
      "properties": {
        "label": "Tiszalök Hydroelectric Power Pant",
        "type": "power plant",
        "entity": "http://www.wikidata.org/entity/Q28830084",
        "country_qid": "Q28",
        "Wikidata Qid": "Q28830084"
      }
    },
    {
      "type": "Feature",
      "geometry": {
        "type": "Point",
        "coordinates": [
          20.684722,
          48.234722
        ]
      },
      "properties": {
        "label": "Borsod Power Plant",
        "type": "power plant",
        "entity": "http://www.wikidata.org/entity/Q4946672",
        "country_qid": "Q28",
        "Wikidata Qid": "Q4946672"
      }
    },
    {
      "type": "Feature",
      "geometry": {
        "type": "Point",
        "coordinates": [
          19.6775,
          47.709167
        ]
      },
      "properties": {
        "label": "Q106413852",
        "type": "power plant",
        "entity": "http://www.wikidata.org/entity/Q106413852",
        "country_qid": "Q28",
        "Wikidata Qid": "Q106413852"
      }
    },
    {
      "type": "Feature",
      "geometry": {
        "type": "Point",
        "coordinates": [
          19.101944,
          47.553889
        ]
      },
      "properties": {
        "label": "Újpest Gas Turbine Plant",
        "type": "power plant",
        "entity": "http://www.wikidata.org/entity/Q18107922",
        "country_qid": "Q28",
        "Wikidata Qid": "Q18107922"
      }
    },
    {
      "type": "Feature",
      "geometry": {
        "type": "Point",
        "coordinates": [
          18.3725,
          47.572778
        ]
      },
      "properties": {
        "label": "Q106413855",
        "type": "power plant",
        "entity": "http://www.wikidata.org/entity/Q106413855",
        "country_qid": "Q28",
        "Wikidata Qid": "Q106413855"
      }
    },
    {
      "type": "Feature",
      "geometry": {
        "type": "Point",
        "coordinates": [
          21.600784063,
          47.566500504
        ]
      },
      "properties": {
        "label": "Electrical substation debrecen",
        "type": "Electrical substation",
        "entity": "http://www.wikidata.org/entity/Q113329582",
        "country_qid": "Q28",
        "Wikidata Qid": "Q113329582"
      }
    },
    {
      "type": "Feature",
      "geometry": {
        "type": "Point",
        "coordinates": [
          21.679211854,
          47.930893821
        ]
      },
      "properties": {
        "label": "Nyiregyhaza substation",
        "type": "Electrical substation",
        "entity": "http://www.wikidata.org/entity/Q113329600",
        "country_qid": "Q28",
        "Wikidata Qid": "Q113329600"
      }
    },
    {
      "type": "Feature",
      "geometry": {
        "type": "Point",
        "coordinates": [
          19.041661,
          47.439902
        ]
      },
      "properties": {
        "label": "Albertfalva substation",
        "type": "Electrical substation",
        "entity": "http://www.wikidata.org/entity/Q24067620",
        "country_qid": "Q28",
        "Wikidata Qid": "Q24067620"
      }
    },
    {
      "type": "Feature",
      "geometry": {
        "type": "Point",
        "coordinates": [
          18.844166666,
          47.473888888
        ]
      },
      "properties": {
        "label": "Biatorbágy substation",
        "type": "Electrical substation",
        "entity": "http://www.wikidata.org/entity/Q53040126",
        "country_qid": "Q28",
        "Wikidata Qid": "Q53040126"
      }
    },
    {
      "type": "Feature",
      "geometry": {
        "type": "Point",
        "coordinates": [
          20.666666666,
          47.6
        ]
      },
      "properties": {
        "label": "Lake Tisza",
        "type": "Reservoir",
        "entity": "http://www.wikidata.org/entity/Q1072359",
        "country_qid": "Q28",
        "Wikidata Qid": "Q1072359"
      }
    },
    {
      "type": "Feature",
      "geometry": {
        "type": "Point",
        "coordinates": [
          20.718131,
          47.666364
        ]
      },
      "properties": {
        "label": "Q1321471",
        "type": "Reservoir",
        "entity": "http://www.wikidata.org/entity/Q1321471",
        "country_qid": "Q28",
        "Wikidata Qid": "Q1321471"
      }
    },
    {
      "type": "Feature",
      "geometry": {
        "type": "Point",
        "coordinates": [
          18.247222222,
          47.285277777
        ]
      },
      "properties": {
        "label": "Fehérvárcsurgó reservoir",
        "type": "Reservoir",
        "entity": "http://www.wikidata.org/entity/Q997741",
        "country_qid": "Q28",
        "Wikidata Qid": "Q997741"
      }
    },
    {
      "type": "Feature",
      "geometry": {
        "type": "Point",
        "coordinates": [
          18.153611111,
          46.143611111
        ]
      },
      "properties": {
        "label": "Lake Orfű",
        "type": "Reservoir",
        "entity": "http://www.wikidata.org/entity/Q535617",
        "country_qid": "Q28",
        "Wikidata Qid": "Q535617"
      }
    },
    {
      "type": "Feature",
      "geometry": {
        "type": "Point",
        "coordinates": [
          20.464444,
          48.207222
        ]
      },
      "properties": {
        "label": "Lázbérc Reservoir",
        "type": "Reservoir",
        "entity": "http://www.wikidata.org/entity/Q1160330",
        "country_qid": "Q28",
        "Wikidata Qid": "Q1160330"
      }
    },
    {
      "type": "Feature",
      "geometry": {
        "type": "Point",
        "coordinates": [
          17.086222,
          46.941944
        ]
      },
      "properties": {
        "label": "Q95568182",
        "type": "Reservoir",
        "entity": "http://www.wikidata.org/entity/Q95568182",
        "country_qid": "Q28",
        "Wikidata Qid": "Q95568182"
      }
    },
    {
      "type": "Feature",
      "geometry": {
        "type": "Point",
        "coordinates": [
          21.55,
          46.833333333
        ]
      },
      "properties": {
        "label": "Q26230184",
        "type": "Reservoir",
        "entity": "http://www.wikidata.org/entity/Q26230184",
        "country_qid": "Q28",
        "Wikidata Qid": "Q26230184"
      }
    },
    {
      "type": "Feature",
      "geometry": {
        "type": "Point",
        "coordinates": [
          19.0436553,
          47.4938833
        ]
      },
      "properties": {
        "label": "Várkert Palace",
        "type": "Reservoir",
        "entity": "http://www.wikidata.org/entity/Q1462035",
        "country_qid": "Q28",
        "Wikidata Qid": "Q1462035"
      }
    },
    {
      "type": "Feature",
      "geometry": {
        "type": "Point",
        "coordinates": [
          21.283333333,
          47.533333333
        ]
      },
      "properties": {
        "label": "Q26230422",
        "type": "Reservoir",
        "entity": "http://www.wikidata.org/entity/Q26230422",
        "country_qid": "Q28",
        "Wikidata Qid": "Q26230422"
      }
    },
    {
      "type": "Feature",
      "geometry": {
        "type": "Point",
        "coordinates": [
          20.78333,
          48.45
        ]
      },
      "properties": {
        "label": "Rakaca Reservoir",
        "type": "Reservoir",
        "entity": "http://www.wikidata.org/entity/Q26228560",
        "country_qid": "Q28",
        "Wikidata Qid": "Q26228560"
      }
    },
    {
      "type": "Feature",
      "geometry": {
        "type": "Point",
        "coordinates": [
          21.166666666,
          47.566666666
        ]
      },
      "properties": {
        "label": "Q26229524",
        "type": "Reservoir",
        "entity": "http://www.wikidata.org/entity/Q26229524",
        "country_qid": "Q28",
        "Wikidata Qid": "Q26229524"
      }
    },
    {
      "type": "Feature",
      "geometry": {
        "type": "Point",
        "coordinates": [
          18.95204444,
          47.61078889
        ]
      },
      "properties": {
        "label": "Házirét reservoir",
        "type": "Reservoir",
        "entity": "http://www.wikidata.org/entity/Q26258965",
        "country_qid": "Q28",
        "Wikidata Qid": "Q26258965"
      }
    },
    {
      "type": "Feature",
      "geometry": {
        "type": "Point",
        "coordinates": [
          18.796944444,
          47.468055555
        ]
      },
      "properties": {
        "label": "Q26233412",
        "type": "Reservoir",
        "entity": "http://www.wikidata.org/entity/Q26233412",
        "country_qid": "Q28",
        "Wikidata Qid": "Q26233412"
      }
    },
    {
      "type": "Feature",
      "geometry": {
        "type": "Point",
        "coordinates": [
          18.910872,
          47.645472
        ]
      },
      "properties": {
        "label": "Határrét reservoir",
        "type": "Reservoir",
        "entity": "http://www.wikidata.org/entity/Q28722718",
        "country_qid": "Q28",
        "Wikidata Qid": "Q28722718"
      }
    },
    {
      "type": "Feature",
      "geometry": {
        "type": "Point",
        "coordinates": [
          20.6166667,
          48.0999994
        ]
      },
      "properties": {
        "label": "Hámori Lake",
        "type": "Reservoir",
        "entity": "http://www.wikidata.org/entity/Q18122223",
        "country_qid": "Q28",
        "Wikidata Qid": "Q18122223"
      }
    },
    {
      "type": "Feature",
      "geometry": {
        "type": "Point",
        "coordinates": [
          19.95675,
          47.88711
        ]
      },
      "properties": {
        "label": "Q26233539",
        "type": "Reservoir",
        "entity": "http://www.wikidata.org/entity/Q26233539",
        "country_qid": "Q28",
        "Wikidata Qid": "Q26233539"
      }
    },
    {
      "type": "Feature",
      "geometry": {
        "type": "Point",
        "coordinates": [
          20.6,
          47.516666666
        ]
      },
      "properties": {
        "label": "Q26229691",
        "type": "Reservoir",
        "entity": "http://www.wikidata.org/entity/Q26229691",
        "country_qid": "Q28",
        "Wikidata Qid": "Q26229691"
      }
    },
    {
      "type": "Feature",
      "geometry": {
        "type": "Point",
        "coordinates": [
          19.8468,
          47.99429
        ]
      },
      "properties": {
        "label": "Maconka Reservoir",
        "type": "Reservoir",
        "entity": "http://www.wikidata.org/entity/Q28453674",
        "country_qid": "Q28",
        "Wikidata Qid": "Q28453674"
      }
    },
    {
      "type": "Feature",
      "geometry": {
        "type": "Point",
        "coordinates": [
          16.816378,
          46.864036
        ]
      },
      "properties": {
        "label": "Gébárti Lake",
        "type": "Reservoir",
        "entity": "http://www.wikidata.org/entity/Q1031271",
        "country_qid": "Q28",
        "Wikidata Qid": "Q1031271"
      }
    },
    {
      "type": "Feature",
      "geometry": {
        "type": "Point",
        "coordinates": [
          18.387389,
          46.029278
        ]
      },
      "properties": {
        "label": "Q94911438",
        "type": "Reservoir",
        "entity": "http://www.wikidata.org/entity/Q94911438",
        "country_qid": "Q28",
        "Wikidata Qid": "Q94911438"
      }
    },
    {
      "type": "Feature",
      "geometry": {
        "type": "Point",
        "coordinates": [
          20.489722222,
          47.352222222
        ]
      },
      "properties": {
        "label": "Q112301181",
        "type": "Reservoir",
        "entity": "http://www.wikidata.org/entity/Q112301181",
        "country_qid": "Q28",
        "Wikidata Qid": "Q112301181"
      }
    },
    {
      "type": "Feature",
      "geometry": {
        "type": "Point",
        "coordinates": [
          21.25,
          47.6
        ]
      },
      "properties": {
        "label": "Q26229065",
        "type": "Reservoir",
        "entity": "http://www.wikidata.org/entity/Q26229065",
        "country_qid": "Q28",
        "Wikidata Qid": "Q26229065"
      }
    },
    {
      "type": "Feature",
      "geometry": {
        "type": "Point",
        "coordinates": [
          19.03878,
          47.48982
        ]
      },
      "properties": {
        "label": "Gellért Hill Water Reservoir",
        "type": "Reservoir",
        "entity": "http://www.wikidata.org/entity/Q1009005",
        "country_qid": "Q28",
        "Wikidata Qid": "Q1009005"
      }
    },
    {
      "type": "Feature",
      "geometry": {
        "type": "Point",
        "coordinates": [
          20.8,
          47.266666666
        ]
      },
      "properties": {
        "label": "Q26229600",
        "type": "Reservoir",
        "entity": "http://www.wikidata.org/entity/Q26229600",
        "country_qid": "Q28",
        "Wikidata Qid": "Q26229600"
      }
    },
    {
      "type": "Feature",
      "geometry": {
        "type": "Point",
        "coordinates": [
          20.06807,
          47.81736
        ]
      },
      "properties": {
        "label": "Markaz Reservoir",
        "type": "Reservoir",
        "entity": "http://www.wikidata.org/entity/Q14915983",
        "country_qid": "Q28",
        "Wikidata Qid": "Q14915983"
      }
    },
    {
      "type": "Feature",
      "geometry": {
        "type": "Point",
        "coordinates": [
          19.6,
          47.8
        ]
      },
      "properties": {
        "label": "Q26231206",
        "type": "Reservoir",
        "entity": "http://www.wikidata.org/entity/Q26231206",
        "country_qid": "Q28",
        "Wikidata Qid": "Q26231206"
      }
    },
    {
      "type": "Feature",
      "geometry": {
        "type": "Point",
        "coordinates": [
          18.138055555,
          46.155
        ]
      },
      "properties": {
        "label": "Lake Pécs",
        "type": "Reservoir",
        "entity": "http://www.wikidata.org/entity/Q12639655",
        "country_qid": "Q28",
        "Wikidata Qid": "Q12639655"
      }
    },
    {
      "type": "Feature",
      "geometry": {
        "type": "Point",
        "coordinates": [
          19.174722222,
          46.148055555
        ]
      },
      "properties": {
        "label": "Q26233561",
        "type": "Reservoir",
        "entity": "http://www.wikidata.org/entity/Q26233561",
        "country_qid": "Q28",
        "Wikidata Qid": "Q26233561"
      }
    },
    {
      "type": "Feature",
      "geometry": {
        "type": "Point",
        "coordinates": [
          17.087988,
          46.943944
        ]
      },
      "properties": {
        "label": "Q95569520",
        "type": "Reservoir",
        "entity": "http://www.wikidata.org/entity/Q95569520",
        "country_qid": "Q28",
        "Wikidata Qid": "Q95569520"
      }
    },
    {
      "type": "Feature",
      "geometry": {
        "type": "Point",
        "coordinates": [
          19.163888888,
          46.168611111
        ]
      },
      "properties": {
        "label": "Q26233562",
        "type": "Reservoir",
        "entity": "http://www.wikidata.org/entity/Q26233562",
        "country_qid": "Q28",
        "Wikidata Qid": "Q26233562"
      }
    },
    {
      "type": "Feature",
      "geometry": {
        "type": "Point",
        "coordinates": [
          20.466666666,
          48.2
        ]
      },
      "properties": {
        "label": "Q26229122",
        "type": "Reservoir",
        "entity": "http://www.wikidata.org/entity/Q26229122",
        "country_qid": "Q28",
        "Wikidata Qid": "Q26229122"
      }
    },
    {
      "type": "Feature",
      "geometry": {
        "type": "Point",
        "coordinates": [
          17.683333333,
          46.1
        ]
      },
      "properties": {
        "label": "Q26231557",
        "type": "Reservoir",
        "entity": "http://www.wikidata.org/entity/Q26231557",
        "country_qid": "Q28",
        "Wikidata Qid": "Q26231557"
      }
    },
    {
      "type": "Feature",
      "geometry": {
        "type": "Point",
        "coordinates": [
          18.397611111,
          46.146861111
        ]
      },
      "properties": {
        "label": "Lake Dombay",
        "type": "Reservoir",
        "entity": "http://www.wikidata.org/entity/Q721786",
        "country_qid": "Q28",
        "Wikidata Qid": "Q721786"
      }
    },
    {
      "type": "Feature",
      "geometry": {
        "type": "Point",
        "coordinates": [
          16.8,
          47.35833333
        ]
      },
      "properties": {
        "label": "Bük–Bő–Gór Reservoir",
        "type": "Reservoir",
        "entity": "http://www.wikidata.org/entity/Q855596",
        "country_qid": "Q28",
        "Wikidata Qid": "Q855596"
      }
    },
    {
      "type": "Feature",
      "geometry": {
        "type": "Point",
        "coordinates": [
          18.169805555,
          46.195527777
        ]
      },
      "properties": {
        "label": "Lake Barátúr",
        "type": "Reservoir",
        "entity": "http://www.wikidata.org/entity/Q95160613",
        "country_qid": "Q28",
        "Wikidata Qid": "Q95160613"
      }
    },
    {
      "type": "Feature",
      "geometry": {
        "type": "Point",
        "coordinates": [
          20.3479339,
          48.0639175
        ]
      },
      "properties": {
        "label": "Bélapátfalva Cement Works",
        "type": "Industrial building",
        "entity": "http://www.wikidata.org/entity/Q854271",
        "country_qid": "Q28",
        "Wikidata Qid": "Q854271"
      }
    },
    {
      "type": "Feature",
      "geometry": {
        "type": "Point",
        "coordinates": [
          19.4834276,
          46.4423959
        ]
      },
      "properties": {
        "label": "Q1636350",
        "type": "Industrial building",
        "entity": "http://www.wikidata.org/entity/Q1636350",
        "country_qid": "Q28",
        "Wikidata Qid": "Q1636350"
      }
    },
    {
      "type": "Feature",
      "geometry": {
        "type": "Point",
        "coordinates": [
          19.03991,
          47.49801
        ]
      },
      "properties": {
        "label": "Budapest",
        "type": "Industrial building",
        "entity": "http://www.wikidata.org/entity/Q127429797",
        "country_qid": "Q28",
        "Wikidata Qid": "Q127429797"
      }
    },
    {
      "type": "Feature",
      "geometry": {
        "type": "Point",
        "coordinates": [
          19.10667,
          47.48712
        ]
      },
      "properties": {
        "label": "Budapest – Kőbánya Tobacco Factory",
        "type": "Industrial building",
        "entity": "http://www.wikidata.org/entity/Q109805522",
        "country_qid": "Q28",
        "Wikidata Qid": "Q109805522"
      }
    },
    {
      "type": "Feature",
      "geometry": {
        "type": "Point",
        "coordinates": [
          20.797244,
          48.065579
        ]
      },
      "properties": {
        "label": "Hejőcsaba Cement and Lime Factory Ltd.",
        "type": "Industrial building",
        "entity": "http://www.wikidata.org/entity/Q64219740",
        "country_qid": "Q28",
        "Wikidata Qid": "Q64219740"
      }
    },
    {
      "type": "Feature",
      "geometry": {
        "type": "Point",
        "coordinates": [
          22.6425,
          48.047778
        ]
      },
      "properties": {
        "label": "Watermill (Túristvándi, Hungary)",
        "type": "Industrial building",
        "entity": "http://www.wikidata.org/entity/Q19405243",
        "country_qid": "Q28",
        "Wikidata Qid": "Q19405243"
      }
    },
    {
      "type": "Feature",
      "geometry": {
        "type": "Point",
        "coordinates": [
          19.16095,
          47.50919
        ]
      },
      "properties": {
        "label": "Electronic Instrumentation Factory",
        "type": "Industrial building",
        "entity": "http://www.wikidata.org/entity/Q988762",
        "country_qid": "Q28",
        "Wikidata Qid": "Q988762"
      }
    },
    {
      "type": "Feature",
      "geometry": {
        "type": "Point",
        "coordinates": [
          21.2076,
          48.15672
        ]
      },
      "properties": {
        "label": "Szerencs Sugar Works",
        "type": "Industrial building",
        "entity": "http://www.wikidata.org/entity/Q1297572",
        "country_qid": "Q28",
        "Wikidata Qid": "Q1297572"
      }
    },
    {
      "type": "Feature",
      "geometry": {
        "type": "Point",
        "coordinates": [
          18.238,
          46.0725
        ]
      },
      "properties": {
        "label": "Pécsi Dohánygyár",
        "type": "Industrial building",
        "entity": "http://www.wikidata.org/entity/Q1242839",
        "country_qid": "Q28",
        "Wikidata Qid": "Q1242839"
      }
    },
    {
      "type": "Feature",
      "geometry": {
        "type": "Point",
        "coordinates": [
          19.04052,
          47.41631
        ]
      },
      "properties": {
        "label": "Haggenmacher Beer Factories Co., Budafok",
        "type": "Industrial building",
        "entity": "http://www.wikidata.org/entity/Q122835786",
        "country_qid": "Q28",
        "Wikidata Qid": "Q122835786"
      }
    },
    {
      "type": "Feature",
      "geometry": {
        "type": "Point",
        "coordinates": [
          21.246096,
          47.352953
        ]
      },
      "properties": {
        "label": "Q3464242",
        "type": "Industrial building",
        "entity": "http://www.wikidata.org/entity/Q3464242",
        "country_qid": "Q28",
        "Wikidata Qid": "Q3464242"
      }
    },
    {
      "type": "Feature",
      "geometry": {
        "type": "Point",
        "coordinates": [
          19.056667,
          47.563333
        ]
      },
      "properties": {
        "label": "Óbudai gázgyár",
        "type": "Industrial building",
        "entity": "http://www.wikidata.org/entity/Q1471586",
        "country_qid": "Q28",
        "Wikidata Qid": "Q1471586"
      }
    },
    {
      "type": "Feature",
      "geometry": {
        "type": "Point",
        "coordinates": [
          19.07964,
          47.4663
        ]
      },
      "properties": {
        "label": "Q121907566",
        "type": "Industrial building",
        "entity": "http://www.wikidata.org/entity/Q121907566",
        "country_qid": "Q28",
        "Wikidata Qid": "Q121907566"
      }
    },
    {
      "type": "Feature",
      "geometry": {
        "type": "Point",
        "coordinates": [
          18.21093,
          46.07713
        ]
      },
      "properties": {
        "label": "Pécs Brewery",
        "type": "Industrial building",
        "entity": "http://www.wikidata.org/entity/Q282879",
        "country_qid": "Q28",
        "Wikidata Qid": "Q282879"
      }
    },
    {
      "type": "Feature",
      "geometry": {
        "type": "Point",
        "coordinates": [
          17.71734,
          47.68196
        ]
      },
      "properties": {
        "label": "Győri Keksz",
        "type": "Industrial building",
        "entity": "http://www.wikidata.org/entity/Q5625687",
        "country_qid": "Q28",
        "Wikidata Qid": "Q5625687"
      }
    },
    {
      "type": "Feature",
      "geometry": {
        "type": "Point",
        "coordinates": [
          20.9837,
          48.0495
        ]
      },
      "properties": {
        "label": "Borsod Brewery",
        "type": "Industrial building",
        "entity": "http://www.wikidata.org/entity/Q1502941",
        "country_qid": "Q28",
        "Wikidata Qid": "Q1502941"
      }
    },
    {
      "type": "Feature",
      "geometry": {
        "type": "Point",
        "coordinates": [
          20.6615,
          48.1131
        ]
      },
      "properties": {
        "label": "Diósgyőr Papermill",
        "type": "Industrial building",
        "entity": "http://www.wikidata.org/entity/Q906761",
        "country_qid": "Q28",
        "Wikidata Qid": "Q906761"
      }
    },
    {
      "type": "Feature",
      "geometry": {
        "type": "Point",
        "coordinates": [
          16.952097,
          47.254978
        ]
      },
      "properties": {
        "label": "Q1315072",
        "type": "Industrial building",
        "entity": "http://www.wikidata.org/entity/Q1315072",
        "country_qid": "Q28",
        "Wikidata Qid": "Q1315072"
      }
    },
    {
      "type": "Feature",
      "geometry": {
        "type": "Point",
        "coordinates": [
          19.07701,
          47.5699
        ]
      },
      "properties": {
        "label": "Q123692370",
        "type": "Industrial building",
        "entity": "http://www.wikidata.org/entity/Q123692370",
        "country_qid": "Q28",
        "Wikidata Qid": "Q123692370"
      }
    },
    {
      "type": "Feature",
      "geometry": {
        "type": "Point",
        "coordinates": [
          20.7965,
          48.1044
        ]
      },
      "properties": {
        "label": "Ferenc Bátorffy Coach-cart Factory",
        "type": "Industrial building",
        "entity": "http://www.wikidata.org/entity/Q30223326",
        "country_qid": "Q28",
        "Wikidata Qid": "Q30223326"
      }
    },
    {
      "type": "Feature",
      "geometry": {
        "type": "Point",
        "coordinates": [
          20.13751,
          47.13334
        ]
      },
      "properties": {
        "label": "Q65218196",
        "type": "Industrial building",
        "entity": "http://www.wikidata.org/entity/Q65218196",
        "country_qid": "Q28",
        "Wikidata Qid": "Q65218196"
      }
    },
    {
      "type": "Feature",
      "geometry": {
        "type": "Point",
        "coordinates": [
          19.07805,
          47.559444
        ]
      },
      "properties": {
        "label": "Újpest tram depot",
        "type": "Industrial building",
        "entity": "http://www.wikidata.org/entity/Q1472825",
        "country_qid": "Q28",
        "Wikidata Qid": "Q1472825"
      }
    },
    {
      "type": "Feature",
      "geometry": {
        "type": "Point",
        "coordinates": [
          19.06983,
          47.47581
        ]
      },
      "properties": {
        "label": "House of Unicum",
        "type": "Industrial building",
        "entity": "http://www.wikidata.org/entity/Q106351801",
        "country_qid": "Q28",
        "Wikidata Qid": "Q106351801"
      }
    },
    {
      "type": "Feature",
      "geometry": {
        "type": "Point",
        "coordinates": [
          19.04243,
          47.54098
        ]
      },
      "properties": {
        "label": "Óbudai Dohánygyár",
        "type": "Industrial building",
        "entity": "http://www.wikidata.org/entity/Q109498206",
        "country_qid": "Q28",
        "Wikidata Qid": "Q109498206"
      }
    },
    {
      "type": "Feature",
      "geometry": {
        "type": "Point",
        "coordinates": [
          19.13968,
          47.48254
        ]
      },
      "properties": {
        "label": "Q21619407",
        "type": "Industrial building",
        "entity": "http://www.wikidata.org/entity/Q21619407",
        "country_qid": "Q28",
        "Wikidata Qid": "Q21619407"
      }
    },
    {
      "type": "Feature",
      "geometry": {
        "type": "Point",
        "coordinates": [
          19.04973,
          47.50996
        ]
      },
      "properties": {
        "label": "Q117447706",
        "type": "Industrial building",
        "entity": "http://www.wikidata.org/entity/Q117447706",
        "country_qid": "Q28",
        "Wikidata Qid": "Q117447706"
      }
    },
    {
      "type": "Feature",
      "geometry": {
        "type": "Point",
        "coordinates": [
          19.04579,
          47.47019
        ]
      },
      "properties": {
        "label": "Kismotor- és Gépgyár",
        "type": "Industrial building",
        "entity": "http://www.wikidata.org/entity/Q121072633",
        "country_qid": "Q28",
        "Wikidata Qid": "Q121072633"
      }
    },
    {
      "type": "Feature",
      "geometry": {
        "type": "Point",
        "coordinates": [
          19.1429,
          47.4913
        ]
      },
      "properties": {
        "label": "Q126207607",
        "type": "Industrial building",
        "entity": "http://www.wikidata.org/entity/Q126207607",
        "country_qid": "Q28",
        "Wikidata Qid": "Q126207607"
      }
    },
    {
      "type": "Feature",
      "geometry": {
        "type": "Point",
        "coordinates": [
          19.040555555,
          47.536111111
        ]
      },
      "properties": {
        "label": "Goldberger Textilgyár",
        "type": "Industrial building",
        "entity": "http://www.wikidata.org/entity/Q61962538",
        "country_qid": "Q28",
        "Wikidata Qid": "Q61962538"
      }
    },
    {
      "type": "Feature",
      "geometry": {
        "type": "Point",
        "coordinates": [
          18.988055555,
          47.585277777
        ]
      },
      "properties": {
        "label": "Q65218150",
        "type": "Industrial building",
        "entity": "http://www.wikidata.org/entity/Q65218150",
        "country_qid": "Q28",
        "Wikidata Qid": "Q65218150"
      }
    },
    {
      "type": "Feature",
      "geometry": {
        "type": "Point",
        "coordinates": [
          19.13378,
          47.62661
        ]
      },
      "properties": {
        "label": "Q97199560",
        "type": "Industrial building",
        "entity": "http://www.wikidata.org/entity/Q97199560",
        "country_qid": "Q28",
        "Wikidata Qid": "Q97199560"
      }
    },
    {
      "type": "Feature",
      "geometry": {
        "type": "Point",
        "coordinates": [
          19.03632,
          47.51285
        ]
      },
      "properties": {
        "label": "Former Pálffy Street Traffic Station Building (Budapest)",
        "type": "Industrial building",
        "entity": "http://www.wikidata.org/entity/Q108704307",
        "country_qid": "Q28",
        "Wikidata Qid": "Q108704307"
      }
    },
    {
      "type": "Feature",
      "geometry": {
        "type": "Point",
        "coordinates": [
          19.06544,
          47.43269
        ]
      },
      "properties": {
        "label": "Q131826111",
        "type": "Industrial building",
        "entity": "http://www.wikidata.org/entity/Q131826111",
        "country_qid": "Q28",
        "Wikidata Qid": "Q131826111"
      }
    },
    {
      "type": "Feature",
      "geometry": {
        "type": "Point",
        "coordinates": [
          19.107777777,
          47.496944444
        ]
      },
      "properties": {
        "label": "Községi Kenyérgyár",
        "type": "Industrial building",
        "entity": "http://www.wikidata.org/entity/Q105730990",
        "country_qid": "Q28",
        "Wikidata Qid": "Q105730990"
      }
    },
    {
      "type": "Feature",
      "geometry": {
        "type": "Point",
        "coordinates": [
          18.00241,
          47.71438
        ]
      },
      "properties": {
        "label": "Q1469231",
        "type": "Industrial building",
        "entity": "http://www.wikidata.org/entity/Q1469231",
        "country_qid": "Q28",
        "Wikidata Qid": "Q1469231"
      }
    },
    {
      "type": "Feature",
      "geometry": {
        "type": "Point",
        "coordinates": [
          19.103167,
          47.548748
        ]
      },
      "properties": {
        "label": "Istvántelek Railway Depot",
        "type": "Industrial building",
        "entity": "http://www.wikidata.org/entity/Q1098331",
        "country_qid": "Q28",
        "Wikidata Qid": "Q1098331"
      }
    },
    {
      "type": "Feature",
      "geometry": {
        "type": "Point",
        "coordinates": [
          20.7474,
          48.09652
        ]
      },
      "properties": {
        "label": "Miskolci Üveggyár Rt.",
        "type": "Industrial building",
        "entity": "http://www.wikidata.org/entity/Q16911387",
        "country_qid": "Q28",
        "Wikidata Qid": "Q16911387"
      }
    },
    {
      "type": "Feature",
      "geometry": {
        "type": "Point",
        "coordinates": [
          19.156667,
          47.483333
        ]
      },
      "properties": {
        "label": "Globus Cannery",
        "type": "Industrial building",
        "entity": "http://www.wikidata.org/entity/Q1011070",
        "country_qid": "Q28",
        "Wikidata Qid": "Q1011070"
      }
    },
    {
      "type": "Feature",
      "geometry": {
        "type": "Point",
        "coordinates": [
          19.1469,
          47.4892
        ]
      },
      "properties": {
        "label": "Dreher Breweries - former brewery of Kőbánya King Brewery CoCategory:Dreher Breweries - former",
        "type": "Industrial building",
        "entity": "http://www.wikidata.org/entity/Q126207569",
        "country_qid": "Q28",
        "Wikidata Qid": "Q126207569"
      }
    },
    {
      "type": "Feature",
      "geometry": {
        "type": "Point",
        "coordinates": [
          19.13608,
          47.48427
        ]
      },
      "properties": {
        "label": "Dreher Breweries - former Dreher Brewery site",
        "type": "Industrial building",
        "entity": "http://www.wikidata.org/entity/Q126326008",
        "country_qid": "Q28",
        "Wikidata Qid": "Q126326008"
      }
    },
    {
      "type": "Feature",
      "geometry": {
        "type": "Point",
        "coordinates": [
          19.155,
          47.448611111
        ]
      },
      "properties": {
        "label": "Red Star Tractor Factory",
        "type": "Industrial building",
        "entity": "http://www.wikidata.org/entity/Q20440034",
        "country_qid": "Q28",
        "Wikidata Qid": "Q20440034"
      }
    },
    {
      "type": "Feature",
      "geometry": {
        "type": "Point",
        "coordinates": [
          19.05012,
          47.5092
        ]
      },
      "properties": {
        "label": "Q1243040",
        "type": "Industrial building",
        "entity": "http://www.wikidata.org/entity/Q1243040",
        "country_qid": "Q28",
        "Wikidata Qid": "Q1243040"
      }
    },
    {
      "type": "Feature",
      "geometry": {
        "type": "Point",
        "coordinates": [
          19.0575,
          47.424166666
        ]
      },
      "properties": {
        "label": "Manfred Weiss Works",
        "type": "Industrial building",
        "entity": "http://www.wikidata.org/entity/Q1464226",
        "country_qid": "Q28",
        "Wikidata Qid": "Q1464226"
      }
    },
    {
      "type": "Feature",
      "geometry": {
        "type": "Point",
        "coordinates": [
          20.557305555,
          46.860138888
        ]
      },
      "properties": {
        "label": "Szarvas Iron and Metal Industrial Plc",
        "type": "Industrial building",
        "entity": "http://www.wikidata.org/entity/Q94938700",
        "country_qid": "Q28",
        "Wikidata Qid": "Q94938700"
      }
    },
    {
      "type": "Feature",
      "geometry": {
        "type": "Point",
        "coordinates": [
          19.714444444,
          46.866388888
        ]
      },
      "properties": {
        "label": "Mercedes-Benz Manufacturing Hungary",
        "type": "Industrial building",
        "entity": "http://www.wikidata.org/entity/Q1176002",
        "country_qid": "Q28",
        "Wikidata Qid": "Q1176002"
      }
    },
    {
      "type": "Feature",
      "geometry": {
        "type": "Point",
        "coordinates": [
          19.07194,
          47.55847
        ]
      },
      "properties": {
        "label": "Hungarian Ship and Crane Factory (factory unit in Népsziget)",
        "type": "Industrial building",
        "entity": "http://www.wikidata.org/entity/Q131539353",
        "country_qid": "Q28",
        "Wikidata Qid": "Q131539353"
      }
    },
    {
      "type": "Feature",
      "geometry": {
        "type": "Point",
        "coordinates": [
          19.07374,
          47.51615
        ]
      },
      "properties": {
        "label": "Dózsa György út tram depot",
        "type": "Industrial building",
        "entity": "http://www.wikidata.org/entity/Q108293021",
        "country_qid": "Q28",
        "Wikidata Qid": "Q108293021"
      }
    },
    {
      "type": "Feature",
      "geometry": {
        "type": "Point",
        "coordinates": [
          19.06665,
          47.48634
        ]
      },
      "properties": {
        "label": "Ferencváros Tobacco Factory",
        "type": "Industrial building",
        "entity": "http://www.wikidata.org/entity/Q126477509",
        "country_qid": "Q28",
        "Wikidata Qid": "Q126477509"
      }
    },
    {
      "type": "Feature",
      "geometry": {
        "type": "Point",
        "coordinates": [
          20.7532,
          48.0929
        ]
      },
      "properties": {
        "label": "Miskolci Gőztéglagyár",
        "type": "Industrial building",
        "entity": "http://www.wikidata.org/entity/Q16909040",
        "country_qid": "Q28",
        "Wikidata Qid": "Q16909040"
      }
    },
    {
      "type": "Feature",
      "geometry": {
        "type": "Point",
        "coordinates": [
          19.06468,
          47.4856
        ]
      },
      "properties": {
        "label": "Q97342867",
        "type": "Industrial building",
        "entity": "http://www.wikidata.org/entity/Q97342867",
        "country_qid": "Q28",
        "Wikidata Qid": "Q97342867"
      }
    },
    {
      "type": "Feature",
      "geometry": {
        "type": "Point",
        "coordinates": [
          19.05746,
          47.49382
        ]
      },
      "properties": {
        "label": "Q31093849",
        "type": "Industrial building",
        "entity": "http://www.wikidata.org/entity/Q31093849",
        "country_qid": "Q28",
        "Wikidata Qid": "Q31093849"
      }
    },
    {
      "type": "Feature",
      "geometry": {
        "type": "Point",
        "coordinates": [
          19.03985,
          47.56381
        ]
      },
      "properties": {
        "label": "Óbuda power plant",
        "type": "Industrial building",
        "entity": "http://www.wikidata.org/entity/Q109498175",
        "country_qid": "Q28",
        "Wikidata Qid": "Q109498175"
      }
    },
    {
      "type": "Feature",
      "geometry": {
        "type": "Point",
        "coordinates": [
          19.145277777,
          47.488333333
        ]
      },
      "properties": {
        "label": "Dreher Breweries",
        "type": "Industrial building",
        "entity": "http://www.wikidata.org/entity/Q909817",
        "country_qid": "Q28",
        "Wikidata Qid": "Q909817"
      }
    },
    {
      "type": "Feature",
      "geometry": {
        "type": "Point",
        "coordinates": [
          19.130277777,
          47.500555555
        ]
      },
      "properties": {
        "label": "Fehér úti Főműhely",
        "type": "Industrial building",
        "entity": "http://www.wikidata.org/entity/Q108325004",
        "country_qid": "Q28",
        "Wikidata Qid": "Q108325004"
      }
    },
    {
      "type": "Feature",
      "geometry": {
        "type": "Point",
        "coordinates": [
          19.129055555,
          47.469833333
        ]
      },
      "properties": {
        "label": "Kőér street traction maintenance depot",
        "type": "Industrial building",
        "entity": "http://www.wikidata.org/entity/Q108327188",
        "country_qid": "Q28",
        "Wikidata Qid": "Q108327188"
      }
    },
    {
      "type": "Feature",
      "geometry": {
        "type": "Point",
        "coordinates": [
          19.32948,
          47.60128
        ]
      },
      "properties": {
        "label": "Ganz Electricity Meter Factory",
        "type": "Industrial building",
        "entity": "http://www.wikidata.org/entity/Q1008063",
        "country_qid": "Q28",
        "Wikidata Qid": "Q1008063"
      }
    },
    {
      "type": "Feature",
      "geometry": {
        "type": "Point",
        "coordinates": [
          19.056516666,
          47.5281
        ]
      },
      "properties": {
        "label": "Révész Street Heating Plant",
        "type": "Industrial building",
        "entity": "http://www.wikidata.org/entity/Q61942281",
        "country_qid": "Q28",
        "Wikidata Qid": "Q61942281"
      }
    },
    {
      "type": "Feature",
      "geometry": {
        "type": "Point",
        "coordinates": [
          19.05227,
          47.47518
        ]
      },
      "properties": {
        "label": "Tobacco Factory in Lágymányos, Budapest",
        "type": "Industrial building",
        "entity": "http://www.wikidata.org/entity/Q126477459",
        "country_qid": "Q28",
        "Wikidata Qid": "Q126477459"
      }
    },
    {
      "type": "Feature",
      "geometry": {
        "type": "Point",
        "coordinates": [
          20.27133,
          46.65321
        ]
      },
      "properties": {
        "label": "Hungerit",
        "type": "Industrial building",
        "entity": "http://www.wikidata.org/entity/Q56191944",
        "country_qid": "Q28",
        "Wikidata Qid": "Q56191944"
      }
    },
    {
      "type": "Feature",
      "geometry": {
        "type": "Point",
        "coordinates": [
          20.7961,
          48.1033
        ]
      },
      "properties": {
        "label": "Jenő Hercz's Machine Factory and Iron Foundry",
        "type": "Industrial building",
        "entity": "http://www.wikidata.org/entity/Q16520389",
        "country_qid": "Q28",
        "Wikidata Qid": "Q16520389"
      }
    },
    {
      "type": "Feature",
      "geometry": {
        "type": "Point",
        "coordinates": [
          19.15428,
          47.4852
        ]
      },
      "properties": {
        "label": "Dreher Breweries - former Haggenmacher Brewery site",
        "type": "Industrial building",
        "entity": "http://www.wikidata.org/entity/Q122840198",
        "country_qid": "Q28",
        "Wikidata Qid": "Q122840198"
      }
    },
    {
      "type": "Feature",
      "geometry": {
        "type": "Point",
        "coordinates": [
          20.368678,
          47.8992945
        ]
      },
      "properties": {
        "label": "Eger Tobacco Factory",
        "type": "Industrial building",
        "entity": "http://www.wikidata.org/entity/Q120758620",
        "country_qid": "Q28",
        "Wikidata Qid": "Q120758620"
      }
    },
    {
      "type": "Feature",
      "geometry": {
        "type": "Point",
        "coordinates": [
          19.08255,
          47.46729
        ]
      },
      "properties": {
        "label": "Q121907551",
        "type": "Industrial building",
        "entity": "http://www.wikidata.org/entity/Q121907551",
        "country_qid": "Q28",
        "Wikidata Qid": "Q121907551"
      }
    },
    {
      "type": "Feature",
      "geometry": {
        "type": "Point",
        "coordinates": [
          21.6124,
          47.5351
        ]
      },
      "properties": {
        "label": "Hortobágy windmill, Debrecen",
        "type": "Industrial building",
        "entity": "http://www.wikidata.org/entity/Q65955376",
        "country_qid": "Q28",
        "Wikidata Qid": "Q65955376"
      }
    },
    {
      "type": "Feature",
      "geometry": {
        "type": "Point",
        "coordinates": [
          18.251111,
          46.08
        ]
      },
      "properties": {
        "label": "Zsolnay",
        "type": "Industrial building",
        "entity": "http://www.wikidata.org/entity/Q227325",
        "country_qid": "Q28",
        "Wikidata Qid": "Q227325"
      }
    },
    {
      "type": "Feature",
      "geometry": {
        "type": "Point",
        "coordinates": [
          19.09722,
          47.47727
        ]
      },
      "properties": {
        "label": "Magyar Pénzverő Zrt.",
        "type": "Industrial building",
        "entity": "http://www.wikidata.org/entity/Q585461",
        "country_qid": "Q28",
        "Wikidata Qid": "Q585461"
      }
    },
    {
      "type": "Feature",
      "geometry": {
        "type": "Point",
        "coordinates": [
          19.04057,
          47.426271
        ]
      },
      "properties": {
        "label": "Town Hall, Budafok",
        "type": "Industrial building",
        "entity": "http://www.wikidata.org/entity/Q1462120",
        "country_qid": "Q28",
        "Wikidata Qid": "Q1462120"
      }
    },
    {
      "type": "Feature",
      "geometry": {
        "type": "Point",
        "coordinates": [
          19.049782,
          47.4615417
        ]
      },
      "properties": {
        "label": "Q121763155",
        "type": "Industrial building",
        "entity": "http://www.wikidata.org/entity/Q121763155",
        "country_qid": "Q28",
        "Wikidata Qid": "Q121763155"
      }
    },
    {
      "type": "Feature",
      "geometry": {
        "type": "Point",
        "coordinates": [
          21.6168313,
          47.5200686
        ]
      },
      "properties": {
        "label": "Salétrom Street Tram Depot",
        "type": "Industrial building",
        "entity": "http://www.wikidata.org/entity/Q110742017",
        "country_qid": "Q28",
        "Wikidata Qid": "Q110742017"
      }
    },
    {
      "type": "Feature",
      "geometry": {
        "type": "Point",
        "coordinates": [
          19.080055,
          47.497458
        ]
      },
      "properties": {
        "label": "Gas factory core building, Budapest District VIII",
        "type": "Industrial building",
        "entity": "http://www.wikidata.org/entity/Q121988101",
        "country_qid": "Q28",
        "Wikidata Qid": "Q121988101"
      }
    },
    {
      "type": "Feature",
      "geometry": {
        "type": "Point",
        "coordinates": [
          16.889302,
          47.597489
        ]
      },
      "properties": {
        "label": "Sugar factory in Petőháza",
        "type": "Industrial building",
        "entity": "http://www.wikidata.org/entity/Q50321220",
        "country_qid": "Q28",
        "Wikidata Qid": "Q50321220"
      }
    },
    {
      "type": "Feature",
      "geometry": {
        "type": "Point",
        "coordinates": [
          19.1554089,
          47.4841942
        ]
      },
      "properties": {
        "label": "HopTop Brewery",
        "type": "Industrial building",
        "entity": "http://www.wikidata.org/entity/Q31091303",
        "country_qid": "Q28",
        "Wikidata Qid": "Q31091303"
      }
    },
    {
      "type": "Feature",
      "geometry": {
        "type": "Point",
        "coordinates": [
          19.80222222,
          48.09638889
        ]
      },
      "properties": {
        "label": "Salgótarjáni Öblösüveggyár",
        "type": "Industrial building",
        "entity": "http://www.wikidata.org/entity/Q100272121",
        "country_qid": "Q28",
        "Wikidata Qid": "Q100272121"
      }
    },
    {
      "type": "Feature",
      "geometry": {
        "type": "Point",
        "coordinates": [
          21.02869,
          47.89235
        ]
      },
      "properties": {
        "label": "Q118453851",
        "type": "Industrial building",
        "entity": "http://www.wikidata.org/entity/Q118453851",
        "country_qid": "Q28",
        "Wikidata Qid": "Q118453851"
      }
    },
    {
      "type": "Feature",
      "geometry": {
        "type": "Point",
        "coordinates": [
          18.7246,
          47.733
        ]
      },
      "properties": {
        "label": "Q909181",
        "type": "Industrial building",
        "entity": "http://www.wikidata.org/entity/Q909181",
        "country_qid": "Q28",
        "Wikidata Qid": "Q909181"
      }
    },
    {
      "type": "Feature",
      "geometry": {
        "type": "Point",
        "coordinates": [
          18.728516666,
          47.440555555
        ]
      },
      "properties": {
        "label": "Korda Studios",
        "type": "Industrial building",
        "entity": "http://www.wikidata.org/entity/Q1118890",
        "country_qid": "Q28",
        "Wikidata Qid": "Q1118890"
      }
    },
    {
      "type": "Feature",
      "geometry": {
        "type": "Point",
        "coordinates": [
          19.05124,
          47.54263
        ]
      },
      "properties": {
        "label": "Óbuda Shipyard",
        "type": "Industrial building",
        "entity": "http://www.wikidata.org/entity/Q1471588",
        "country_qid": "Q28",
        "Wikidata Qid": "Q1471588"
      }
    },
    {
      "type": "Feature",
      "geometry": {
        "type": "Point",
        "coordinates": [
          19.037777777,
          47.410555555
        ]
      },
      "properties": {
        "label": "Budafoki Élesztő és Szeszgyár",
        "type": "Industrial building",
        "entity": "http://www.wikidata.org/entity/Q98118767",
        "country_qid": "Q28",
        "Wikidata Qid": "Q98118767"
      }
    },
    {
      "type": "Feature",
      "geometry": {
        "type": "Point",
        "coordinates": [
          19.036204,
          47.440286
        ]
      },
      "properties": {
        "label": "Budafok tram depot",
        "type": "Industrial building",
        "entity": "http://www.wikidata.org/entity/Q850787",
        "country_qid": "Q28",
        "Wikidata Qid": "Q850787"
      }
    },
    {
      "type": "Feature",
      "geometry": {
        "type": "Point",
        "coordinates": [
          19.021658,
          47.465153
        ]
      },
      "properties": {
        "label": "Station building, Kelenföld train station",
        "type": "Industrial building",
        "entity": "http://www.wikidata.org/entity/Q130967530",
        "country_qid": "Q28",
        "Wikidata Qid": "Q130967530"
      }
    },
    {
      "type": "Feature",
      "geometry": {
        "type": "Point",
        "coordinates": [
          20.1618,
          47.1519
        ]
      },
      "properties": {
        "label": "Q1299795",
        "type": "Industrial building",
        "entity": "http://www.wikidata.org/entity/Q1299795",
        "country_qid": "Q28",
        "Wikidata Qid": "Q1299795"
      }
    },
    {
      "type": "Feature",
      "geometry": {
        "type": "Point",
        "coordinates": [
          19.1118093,
          47.484697
        ]
      },
      "properties": {
        "label": "Northern Railway Maintenance and Engineering Works",
        "type": "Industrial building",
        "entity": "http://www.wikidata.org/entity/Q1471157",
        "country_qid": "Q28",
        "Wikidata Qid": "Q1471157"
      }
    },
    {
      "type": "Feature",
      "geometry": {
        "type": "Point",
        "coordinates": [
          19.15712,
          47.4531
        ]
      },
      "properties": {
        "label": "Kispest tram depot",
        "type": "Industrial building",
        "entity": "http://www.wikidata.org/entity/Q109544476",
        "country_qid": "Q28",
        "Wikidata Qid": "Q109544476"
      }
    },
    {
      "type": "Feature",
      "geometry": {
        "type": "Point",
        "coordinates": [
          19.1661004,
          47.4878502
        ]
      },
      "properties": {
        "label": "KŐPORC",
        "type": "Industrial building",
        "entity": "http://www.wikidata.org/entity/Q104523029",
        "country_qid": "Q28",
        "Wikidata Qid": "Q104523029"
      }
    },
    {
      "type": "Feature",
      "geometry": {
        "type": "Point",
        "coordinates": [
          17.75441,
          47.13293
        ]
      },
      "properties": {
        "label": "Herend Porcelain Manufactory",
        "type": "Industrial building",
        "entity": "http://www.wikidata.org/entity/Q653530",
        "country_qid": "Q28",
        "Wikidata Qid": "Q653530"
      }
    },
    {
      "type": "Feature",
      "geometry": {
        "type": "Point",
        "coordinates": [
          19.0675,
          47.54
        ]
      },
      "properties": {
        "label": "Láng Machine Factory",
        "type": "Industrial building",
        "entity": "http://www.wikidata.org/entity/Q1160123",
        "country_qid": "Q28",
        "Wikidata Qid": "Q1160123"
      }
    },
    {
      "type": "Feature",
      "geometry": {
        "type": "Point",
        "coordinates": [
          17.811488,
          46.355392
        ]
      },
      "properties": {
        "label": "Q13518408",
        "type": "Industrial building",
        "entity": "http://www.wikidata.org/entity/Q13518408",
        "country_qid": "Q28",
        "Wikidata Qid": "Q13518408"
      }
    },
    {
      "type": "Feature",
      "geometry": {
        "type": "Point",
        "coordinates": [
          21.419388,
          48.533763
        ]
      },
      "properties": {
        "label": "Hollóháza Porcelain Manufactory",
        "type": "Industrial building",
        "entity": "http://www.wikidata.org/entity/Q30672333",
        "country_qid": "Q28",
        "Wikidata Qid": "Q30672333"
      }
    },
    {
      "type": "Feature",
      "geometry": {
        "type": "Point",
        "coordinates": [
          20.8,
          48.1146
        ]
      },
      "properties": {
        "label": "Adolf Deichsel's Steel Wire Factory",
        "type": "Industrial building",
        "entity": "http://www.wikidata.org/entity/Q16518983",
        "country_qid": "Q28",
        "Wikidata Qid": "Q16518983"
      }
    },
    {
      "type": "Feature",
      "geometry": {
        "type": "Point",
        "coordinates": [
          19.07768,
          47.46894
        ]
      },
      "properties": {
        "label": "Q121434561",
        "type": "Industrial building",
        "entity": "http://www.wikidata.org/entity/Q121434561",
        "country_qid": "Q28",
        "Wikidata Qid": "Q121434561"
      }
    },
    {
      "type": "Feature",
      "geometry": {
        "type": "Point",
        "coordinates": [
          19.1513,
          47.48587
        ]
      },
      "properties": {
        "label": "Dreher Breweries - former brewery of Kőbánya Bourgeois Brewery Co",
        "type": "Industrial building",
        "entity": "http://www.wikidata.org/entity/Q126207624",
        "country_qid": "Q28",
        "Wikidata Qid": "Q126207624"
      }
    },
    {
      "type": "Feature",
      "geometry": {
        "type": "Point",
        "coordinates": [
          19.06139,
          47.52271
        ]
      },
      "properties": {
        "label": "Q126617550",
        "type": "Industrial building",
        "entity": "http://www.wikidata.org/entity/Q126617550",
        "country_qid": "Q28",
        "Wikidata Qid": "Q126617550"
      }
    },
    {
      "type": "Feature",
      "geometry": {
        "type": "Point",
        "coordinates": [
          19.093630555,
          47.480183333
        ]
      },
      "properties": {
        "label": "Mayday Garment Factory",
        "type": "Industrial building",
        "entity": "http://www.wikidata.org/entity/Q124056113",
        "country_qid": "Q28",
        "Wikidata Qid": "Q124056113"
      }
    },
    {
      "type": "Feature",
      "geometry": {
        "type": "Point",
        "coordinates": [
          19.07921,
          47.56826
        ]
      },
      "properties": {
        "label": "Q127514732",
        "type": "Industrial building",
        "entity": "http://www.wikidata.org/entity/Q127514732",
        "country_qid": "Q28",
        "Wikidata Qid": "Q127514732"
      }
    },
    {
      "type": "Feature",
      "geometry": {
        "type": "Point",
        "coordinates": [
          19.12625,
          47.47889
        ]
      },
      "properties": {
        "label": "Q123759326",
        "type": "Industrial building",
        "entity": "http://www.wikidata.org/entity/Q123759326",
        "country_qid": "Q28",
        "Wikidata Qid": "Q123759326"
      }
    },
    {
      "type": "Feature",
      "geometry": {
        "type": "Point",
        "coordinates": [
          19.08986,
          47.48873
        ]
      },
      "properties": {
        "label": "Q126085508",
        "type": "Industrial building",
        "entity": "http://www.wikidata.org/entity/Q126085508",
        "country_qid": "Q28",
        "Wikidata Qid": "Q126085508"
      }
    },
    {
      "type": "Feature",
      "geometry": {
        "type": "Point",
        "coordinates": [
          19.03219,
          47.54781
        ]
      },
      "properties": {
        "label": "Mill in Óbuda",
        "type": "Industrial building",
        "entity": "http://www.wikidata.org/entity/Q109498221",
        "country_qid": "Q28",
        "Wikidata Qid": "Q109498221"
      }
    },
    {
      "type": "Feature",
      "geometry": {
        "type": "Point",
        "coordinates": [
          19.040833333,
          47.528055555
        ]
      },
      "properties": {
        "label": "Budaújlak Water Works",
        "type": "Industrial building",
        "entity": "http://www.wikidata.org/entity/Q851338",
        "country_qid": "Q28",
        "Wikidata Qid": "Q851338"
      }
    },
    {
      "type": "Feature",
      "geometry": {
        "type": "Point",
        "coordinates": [
          19.07541,
          47.46386
        ]
      },
      "properties": {
        "label": "Q125915677",
        "type": "Industrial building",
        "entity": "http://www.wikidata.org/entity/Q125915677",
        "country_qid": "Q28",
        "Wikidata Qid": "Q125915677"
      }
    },
    {
      "type": "Feature",
      "geometry": {
        "type": "Point",
        "coordinates": [
          19.0547,
          47.5234
        ]
      },
      "properties": {
        "label": "Q123848535",
        "type": "Industrial building",
        "entity": "http://www.wikidata.org/entity/Q123848535",
        "country_qid": "Q28",
        "Wikidata Qid": "Q123848535"
      }
    },
    {
      "type": "Feature",
      "geometry": {
        "type": "Point",
        "coordinates": [
          19.028,
          47.51023
        ]
      },
      "properties": {
        "label": "Q127513568",
        "type": "Industrial building",
        "entity": "http://www.wikidata.org/entity/Q127513568",
        "country_qid": "Q28",
        "Wikidata Qid": "Q127513568"
      }
    },
    {
      "type": "Feature",
      "geometry": {
        "type": "Point",
        "coordinates": [
          19.069444444,
          47.478611111
        ]
      },
      "properties": {
        "label": "Gizella Mill",
        "type": "Industrial building",
        "entity": "http://www.wikidata.org/entity/Q101552347",
        "country_qid": "Q28",
        "Wikidata Qid": "Q101552347"
      }
    },
    {
      "type": "Feature",
      "geometry": {
        "type": "Point",
        "coordinates": [
          19.06141,
          47.53365
        ]
      },
      "properties": {
        "label": "Q125324295",
        "type": "Industrial building",
        "entity": "http://www.wikidata.org/entity/Q125324295",
        "country_qid": "Q28",
        "Wikidata Qid": "Q125324295"
      }
    },
    {
      "type": "Feature",
      "geometry": {
        "type": "Point",
        "coordinates": [
          19.022777777,
          47.409166666
        ]
      },
      "properties": {
        "label": "Tétény Irodaház",
        "type": "Industrial building",
        "entity": "http://www.wikidata.org/entity/Q1175298",
        "country_qid": "Q28",
        "Wikidata Qid": "Q1175298"
      }
    },
    {
      "type": "Feature",
      "geometry": {
        "type": "Point",
        "coordinates": [
          19.074444444,
          47.49
        ]
      },
      "properties": {
        "label": "József központ",
        "type": "Industrial building",
        "entity": "http://www.wikidata.org/entity/Q107421224",
        "country_qid": "Q28",
        "Wikidata Qid": "Q107421224"
      }
    },
    {
      "type": "Feature",
      "geometry": {
        "type": "Point",
        "coordinates": [
          19.05114,
          47.51146
        ]
      },
      "properties": {
        "label": "Q126085564",
        "type": "Industrial building",
        "entity": "http://www.wikidata.org/entity/Q126085564",
        "country_qid": "Q28",
        "Wikidata Qid": "Q126085564"
      }
    },
    {
      "type": "Feature",
      "geometry": {
        "type": "Point",
        "coordinates": [
          19.04682,
          47.55671
        ]
      },
      "properties": {
        "label": "Hungarian Textile Painting Factory Rt.",
        "type": "Industrial building",
        "entity": "http://www.wikidata.org/entity/Q109498239",
        "country_qid": "Q28",
        "Wikidata Qid": "Q109498239"
      }
    },
    {
      "type": "Feature",
      "geometry": {
        "type": "Point",
        "coordinates": [
          19.07807,
          47.46899
        ]
      },
      "properties": {
        "label": "Q109805449",
        "type": "Industrial building",
        "entity": "http://www.wikidata.org/entity/Q109805449",
        "country_qid": "Q28",
        "Wikidata Qid": "Q109805449"
      }
    },
    {
      "type": "Feature",
      "geometry": {
        "type": "Point",
        "coordinates": [
          19.05998,
          47.51867
        ]
      },
      "properties": {
        "label": "Q126617557",
        "type": "Industrial building",
        "entity": "http://www.wikidata.org/entity/Q126617557",
        "country_qid": "Q28",
        "Wikidata Qid": "Q126617557"
      }
    },
    {
      "type": "Feature",
      "geometry": {
        "type": "Point",
        "coordinates": [
          19.15091,
          47.46616
        ]
      },
      "properties": {
        "label": "Q125912053",
        "type": "Industrial building",
        "entity": "http://www.wikidata.org/entity/Q125912053",
        "country_qid": "Q28",
        "Wikidata Qid": "Q125912053"
      }
    },
    {
      "type": "Feature",
      "geometry": {
        "type": "Point",
        "coordinates": [
          19.05232,
          47.51043
        ]
      },
      "properties": {
        "label": "Q126085538",
        "type": "Industrial building",
        "entity": "http://www.wikidata.org/entity/Q126085538",
        "country_qid": "Q28",
        "Wikidata Qid": "Q126085538"
      }
    },
    {
      "type": "Feature",
      "geometry": {
        "type": "Point",
        "coordinates": [
          19.103293,
          47.429386
        ]
      },
      "properties": {
        "label": "Q134236771",
        "type": "Industrial building",
        "entity": "http://www.wikidata.org/entity/Q134236771",
        "country_qid": "Q28",
        "Wikidata Qid": "Q134236771"
      }
    },
    {
      "type": "Feature",
      "geometry": {
        "type": "Point",
        "coordinates": [
          19.05423,
          47.52255
        ]
      },
      "properties": {
        "label": "Q123848498",
        "type": "Industrial building",
        "entity": "http://www.wikidata.org/entity/Q123848498",
        "country_qid": "Q28",
        "Wikidata Qid": "Q123848498"
      }
    },
    {
      "type": "Feature",
      "geometry": {
        "type": "Point",
        "coordinates": [
          19.07214,
          47.47326
        ]
      },
      "properties": {
        "label": "Q123783610",
        "type": "Industrial building",
        "entity": "http://www.wikidata.org/entity/Q123783610",
        "country_qid": "Q28",
        "Wikidata Qid": "Q123783610"
      }
    },
    {
      "type": "Feature",
      "geometry": {
        "type": "Point",
        "coordinates": [
          19.05529,
          47.51215
        ]
      },
      "properties": {
        "label": "Q123908414",
        "type": "Industrial building",
        "entity": "http://www.wikidata.org/entity/Q123908414",
        "country_qid": "Q28",
        "Wikidata Qid": "Q123908414"
      }
    },
    {
      "type": "Feature",
      "geometry": {
        "type": "Point",
        "coordinates": [
          19.04939,
          47.51086
        ]
      },
      "properties": {
        "label": "Q126085524",
        "type": "Industrial building",
        "entity": "http://www.wikidata.org/entity/Q126085524",
        "country_qid": "Q28",
        "Wikidata Qid": "Q126085524"
      }
    },
    {
      "type": "Feature",
      "geometry": {
        "type": "Point",
        "coordinates": [
          19.04939,
          47.51086
        ]
      },
      "properties": {
        "label": "Q126085573",
        "type": "Industrial building",
        "entity": "http://www.wikidata.org/entity/Q126085573",
        "country_qid": "Q28",
        "Wikidata Qid": "Q126085573"
      }
    },
    {
      "type": "Feature",
      "geometry": {
        "type": "Point",
        "coordinates": [
          19.0289,
          47.40681
        ]
      },
      "properties": {
        "label": "Q123759341",
        "type": "Industrial building",
        "entity": "http://www.wikidata.org/entity/Q123759341",
        "country_qid": "Q28",
        "Wikidata Qid": "Q123759341"
      }
    },
    {
      "type": "Feature",
      "geometry": {
        "type": "Point",
        "coordinates": [
          17.36,
          46.00638889
        ]
      },
      "properties": {
        "label": "Watermill in Péterhida",
        "type": "Industrial building",
        "entity": "http://www.wikidata.org/entity/Q29049585",
        "country_qid": "Q28",
        "Wikidata Qid": "Q29049585"
      }
    },
    {
      "type": "Feature",
      "geometry": {
        "type": "Point",
        "coordinates": [
          19.04976,
          47.50994
        ]
      },
      "properties": {
        "label": "Q109805456",
        "type": "Industrial building",
        "entity": "http://www.wikidata.org/entity/Q109805456",
        "country_qid": "Q28",
        "Wikidata Qid": "Q109805456"
      }
    },
    {
      "type": "Feature",
      "geometry": {
        "type": "Point",
        "coordinates": [
          19.086,
          47.57579
        ]
      },
      "properties": {
        "label": "Újpesti Vágóhíd",
        "type": "Industrial building",
        "entity": "http://www.wikidata.org/entity/Q109498312",
        "country_qid": "Q28",
        "Wikidata Qid": "Q109498312"
      }
    },
    {
      "type": "Feature",
      "geometry": {
        "type": "Point",
        "coordinates": [
          20.8,
          48.1146
        ]
      },
      "properties": {
        "label": "4th of December Wire Factory",
        "type": "Industrial building",
        "entity": "http://www.wikidata.org/entity/Q131470354",
        "country_qid": "Q28",
        "Wikidata Qid": "Q131470354"
      }
    },
    {
      "type": "Feature",
      "geometry": {
        "type": "Point",
        "coordinates": [
          19.03865,
          47.50987
        ]
      },
      "properties": {
        "label": "Q126085481",
        "type": "Industrial building",
        "entity": "http://www.wikidata.org/entity/Q126085481",
        "country_qid": "Q28",
        "Wikidata Qid": "Q126085481"
      }
    },
    {
      "type": "Feature",
      "geometry": {
        "type": "Point",
        "coordinates": [
          19.05901,
          47.51667
        ]
      },
      "properties": {
        "label": "Q126617466",
        "type": "Industrial building",
        "entity": "http://www.wikidata.org/entity/Q126617466",
        "country_qid": "Q28",
        "Wikidata Qid": "Q126617466"
      }
    },
    {
      "type": "Feature",
      "geometry": {
        "type": "Point",
        "coordinates": [
          19.152,
          47.4704
        ]
      },
      "properties": {
        "label": "Q125923563",
        "type": "Industrial building",
        "entity": "http://www.wikidata.org/entity/Q125923563",
        "country_qid": "Q28",
        "Wikidata Qid": "Q125923563"
      }
    },
    {
      "type": "Feature",
      "geometry": {
        "type": "Point",
        "coordinates": [
          19.0812,
          47.56998
        ]
      },
      "properties": {
        "label": "Anker Művek",
        "type": "Industrial building",
        "entity": "http://www.wikidata.org/entity/Q109498412",
        "country_qid": "Q28",
        "Wikidata Qid": "Q109498412"
      }
    },
    {
      "type": "Feature",
      "geometry": {
        "type": "Point",
        "coordinates": [
          19.054230555,
          47.52255
        ]
      },
      "properties": {
        "label": "Q123848519",
        "type": "Industrial building",
        "entity": "http://www.wikidata.org/entity/Q123848519",
        "country_qid": "Q28",
        "Wikidata Qid": "Q123848519"
      }
    },
    {
      "type": "Feature",
      "geometry": {
        "type": "Point",
        "coordinates": [
          19.13583,
          47.4764
        ]
      },
      "properties": {
        "label": "Lampart Chemical Machinery Factory",
        "type": "Industrial building",
        "entity": "http://www.wikidata.org/entity/Q126026658",
        "country_qid": "Q28",
        "Wikidata Qid": "Q126026658"
      }
    },
    {
      "type": "Feature",
      "geometry": {
        "type": "Point",
        "coordinates": [
          19.03749,
          47.52244
        ]
      },
      "properties": {
        "label": "Q126085434",
        "type": "Industrial building",
        "entity": "http://www.wikidata.org/entity/Q126085434",
        "country_qid": "Q28",
        "Wikidata Qid": "Q126085434"
      }
    },
    {
      "type": "Feature",
      "geometry": {
        "type": "Point",
        "coordinates": [
          19.03035,
          47.55103
        ]
      },
      "properties": {
        "label": "Óbudai Selyemkikészítő Gyár",
        "type": "Industrial building",
        "entity": "http://www.wikidata.org/entity/Q109498192",
        "country_qid": "Q28",
        "Wikidata Qid": "Q109498192"
      }
    },
    {
      "type": "Feature",
      "geometry": {
        "type": "Point",
        "coordinates": [
          19.14909,
          47.46723
        ]
      },
      "properties": {
        "label": "Q125855153",
        "type": "Industrial building",
        "entity": "http://www.wikidata.org/entity/Q125855153",
        "country_qid": "Q28",
        "Wikidata Qid": "Q125855153"
      }
    },
    {
      "type": "Feature",
      "geometry": {
        "type": "Point",
        "coordinates": [
          19.09409,
          47.45625
        ]
      },
      "properties": {
        "label": "Q126008383",
        "type": "Industrial building",
        "entity": "http://www.wikidata.org/entity/Q126008383",
        "country_qid": "Q28",
        "Wikidata Qid": "Q126008383"
      }
    },
    {
      "type": "Feature",
      "geometry": {
        "type": "Point",
        "coordinates": [
          19.05284,
          47.51197
        ]
      },
      "properties": {
        "label": "Q123848554",
        "type": "Industrial building",
        "entity": "http://www.wikidata.org/entity/Q123848554",
        "country_qid": "Q28",
        "Wikidata Qid": "Q123848554"
      }
    },
    {
      "type": "Feature",
      "geometry": {
        "type": "Point",
        "coordinates": [
          19.0821,
          47.58137
        ]
      },
      "properties": {
        "label": "Hungária Papírgyár",
        "type": "Industrial building",
        "entity": "http://www.wikidata.org/entity/Q109498523",
        "country_qid": "Q28",
        "Wikidata Qid": "Q109498523"
      }
    },
    {
      "type": "Feature",
      "geometry": {
        "type": "Point",
        "coordinates": [
          19.701828,
          46.920407
        ]
      },
      "properties": {
        "label": "Kecskemétfilm Ltd.",
        "type": "Industrial building",
        "entity": "http://www.wikidata.org/entity/Q65215544",
        "country_qid": "Q28",
        "Wikidata Qid": "Q65215544"
      }
    },
    {
      "type": "Feature",
      "geometry": {
        "type": "Point",
        "coordinates": [
          19.0804,
          47.57741
        ]
      },
      "properties": {
        "label": "Water Works of Káposztásmegyer",
        "type": "Industrial building",
        "entity": "http://www.wikidata.org/entity/Q109498590",
        "country_qid": "Q28",
        "Wikidata Qid": "Q109498590"
      }
    },
    {
      "type": "Feature",
      "geometry": {
        "type": "Point",
        "coordinates": [
          19.07048,
          47.5453
        ]
      },
      "properties": {
        "label": "Q123965159",
        "type": "Industrial building",
        "entity": "http://www.wikidata.org/entity/Q123965159",
        "country_qid": "Q28",
        "Wikidata Qid": "Q123965159"
      }
    },
    {
      "type": "Feature",
      "geometry": {
        "type": "Point",
        "coordinates": [
          19.06878,
          47.47914
        ]
      },
      "properties": {
        "label": "Q123783556",
        "type": "Industrial building",
        "entity": "http://www.wikidata.org/entity/Q123783556",
        "country_qid": "Q28",
        "Wikidata Qid": "Q123783556"
      }
    },
    {
      "type": "Feature",
      "geometry": {
        "type": "Point",
        "coordinates": [
          19.05435,
          47.51916
        ]
      },
      "properties": {
        "label": "Q123848571",
        "type": "Industrial building",
        "entity": "http://www.wikidata.org/entity/Q123848571",
        "country_qid": "Q28",
        "Wikidata Qid": "Q123848571"
      }
    },
    {
      "type": "Feature",
      "geometry": {
        "type": "Point",
        "coordinates": [
          19.09229,
          47.45972
        ]
      },
      "properties": {
        "label": "Q126050045",
        "type": "Industrial building",
        "entity": "http://www.wikidata.org/entity/Q126050045",
        "country_qid": "Q28",
        "Wikidata Qid": "Q126050045"
      }
    },
    {
      "type": "Feature",
      "geometry": {
        "type": "Point",
        "coordinates": [
          19.08052,
          47.56271
        ]
      },
      "properties": {
        "label": "Wolfner Leather Factory",
        "type": "Industrial building",
        "entity": "http://www.wikidata.org/entity/Q109498709",
        "country_qid": "Q28",
        "Wikidata Qid": "Q109498709"
      }
    },
    {
      "type": "Feature",
      "geometry": {
        "type": "Point",
        "coordinates": [
          19.07544,
          47.56357
        ]
      },
      "properties": {
        "label": "Q131539083",
        "type": "Industrial building",
        "entity": "http://www.wikidata.org/entity/Q131539083",
        "country_qid": "Q28",
        "Wikidata Qid": "Q131539083"
      }
    },
    {
      "type": "Feature",
      "geometry": {
        "type": "Point",
        "coordinates": [
          19.0634873,
          47.4447226
        ]
      },
      "properties": {
        "label": "MAHART Gabonatárház",
        "type": "Industrial building",
        "entity": "http://www.wikidata.org/entity/Q96029018",
        "country_qid": "Q28",
        "Wikidata Qid": "Q96029018"
      }
    },
    {
      "type": "Feature",
      "geometry": {
        "type": "Point",
        "coordinates": [
          19.03984,
          47.52997
        ]
      },
      "properties": {
        "label": "Q126085446",
        "type": "Industrial building",
        "entity": "http://www.wikidata.org/entity/Q126085446",
        "country_qid": "Q28",
        "Wikidata Qid": "Q126085446"
      }
    },
    {
      "type": "Feature",
      "geometry": {
        "type": "Point",
        "coordinates": [
          19.09357,
          47.5337
        ]
      },
      "properties": {
        "label": "Q125801500",
        "type": "Industrial building",
        "entity": "http://www.wikidata.org/entity/Q125801500",
        "country_qid": "Q28",
        "Wikidata Qid": "Q125801500"
      }
    },
    {
      "type": "Feature",
      "geometry": {
        "type": "Point",
        "coordinates": [
          19.1049,
          47.4543
        ]
      },
      "properties": {
        "label": "Q126010230",
        "type": "Industrial building",
        "entity": "http://www.wikidata.org/entity/Q126010230",
        "country_qid": "Q28",
        "Wikidata Qid": "Q126010230"
      }
    },
    {
      "type": "Feature",
      "geometry": {
        "type": "Point",
        "coordinates": [
          19.07462,
          47.46677
        ]
      },
      "properties": {
        "label": "Q125915991",
        "type": "Industrial building",
        "entity": "http://www.wikidata.org/entity/Q125915991",
        "country_qid": "Q28",
        "Wikidata Qid": "Q125915991"
      }
    },
    {
      "type": "Feature",
      "geometry": {
        "type": "Point",
        "coordinates": [
          19.09447,
          47.44532
        ]
      },
      "properties": {
        "label": "Domestic Comb and Weaving Factory",
        "type": "Industrial building",
        "entity": "http://www.wikidata.org/entity/Q109805440",
        "country_qid": "Q28",
        "Wikidata Qid": "Q109805440"
      }
    },
    {
      "type": "Feature",
      "geometry": {
        "type": "Point",
        "coordinates": [
          19.08905,
          47.48771
        ]
      },
      "properties": {
        "label": "Q126202780",
        "type": "Industrial building",
        "entity": "http://www.wikidata.org/entity/Q126202780",
        "country_qid": "Q28",
        "Wikidata Qid": "Q126202780"
      }
    },
    {
      "type": "Feature",
      "geometry": {
        "type": "Point",
        "coordinates": [
          19.07,
          47.477222222
        ]
      },
      "properties": {
        "label": "Q123908538",
        "type": "Industrial building",
        "entity": "http://www.wikidata.org/entity/Q123908538",
        "country_qid": "Q28",
        "Wikidata Qid": "Q123908538"
      }
    },
    {
      "type": "Feature",
      "geometry": {
        "type": "Point",
        "coordinates": [
          19.04803,
          47.55806
        ]
      },
      "properties": {
        "label": "House factory in Óbuda",
        "type": "Industrial building",
        "entity": "http://www.wikidata.org/entity/Q109498260",
        "country_qid": "Q28",
        "Wikidata Qid": "Q109498260"
      }
    },
    {
      "type": "Feature",
      "geometry": {
        "type": "Point",
        "coordinates": [
          19.05893,
          47.52236
        ]
      },
      "properties": {
        "label": "Q125071240",
        "type": "Industrial building",
        "entity": "http://www.wikidata.org/entity/Q125071240",
        "country_qid": "Q28",
        "Wikidata Qid": "Q125071240"
      }
    },
    {
      "type": "Feature",
      "geometry": {
        "type": "Point",
        "coordinates": [
          19.10471,
          47.52423
        ]
      },
      "properties": {
        "label": "Q125592147",
        "type": "Industrial building",
        "entity": "http://www.wikidata.org/entity/Q125592147",
        "country_qid": "Q28",
        "Wikidata Qid": "Q125592147"
      }
    },
    {
      "type": "Feature",
      "geometry": {
        "type": "Point",
        "coordinates": [
          19.07321,
          47.50642
        ]
      },
      "properties": {
        "label": "Q125923535",
        "type": "Industrial building",
        "entity": "http://www.wikidata.org/entity/Q125923535",
        "country_qid": "Q28",
        "Wikidata Qid": "Q125923535"
      }
    },
    {
      "type": "Feature",
      "geometry": {
        "type": "Point",
        "coordinates": [
          19.101944444,
          47.539722222
        ]
      },
      "properties": {
        "label": "Q125806059",
        "type": "Industrial building",
        "entity": "http://www.wikidata.org/entity/Q125806059",
        "country_qid": "Q28",
        "Wikidata Qid": "Q125806059"
      }
    },
    {
      "type": "Feature",
      "geometry": {
        "type": "Point",
        "coordinates": [
          19.073611111,
          47.472222222
        ]
      },
      "properties": {
        "label": "Hungária Mill",
        "type": "Industrial building",
        "entity": "http://www.wikidata.org/entity/Q101552080",
        "country_qid": "Q28",
        "Wikidata Qid": "Q101552080"
      }
    },
    {
      "type": "Feature",
      "geometry": {
        "type": "Point",
        "coordinates": [
          19.03866,
          47.50501
        ]
      },
      "properties": {
        "label": "Q126085496",
        "type": "Industrial building",
        "entity": "http://www.wikidata.org/entity/Q126085496",
        "country_qid": "Q28",
        "Wikidata Qid": "Q126085496"
      }
    },
    {
      "type": "Feature",
      "geometry": {
        "type": "Point",
        "coordinates": [
          19.06001,
          47.53323
        ]
      },
      "properties": {
        "label": "Q125342309",
        "type": "Industrial building",
        "entity": "http://www.wikidata.org/entity/Q125342309",
        "country_qid": "Q28",
        "Wikidata Qid": "Q125342309"
      }
    },
    {
      "type": "Feature",
      "geometry": {
        "type": "Point",
        "coordinates": [
          19.07119,
          47.48617
        ]
      },
      "properties": {
        "label": "Q126202804",
        "type": "Industrial building",
        "entity": "http://www.wikidata.org/entity/Q126202804",
        "country_qid": "Q28",
        "Wikidata Qid": "Q126202804"
      }
    },
    {
      "type": "Feature",
      "geometry": {
        "type": "Point",
        "coordinates": [
          19.05654,
          47.46014
        ]
      },
      "properties": {
        "label": "Q123951988",
        "type": "Industrial building",
        "entity": "http://www.wikidata.org/entity/Q123951988",
        "country_qid": "Q28",
        "Wikidata Qid": "Q123951988"
      }
    },
    {
      "type": "Feature",
      "geometry": {
        "type": "Point",
        "coordinates": [
          18.32,
          46.16
        ]
      },
      "properties": {
        "label": "Köves Hill",
        "type": "Mine",
        "entity": "http://www.wikidata.org/entity/Q29020027",
        "country_qid": "Q28",
        "Wikidata Qid": "Q29020027"
      }
    },
    {
      "type": "Feature",
      "geometry": {
        "type": "Point",
        "coordinates": [
          18.2411,
          46.1088
        ]
      },
      "properties": {
        "label": "Karolina-külfejtés",
        "type": "Mine",
        "entity": "http://www.wikidata.org/entity/Q61362761",
        "country_qid": "Q28",
        "Wikidata Qid": "Q61362761"
      }
    },
    {
      "type": "Feature",
      "geometry": {
        "type": "Point",
        "coordinates": [
          18.289101873,
          46.189815604
        ]
      },
      "properties": {
        "label": "Zobak coal mine",
        "type": "Mine",
        "entity": "http://www.wikidata.org/entity/Q16969069",
        "country_qid": "Q28",
        "Wikidata Qid": "Q16969069"
      }
    },
    {
      "type": "Feature",
      "geometry": {
        "type": "Point",
        "coordinates": [
          19.137222,
          47.485
        ]
      },