{
  "type": "FeatureCollection",
  "features": [
    {
      "type": "Feature",
      "geometry": {
        "type": "Point",
        "coordinates": [
          81.9407236,
          25.1456925
        ]
      },
      "properties": {
        "label": "Meja Thermal Power Station",
        "type": "power plant",
        "entity": "http://www.wikidata.org/entity/Q18127969",
        "country_qid": "Q668",
        "Wikidata Qid": "Q18127969"
      }
    },
    {
      "type": "Feature",
      "geometry": {
        "type": "Point",
        "coordinates": [
          85.2930799,
          23.6423219
        ]
      },
      "properties": {
        "label": "Patratu Thermal Power Station",
        "type": "power plant",
        "entity": "http://www.wikidata.org/entity/Q15991700",
        "country_qid": "Q668",
        "Wikidata Qid": "Q15991700"
      }
    },
    {
      "type": "Feature",
      "geometry": {
        "type": "Point",
        "coordinates": [
          71.3249433,
          25.895411
        ]
      },
      "properties": {
        "label": "JSW Barmer Power Station",
        "type": "power plant",
        "entity": "http://www.wikidata.org/entity/Q17060319",
        "country_qid": "Q668",
        "Wikidata Qid": "Q17060319"
      }
    },
    {
      "type": "Feature",
      "geometry": {
        "type": "Point",
        "coordinates": [
          84.041825,
          21.816752
        ]
      },
      "properties": {
        "label": "Vedanta Jharsuguda Captive Power Plant",
        "type": "power plant",
        "entity": "http://www.wikidata.org/entity/Q16944537",
        "country_qid": "Q668",
        "Wikidata Qid": "Q16944537"
      }
    },
    {
      "type": "Feature",
      "geometry": {
        "type": "Point",
        "coordinates": [
          73.212676042,
          17.297036123
        ]
      },
      "properties": {
        "label": "JSW Ratnagiri Power Station",
        "type": "power plant",
        "entity": "http://www.wikidata.org/entity/Q16919014",
        "country_qid": "Q668",
        "Wikidata Qid": "Q16919014"
      }
    },
    {
      "type": "Feature",
      "geometry": {
        "type": "Point",
        "coordinates": [
          88.40525,
          22.99516667
        ]
      },
      "properties": {
        "label": "Bandel Thermal Power Station",
        "type": "power plant",
        "entity": "http://www.wikidata.org/entity/Q15196468",
        "country_qid": "Q668",
        "Wikidata Qid": "Q15196468"
      }
    },
    {
      "type": "Feature",
      "geometry": {
        "type": "Point",
        "coordinates": [
          86.11286111,
          23.73994444
        ]
      },
      "properties": {
        "label": "Chandrapura Thermal Power Station",
        "type": "power plant",
        "entity": "http://www.wikidata.org/entity/Q15209027",
        "country_qid": "Q668",
        "Wikidata Qid": "Q15209027"
      }
    },
    {
      "type": "Feature",
      "geometry": {
        "type": "Point",
        "coordinates": [
          88.1218314,
          22.0543204
        ]
      },
      "properties": {
        "label": "Tata Haldia power plant",
        "type": "power plant",
        "entity": "http://www.wikidata.org/entity/Q17779795",
        "country_qid": "Q668",
        "Wikidata Qid": "Q17779795"
      }
    },
    {
      "type": "Feature",
      "geometry": {
        "type": "Point",
        "coordinates": [
          77.901628,
          21.0805559
        ]
      },
      "properties": {
        "label": "Amravati Thermal Power Project",
        "type": "power plant",
        "entity": "http://www.wikidata.org/entity/Q16973684",
        "country_qid": "Q668",
        "Wikidata Qid": "Q16973684"
      }
    },
    {
      "type": "Feature",
      "geometry": {
        "type": "Point",
        "coordinates": [
          76.71772222,
          15.19208333
        ]
      },
      "properties": {
        "label": "Bellary Thermal Power station",
        "type": "power plant",
        "entity": "http://www.wikidata.org/entity/Q15198264",
        "country_qid": "Q668",
        "Wikidata Qid": "Q15198264"
      }
    },
    {
      "type": "Feature",
      "geometry": {
        "type": "Point",
        "coordinates": [
          75.15,
          31.38333333
        ]
      },
      "properties": {
        "label": "Goindwal Sahib Power Plant",
        "type": "power plant",
        "entity": "http://www.wikidata.org/entity/Q16937186",
        "country_qid": "Q668",
        "Wikidata Qid": "Q16937186"
      }
    },
    {
      "type": "Feature",
      "geometry": {
        "type": "Point",
        "coordinates": [
          78.8567,
          22.8561
        ]
      },
      "properties": {
        "label": "Gadarwara Super Thermal Power Plant",
        "type": "power plant",
        "entity": "http://www.wikidata.org/entity/Q17747196",
        "country_qid": "Q668",
        "Wikidata Qid": "Q17747196"
      }
    },
    {
      "type": "Feature",
      "geometry": {
        "type": "Point",
        "coordinates": [
          83.4494662,
          22.1041897
        ]
      },
      "properties": {
        "label": "Jindal Tamnar Thermal Power Plant",
        "type": "power plant",
        "entity": "http://www.wikidata.org/entity/Q17059519",
        "country_qid": "Q668",
        "Wikidata Qid": "Q17059519"
      }
    },
    {
      "type": "Feature",
      "geometry": {
        "type": "Point",
        "coordinates": [
          82.706384,
          24.105168
        ]
      },
      "properties": {
        "label": "Singrauli Super Thermal Power Station",
        "type": "power plant",
        "entity": "http://www.wikidata.org/entity/Q12000573",
        "country_qid": "Q668",
        "Wikidata Qid": "Q12000573"
      }
    },
    {
      "type": "Feature",
      "geometry": {
        "type": "Point",
        "coordinates": [
          79.3978,
          21.1797
        ]
      },
      "properties": {
        "label": "Mauda Super Thermal Power Station",
        "type": "power plant",
        "entity": "http://www.wikidata.org/entity/Q15401797",
        "country_qid": "Q668",
        "Wikidata Qid": "Q15401797"
      }
    },
    {
      "type": "Feature",
      "geometry": {
        "type": "Point",
        "coordinates": [
          88.2915133,
          22.5491345
        ]
      },
      "properties": {
        "label": "Southern Thermal Power Station",
        "type": "power plant",
        "entity": "http://www.wikidata.org/entity/Q15991754",
        "country_qid": "Q668",
        "Wikidata Qid": "Q15991754"
      }
    },
    {
      "type": "Feature",
      "geometry": {
        "type": "Point",
        "coordinates": [
          82.792,
          24.1816
        ]
      },
      "properties": {
        "label": "Renusagar Power Plant",
        "type": "power plant",
        "entity": "http://www.wikidata.org/entity/Q16910964",
        "country_qid": "Q668",
        "Wikidata Qid": "Q16910964"
      }
    },
    {
      "type": "Feature",
      "geometry": {
        "type": "Point",
        "coordinates": [
          81.42287,
          21.1857799
        ]
      },
      "properties": {
        "label": "NSPCL Bhilai Power Plant",
        "type": "power plant",
        "entity": "http://www.wikidata.org/entity/Q17747188",
        "country_qid": "Q668",
        "Wikidata Qid": "Q17747188"
      }
    },
    {
      "type": "Feature",
      "geometry": {
        "type": "Point",
        "coordinates": [
          79.2036903,
          20.0109054
        ]
      },
      "properties": {
        "label": "Dhariwal Power Station",
        "type": "power plant",
        "entity": "http://www.wikidata.org/entity/Q15991722",
        "country_qid": "Q668",
        "Wikidata Qid": "Q15991722"
      }
    },
    {
      "type": "Feature",
      "geometry": {
        "type": "Point",
        "coordinates": [
          79.9374,
          27.8186
        ]
      },
      "properties": {
        "label": "Rauza Thermal Power Plant",
        "type": "power plant",
        "entity": "http://www.wikidata.org/entity/Q11998427",
        "country_qid": "Q668",
        "Wikidata Qid": "Q11998427"
      }
    },
    {
      "type": "Feature",
      "geometry": {
        "type": "Point",
        "coordinates": [
          72.5925171,
          23.0706608
        ]
      },
      "properties": {
        "label": "Sabarmati Thermal Power Station",
        "type": "power plant",
        "entity": "http://www.wikidata.org/entity/Q17747162",
        "country_qid": "Q668",
        "Wikidata Qid": "Q17747162"
      }
    },
    {
      "type": "Feature",
      "geometry": {
        "type": "Point",
        "coordinates": [
          88.3704776,
          22.7317927
        ]
      },
      "properties": {
        "label": "Titagarh Thermal Power Station",
        "type": "power plant",
        "entity": "http://www.wikidata.org/entity/Q15991753",
        "country_qid": "Q668",
        "Wikidata Qid": "Q15991753"
      }
    },
    {
      "type": "Feature",
      "geometry": {
        "type": "Point",
        "coordinates": [
          88.1399202,
          22.4689802
        ]
      },
      "properties": {
        "label": "Budge Budge Thermal Power Station",
        "type": "power plant",
        "entity": "http://www.wikidata.org/entity/Q15991760",
        "country_qid": "Q668",
        "Wikidata Qid": "Q15991760"
      }
    },
    {
      "type": "Feature",
      "geometry": {
        "type": "Point",
        "coordinates": [
          69.5283,
          22.816
        ]
      },
      "properties": {
        "label": "Mundra Ultra Mega Power Plant",
        "type": "power plant",
        "entity": "http://www.wikidata.org/entity/Q15401787",
        "country_qid": "Q668",
        "Wikidata Qid": "Q15401787"
      }
    },
    {
      "type": "Feature",
      "geometry": {
        "type": "Point",
        "coordinates": [
          76.5361,
          22.1028
        ]
      },
      "properties": {
        "label": "Shree Singaji Thermal Power Project",
        "type": "power plant",
        "entity": "http://www.wikidata.org/entity/Q18358221",
        "country_qid": "Q668",
        "Wikidata Qid": "Q18358221"
      }
    },
    {
      "type": "Feature",
      "geometry": {
        "type": "Point",
        "coordinates": [
          78.1767,
          8.76417
        ]
      },
      "properties": {
        "label": "Tuticorin Thermal Power Station",
        "type": "power plant",
        "entity": "http://www.wikidata.org/entity/Q12006136",
        "country_qid": "Q668",
        "Wikidata Qid": "Q12006136"
      }
    },
    {
      "type": "Feature",
      "geometry": {
        "type": "Point",
        "coordinates": [
          85.24,
          26.07
        ]
      },
      "properties": {
        "label": "Kanti Thermal Power Station",
        "type": "power plant",
        "entity": "http://www.wikidata.org/entity/Q15233575",
        "country_qid": "Q668",
        "Wikidata Qid": "Q15233575"
      }
    },
    {
      "type": "Feature",
      "geometry": {
        "type": "Point",
        "coordinates": [
          69.7099095,
          22.3054071
        ]
      },
      "properties": {
        "label": "Essar Salaya Power Plant",
        "type": "power plant",
        "entity": "http://www.wikidata.org/entity/Q16943918",
        "country_qid": "Q668",
        "Wikidata Qid": "Q16943918"
      }
    },
    {
      "type": "Feature",
      "geometry": {
        "type": "Point",
        "coordinates": [
          79.966017,
          21.4095353
        ]
      },
      "properties": {
        "label": "Tiroda Thermal Power Station",
        "type": "power plant",
        "entity": "http://www.wikidata.org/entity/Q15991647",
        "country_qid": "Q668",
        "Wikidata Qid": "Q15991647"
      }
    },
    {
      "type": "Feature",
      "geometry": {
        "type": "Point",
        "coordinates": [
          76.0988027,
          24.531571
        ]
      },
      "properties": {
        "label": "Kalisindh Thermal Power Station",
        "type": "power plant",
        "entity": "http://www.wikidata.org/entity/Q17053426",
        "country_qid": "Q668",
        "Wikidata Qid": "Q17053426"
      }
    },
    {
      "type": "Feature",
      "geometry": {
        "type": "Point",
        "coordinates": [
          83.1873715,
          21.9104205
        ]
      },
      "properties": {
        "label": "DBPL Baradarha Thermal Power Station",
        "type": "power plant",
        "entity": "http://www.wikidata.org/entity/Q19891267",
        "country_qid": "Q668",
        "Wikidata Qid": "Q19891267"
      }
    },
    {
      "type": "Feature",
      "geometry": {
        "type": "Point",
        "coordinates": [
          82.6264,
          23.9777
        ]
      },
      "properties": {
        "label": "Sasan Ultra Mega Power Project",
        "type": "power plant",
        "entity": "http://www.wikidata.org/entity/Q11999601",
        "country_qid": "Q668",
        "Wikidata Qid": "Q11999601"
      }
    },
    {
      "type": "Feature",
      "geometry": {
        "type": "Point",
        "coordinates": [
          82.4160736,
          24.0076595
        ]
      },
      "properties": {
        "label": "Mahan Power Plant",
        "type": "power plant",
        "entity": "http://www.wikidata.org/entity/Q16946943",
        "country_qid": "Q668",
        "Wikidata Qid": "Q16946943"
      }
    },
    {
      "type": "Feature",
      "geometry": {
        "type": "Point",
        "coordinates": [
          88.1766558,
          22.1053925
        ]
      },
      "properties": {
        "label": "Haldia Energy Power Station",
        "type": "power plant",
        "entity": "http://www.wikidata.org/entity/Q15991723",
        "country_qid": "Q668",
        "Wikidata Qid": "Q15991723"
      }
    },
    {
      "type": "Feature",
      "geometry": {
        "type": "Point",
        "coordinates": [
          80.7347429,
          18.0272413
        ]
      },
      "properties": {
        "label": "Bhadradri Thermal Power Plant",
        "type": "power plant",
        "entity": "http://www.wikidata.org/entity/Q19882295",
        "country_qid": "Q668",
        "Wikidata Qid": "Q19882295"
      }
    },
    {
      "type": "Feature",
      "geometry": {
        "type": "Point",
        "coordinates": [
          90.3619,
          26.4406
        ]
      },
      "properties": {
        "label": "Bongaigaon Thermal Power Station",
        "type": "power plant",
        "entity": "http://www.wikidata.org/entity/Q16948608",
        "country_qid": "Q668",
        "Wikidata Qid": "Q16948608"
      }
    },
    {
      "type": "Feature",
      "geometry": {
        "type": "Point",
        "coordinates": [
          87.20861111,
          23.58555556
        ]
      },
      "properties": {
        "label": "Durgapur Steel Thermal Power Station",
        "type": "power plant",
        "entity": "http://www.wikidata.org/entity/Q16935528",
        "country_qid": "Q668",
        "Wikidata Qid": "Q16935528"
      }
    },
    {
      "type": "Feature",
      "geometry": {
        "type": "Point",
        "coordinates": [
          84.055109,
          21.788396
        ]
      },
      "properties": {
        "label": "Vedanta Jharsuguda Power Plant",
        "type": "power plant",
        "entity": "http://www.wikidata.org/entity/Q16968782",
        "country_qid": "Q668",
        "Wikidata Qid": "Q16968782"
      }
    },
    {
      "type": "Feature",
      "geometry": {
        "type": "Point",
        "coordinates": [
          86.66666667,
          23.53333333
        ]
      },
      "properties": {
        "label": "Raghunathpur Thermal Power Station",
        "type": "power plant",
        "entity": "http://www.wikidata.org/entity/Q16963844",
        "country_qid": "Q668",
        "Wikidata Qid": "Q16963844"
      }
    },
    {
      "type": "Feature",
      "geometry": {
        "type": "Point",
        "coordinates": [
          82.4129534,
          21.9617334
        ]
      },
      "properties": {
        "label": "KSK Mahanadi Power Project",
        "type": "power plant",
        "entity": "http://www.wikidata.org/entity/Q16976467",
        "country_qid": "Q668",
        "Wikidata Qid": "Q16976467"
      }
    },
    {
      "type": "Feature",
      "geometry": {
        "type": "Point",
        "coordinates": [
          88.07722222,
          23.60222222
        ]
      },
      "properties": {
        "label": "Katwa Super Thermal Power Station",
        "type": "power plant",
        "entity": "http://www.wikidata.org/entity/Q24937165",
        "country_qid": "Q668",
        "Wikidata Qid": "Q24937165"
      }
    },
    {
      "type": "Feature",
      "geometry": {
        "type": "Point",
        "coordinates": [
          83.1396496,
          17.5637345
        ]
      },
      "properties": {
        "label": "Vizag Thermal Power Station",
        "type": "power plant",
        "entity": "http://www.wikidata.org/entity/Q24944034",
        "country_qid": "Q668",
        "Wikidata Qid": "Q24944034"
      }
    },
    {
      "type": "Feature",
      "geometry": {
        "type": "Point",
        "coordinates": [
          81.7854023,
          23.0650837
        ]
      },
      "properties": {
        "label": "Anuppur Thermal Power Project",
        "type": "power plant",
        "entity": "http://www.wikidata.org/entity/Q19456858",
        "country_qid": "Q668",
        "Wikidata Qid": "Q19456858"
      }
    },
    {
      "type": "Feature",
      "geometry": {
        "type": "Point",
        "coordinates": [
          88.10116667,
          24.36825
        ]
      },
      "properties": {
        "label": "Sagardighi Thermal Power Station.",
        "type": "power plant",
        "entity": "http://www.wikidata.org/entity/Q11999079",
        "country_qid": "Q668",
        "Wikidata Qid": "Q11999079"
      }
    },
    {
      "type": "Feature",
      "geometry": {
        "type": "Point",
        "coordinates": [
          81.8549487,
          21.4502763
        ]
      },
      "properties": {
        "label": "Raikheda Power Plant",
        "type": "power plant",
        "entity": "http://www.wikidata.org/entity/Q11996994",
        "country_qid": "Q668",
        "Wikidata Qid": "Q11996994"
      }
    },
    {
      "type": "Feature",
      "geometry": {
        "type": "Point",
        "coordinates": [
          76.7363799,
          24.7775977
        ]
      },
      "properties": {
        "label": "Kawai Thermal Power Station",
        "type": "power plant",
        "entity": "http://www.wikidata.org/entity/Q15991682",
        "country_qid": "Q668",
        "Wikidata Qid": "Q15991682"
      }
    },
    {
      "type": "Feature",
      "geometry": {
        "type": "Point",
        "coordinates": [
          82.6888,
          22.4118
        ]
      },
      "properties": {
        "label": "Hasdeo Thermal Power Station",
        "type": "power plant",
        "entity": "http://www.wikidata.org/entity/Q15223227",
        "country_qid": "Q668",
        "Wikidata Qid": "Q15223227"
      }
    },
    {
      "type": "Feature",
      "geometry": {
        "type": "Point",
        "coordinates": [
          80.1884794,
          25.9759279
        ]
      },
      "properties": {
        "label": "Ghatampur Thermal Power Station",
        "type": "power plant",
        "entity": "http://www.wikidata.org/entity/Q18125091",
        "country_qid": "Q668",
        "Wikidata Qid": "Q18125091"
      }
    },
    {
      "type": "Feature",
      "geometry": {
        "type": "Point",
        "coordinates": [
          87.87,
          22.41555556
        ]
      },
      "properties": {
        "label": "Kolaghat Thermal Power Station",
        "type": "power plant",
        "entity": "http://www.wikidata.org/entity/Q15238994",
        "country_qid": "Q668",
        "Wikidata Qid": "Q15238994"
      }
    },
    {
      "type": "Feature",
      "geometry": {
        "type": "Point",
        "coordinates": [
          75.2364349,
          29.9235475
        ]
      },
      "properties": {
        "label": "Talwandi Sabo Power Project",
        "type": "power plant",
        "entity": "http://www.wikidata.org/entity/Q16948227",
        "country_qid": "Q668",
        "Wikidata Qid": "Q16948227"
      }
    },
    {
      "type": "Feature",
      "geometry": {
        "type": "Point",
        "coordinates": [
          75.84388889,
          22.05694444
        ]
      },
      "properties": {
        "label": "Khargone Super Thermal Power Station",
        "type": "power plant",
        "entity": "http://www.wikidata.org/entity/Q20706924",
        "country_qid": "Q668",
        "Wikidata Qid": "Q20706924"
      }
    },
    {
      "type": "Feature",
      "geometry": {
        "type": "Point",
        "coordinates": [
          76.6634238,
          15.1863506
        ]
      },
      "properties": {
        "label": "JSW Vijayanagar Power Station",
        "type": "power plant",
        "entity": "http://www.wikidata.org/entity/Q16930658",
        "country_qid": "Q668",
        "Wikidata Qid": "Q16930658"
      }
    },
    {
      "type": "Feature",
      "geometry": {
        "type": "Point",
        "coordinates": [
          83.4656,
          21.7492
        ]
      },
      "properties": {
        "label": "LARA Super Thermal Power Project",
        "type": "power plant",
        "entity": "http://www.wikidata.org/entity/Q18922729",
        "country_qid": "Q668",
        "Wikidata Qid": "Q18922729"
      }
    },
    {
      "type": "Feature",
      "geometry": {
        "type": "Point",
        "coordinates": [
          74.0833425,
          19.8663265
        ]
      },
      "properties": {
        "label": "RattanIndia Nashik Thermal Power Station",
        "type": "power plant",
        "entity": "http://www.wikidata.org/entity/Q16968877",
        "country_qid": "Q668",
        "Wikidata Qid": "Q16968877"
      }
    },
    {
      "type": "Feature",
      "geometry": {
        "type": "Point",
        "coordinates": [
          76.5769761,
          30.557066
        ]
      },
      "properties": {
        "label": "Rajpura Thermal Power Plant",
        "type": "power plant",
        "entity": "http://www.wikidata.org/entity/Q16964130",
        "country_qid": "Q668",
        "Wikidata Qid": "Q16964130"
      }
    },
    {
      "type": "Feature",
      "geometry": {
        "type": "Point",
        "coordinates": [
          83.862479,
          21.691365
        ]
      },
      "properties": {
        "label": "Ib Thermal Power Station",
        "type": "power plant",
        "entity": "http://www.wikidata.org/entity/Q11992992",
        "country_qid": "Q668",
        "Wikidata Qid": "Q11992992"
      }
    },
    {
      "type": "Feature",
      "geometry": {
        "type": "Point",
        "coordinates": [
          75.9831,
          17.5544
        ]
      },
      "properties": {
        "label": "Solapur Super Thermal Power Station",
        "type": "power plant",
        "entity": "http://www.wikidata.org/entity/Q17086365",
        "country_qid": "Q668",
        "Wikidata Qid": "Q17086365"
      }
    },
    {
      "type": "Feature",
      "geometry": {
        "type": "Point",
        "coordinates": [
          73.4,
          16.5
        ]
      },
      "properties": {
        "label": "Girye Ultra Mega Power Plant",
        "type": "power plant",
        "entity": "http://www.wikidata.org/entity/Q17776165",
        "country_qid": "Q668",
        "Wikidata Qid": "Q17776165"
      }
    },
    {
      "type": "Feature",
      "geometry": {
        "type": "Point",
        "coordinates": [
          68.645427,
          23.769788
        ]
      },
      "properties": {
        "label": "Akrimota Thermal Power Station",
        "type": "power plant",
        "entity": "http://www.wikidata.org/entity/Q17747135",
        "country_qid": "Q668",
        "Wikidata Qid": "Q17747135"
      }
    },
    {
      "type": "Feature",
      "geometry": {
        "type": "Point",
        "coordinates": [
          85.74516667,
          25.4865
        ]
      },
      "properties": {
        "label": "Barh Super Thermal Power Station",
        "type": "power plant",
        "entity": "http://www.wikidata.org/entity/Q15196740",
        "country_qid": "Q668",
        "Wikidata Qid": "Q15196740"
      }
    },
    {
      "type": "Feature",
      "geometry": {
        "type": "Point",
        "coordinates": [
          79.4150323,
          11.54202
        ]
      },
      "properties": {
        "label": "Neyveli Zero Lignite Power Station",
        "type": "power plant",
        "entity": "http://www.wikidata.org/entity/Q18128697",
        "country_qid": "Q668",
        "Wikidata Qid": "Q18128697"
      }
    },
    {
      "type": "Feature",
      "geometry": {
        "type": "Point",
        "coordinates": [
          74.8,
          13.15972222
        ]
      },
      "properties": {
        "label": "Udupi Thermal Power Plant",
        "type": "power plant",
        "entity": "http://www.wikidata.org/entity/Q11990788",
        "country_qid": "Q668",
        "Wikidata Qid": "Q11990788"
      }
    },
    {
      "type": "Feature",
      "geometry": {
        "type": "Point",
        "coordinates": [
          73.20116,
          27.850308
        ]
      },
      "properties": {
        "label": "Barsingsar Thermal Power Station",
        "type": "power plant",
        "entity": "http://www.wikidata.org/entity/Q15196878",
        "country_qid": "Q668",
        "Wikidata Qid": "Q15196878"
      }
    },
    {
      "type": "Feature",
      "geometry": {
        "type": "Point",
        "coordinates": [
          72.8991473,
          19.0018976
        ]
      },
      "properties": {
        "label": "Trombay Thermal Power Station",
        "type": "power plant",
        "entity": "http://www.wikidata.org/entity/Q16927793",
        "country_qid": "Q668",
        "Wikidata Qid": "Q16927793"
      }
    },
    {
      "type": "Feature",
      "geometry": {
        "type": "Point",
        "coordinates": [
          83.8925886,
          21.9634051
        ]
      },
      "properties": {
        "label": "Darlipali Super Thermal Power Station",
        "type": "power plant",
        "entity": "http://www.wikidata.org/entity/Q24906108",
        "country_qid": "Q668",
        "Wikidata Qid": "Q24906108"
      }
    },
    {
      "type": "Feature",
      "geometry": {
        "type": "Point",
        "coordinates": [
          82.721321,
          22.369682
        ]
      },
      "properties": {
        "label": "Dr Shyama Prasad Mukharjee Thermal Power Station",
        "type": "power plant",
        "entity": "http://www.wikidata.org/entity/Q15215012",
        "country_qid": "Q668",
        "Wikidata Qid": "Q15215012"
      }
    },
    {
      "type": "Feature",
      "geometry": {
        "type": "Point",
        "coordinates": [
          86.2492,
          22.7557
        ]
      },
      "properties": {
        "label": "Jojobera Power Plant",
        "type": "power plant",
        "entity": "http://www.wikidata.org/entity/Q16909715",
        "country_qid": "Q668",
        "Wikidata Qid": "Q16909715"
      }
    },
    {
      "type": "Feature",
      "geometry": {
        "type": "Point",
        "coordinates": [
          83.2748651,
          21.7436754
        ]
      },
      "properties": {
        "label": "Adani Korba West Power Station",
        "type": "power plant",
        "entity": "http://www.wikidata.org/entity/Q16961767",
        "country_qid": "Q668",
        "Wikidata Qid": "Q16961767"
      }
    },
    {
      "type": "Feature",
      "geometry": {
        "type": "Point",
        "coordinates": [
          86.093,
          23.686
        ]
      },
      "properties": {
        "label": "BPSCL Power Plant",
        "type": "power plant",
        "entity": "http://www.wikidata.org/entity/Q15991696",
        "country_qid": "Q668",
        "Wikidata Qid": "Q15991696"
      }
    },
    {
      "type": "Feature",
      "geometry": {
        "type": "Point",
        "coordinates": [
          83.908647,
          21.529762
        ]
      },
      "properties": {
        "label": "Hirakud Captive Power Plant",
        "type": "power plant",
        "entity": "http://www.wikidata.org/entity/Q16917818",
        "country_qid": "Q668",
        "Wikidata Qid": "Q16917818"
      }
    },
    {
      "type": "Feature",
      "geometry": {
        "type": "Point",
        "coordinates": [
          76.3753,
          28.4786
        ]
      },
      "properties": {
        "label": "Indira Gandhi Super Thermal Power Project",
        "type": "power plant",
        "entity": "http://www.wikidata.org/entity/Q16934765",
        "country_qid": "Q668",
        "Wikidata Qid": "Q16934765"
      }
    },
    {
      "type": "Feature",
      "geometry": {
        "type": "Point",
        "coordinates": [
          75.8333,
          16.5
        ]
      },
      "properties": {
        "label": "Kudgi Super Thermal Power Project",
        "type": "power plant",
        "entity": "http://www.wikidata.org/entity/Q15717503",
        "country_qid": "Q668",
        "Wikidata Qid": "Q15717503"
      }
    },
    {
      "type": "Feature",
      "geometry": {
        "type": "Point",
        "coordinates": [
          82.6025319,
          22.0710747
        ]
      },
      "properties": {
        "label": "Marwa Thermal Power Plant",
        "type": "power plant",
        "entity": "http://www.wikidata.org/entity/Q18127878",
        "country_qid": "Q668",
        "Wikidata Qid": "Q18127878"
      }
    },
    {
      "type": "Feature",
      "geometry": {
        "type": "Point",
        "coordinates": [
          78.9802623,
          20.2725938
        ]
      },
      "properties": {
        "label": "Wardha Warora Power Plant",
        "type": "power plant",
        "entity": "http://www.wikidata.org/entity/Q16956907",
        "country_qid": "Q668",
        "Wikidata Qid": "Q16956907"
      }
    },
    {
      "type": "Feature",
      "geometry": {
        "type": "Point",
        "coordinates": [
          85.01222222,
          23.85055556
        ]
      },
      "properties": {
        "label": "North Karanpura Thermal Power Station",
        "type": "power plant",
        "entity": "http://www.wikidata.org/entity/Q11992622",
        "country_qid": "Q668",
        "Wikidata Qid": "Q11992622"
      }
    },
    {
      "type": "Feature",
      "geometry": {
        "type": "Point",
        "coordinates": [
          86.7599666,
          23.8203103
        ]
      },
      "properties": {
        "label": "Maithon Power Plant",
        "type": "power plant",
        "entity": "http://www.wikidata.org/entity/Q11987885",
        "country_qid": "Q668",
        "Wikidata Qid": "Q11987885"
      }
    },
    {
      "type": "Feature",
      "geometry": {
        "type": "Point",
        "coordinates": [
          86.022251833,
          25.400803505
        ]
      },
      "properties": {
        "label": "Barauni Thermal Power Station",
        "type": "power plant",
        "entity": "http://www.wikidata.org/entity/Q15196654",
        "country_qid": "Q668",
        "Wikidata Qid": "Q15196654"
      }
    },
    {
      "type": "Feature",
      "geometry": {
        "type": "Point",
        "coordinates": [
          80.3058,
          13.2339
        ]
      },
      "properties": {
        "label": "Vallur Thermal Power Station",
        "type": "power plant",
        "entity": "http://www.wikidata.org/entity/Q16902514",
        "country_qid": "Q668",
        "Wikidata Qid": "Q16902514"
      }
    },
    {
      "type": "Feature",
      "geometry": {
        "type": "Point",
        "coordinates": [
          78.4864247,
          20.8224242
        ]
      },
      "properties": {
        "label": "Lanco Vidarbha Thermal Power Plant",
        "type": "power plant",
        "entity": "http://www.wikidata.org/entity/Q12009684",
        "country_qid": "Q668",
        "Wikidata Qid": "Q12009684"
      }
    },
    {
      "type": "Feature",
      "geometry": {
        "type": "Point",
        "coordinates": [
          73.1076824,
          21.3960349
        ]
      },
      "properties": {
        "label": "Surat Thermal Power Station",
        "type": "power plant",
        "entity": "http://www.wikidata.org/entity/Q17747154",
        "country_qid": "Q668",
        "Wikidata Qid": "Q17747154"
      }
    },
    {
      "type": "Feature",
      "geometry": {
        "type": "Point",
        "coordinates": [
          85.7644164,
          23.7262297
        ]
      },
      "properties": {
        "label": "Tenughat Thermal Power Station",
        "type": "power plant",
        "entity": "http://www.wikidata.org/entity/Q18388595",
        "country_qid": "Q668",
        "Wikidata Qid": "Q18388595"
      }
    },
    {
      "type": "Feature",
      "geometry": {
        "type": "Point",
        "coordinates": [
          84.0894306,
          24.706194
        ]
      },
      "properties": {
        "label": "Nabinagar Thermal Power Project",
        "type": "power plant",
        "entity": "http://www.wikidata.org/entity/Q19894329",
        "country_qid": "Q668",
        "Wikidata Qid": "Q19894329"
      }
    },
    {
      "type": "Feature",
      "geometry": {
        "type": "Point",
        "coordinates": [
          84.985519,
          21.1262382
        ]
      },
      "properties": {
        "label": "Angul Thermal Power Station",
        "type": "power plant",
        "entity": "http://www.wikidata.org/entity/Q17049314",
        "country_qid": "Q668",
        "Wikidata Qid": "Q17049314"
      }
    },
    {
      "type": "Feature",
      "geometry": {
        "type": "Point",
        "coordinates": [
          81.6578984,
          25.1974997
        ]
      },
      "properties": {
        "label": "Bara Thermal Power Station",
        "type": "power plant",
        "entity": "http://www.wikidata.org/entity/Q18110236",
        "country_qid": "Q668",
        "Wikidata Qid": "Q18110236"
      }
    },
    {
      "type": "Feature",
      "geometry": {
        "type": "Point",
        "coordinates": [
          84.1571081,
          24.7761852
        ]
      },
      "properties": {
        "label": "Nabinagar Super Thermal Power Project",
        "type": "power plant",
        "entity": "http://www.wikidata.org/entity/Q18128408",
        "country_qid": "Q668",
        "Wikidata Qid": "Q18128408"
      }
    },
    {
      "type": "Feature",
      "geometry": {
        "type": "Point",
        "coordinates": [
          77.3525,
          16.29111111
        ]
      },
      "properties": {
        "label": "Yermarus Thermal Power Station",
        "type": "power plant",
        "entity": "http://www.wikidata.org/entity/Q19899118",
        "country_qid": "Q668",
        "Wikidata Qid": "Q19899118"
      }
    },
    {
      "type": "Feature",
      "geometry": {
        "type": "Point",
        "coordinates": [
          78.6460161,
          24.7974291
        ]
      },
      "properties": {
        "label": "Lalitpur Thermal Power Station",
        "type": "power plant",
        "entity": "http://www.wikidata.org/entity/Q18127114",
        "country_qid": "Q668",
        "Wikidata Qid": "Q18127114"
      }
    },
    {
      "type": "Feature",
      "geometry": {
        "type": "Point",
        "coordinates": [
          78.1310213,
          24.312998
        ]
      },
      "properties": {
        "label": "Bina Thermal Power Plant",
        "type": "power plant",
        "entity": "http://www.wikidata.org/entity/Q16916767",
        "country_qid": "Q668",
        "Wikidata Qid": "Q16916767"
      }
    },
    {
      "type": "Feature",
      "geometry": {
        "type": "Point",
        "coordinates": [
          82.7187306,
          22.3836904
        ]
      },
      "properties": {
        "label": "Korba Thermal Power Station",
        "type": "power plant",
        "entity": "http://www.wikidata.org/entity/Q16947069",
        "country_qid": "Q668",
        "Wikidata Qid": "Q16947069"
      }
    },
    {
      "type": "Feature",
      "geometry": {
        "type": "Point",
        "coordinates": [
          85.5623495,
          24.390049
        ]
      },
      "properties": {
        "label": "Koderma Thermal Power Station",
        "type": "power plant",
        "entity": "http://www.wikidata.org/entity/Q16934766",
        "country_qid": "Q668",
        "Wikidata Qid": "Q16934766"
      }
    },
    {
      "type": "Feature",
      "geometry": {
        "type": "Point",
        "coordinates": [
          78.174756,
          22.112531
        ]
      },
      "properties": {
        "label": "Satpura Thermal Power Station",
        "type": "power plant",
        "entity": "http://www.wikidata.org/entity/Q7426453",
        "country_qid": "Q668",
        "Wikidata Qid": "Q7426453"
      }
    },
    {
      "type": "Feature",
      "geometry": {
        "type": "Point",
        "coordinates": [
          76.526127,
          18.868768
        ]
      },
      "properties": {
        "label": "Parli Thermal Power Station",
        "type": "power plant",
        "entity": "http://www.wikidata.org/entity/Q7138893",
        "country_qid": "Q668",
        "Wikidata Qid": "Q7138893"
      }
    },
    {
      "type": "Feature",
      "geometry": {
        "type": "Point",
        "coordinates": [
          77.34194444,
          16.355
        ]
      },
      "properties": {
        "label": "Raichur Thermal Power Station",
        "type": "power plant",
        "entity": "http://www.wikidata.org/entity/Q7283704",
        "country_qid": "Q668",
        "Wikidata Qid": "Q7283704"
      }
    },
    {
      "type": "Feature",
      "geometry": {
        "type": "Point",
        "coordinates": [
          75.1644015,
          30.2674397
        ]
      },
      "properties": {
        "label": "Guru Hargobind Thermal Plant",
        "type": "power plant",
        "entity": "http://www.wikidata.org/entity/Q5620372",
        "country_qid": "Q668",
        "Wikidata Qid": "Q5620372"
      }
    },
    {
      "type": "Feature",
      "geometry": {
        "type": "Point",
        "coordinates": [
          79.449412817,
          18.769926555
        ]
      },
      "properties": {
        "label": "Ramagundam B Thermal Power Station",
        "type": "power plant",
        "entity": "http://www.wikidata.org/entity/Q7288754",
        "country_qid": "Q668",
        "Wikidata Qid": "Q7288754"
      }
    },
    {
      "type": "Feature",
      "geometry": {
        "type": "Point",
        "coordinates": [
          87.45,
          23.8333
        ]
      },
      "properties": {
        "label": "Bakreshwar Thermal Power Station",
        "type": "power plant",
        "entity": "http://www.wikidata.org/entity/Q4849532",
        "country_qid": "Q668",
        "Wikidata Qid": "Q4849532"
      }
    },
    {
      "type": "Feature",
      "geometry": {
        "type": "Point",
        "coordinates": [
          79.826372,
          18.3841356
        ]
      },
      "properties": {
        "label": "Kakatiya Thermal Power Station",
        "type": "power plant",
        "entity": "http://www.wikidata.org/entity/Q6349291",
        "country_qid": "Q668",
        "Wikidata Qid": "Q6349291"
      }
    },
    {
      "type": "Feature",
      "geometry": {
        "type": "Point",
        "coordinates": [
          79.121518,
          21.276138
        ]
      },
      "properties": {
        "label": "Khaparkheda Thermal Power Station",
        "type": "power plant",
        "entity": "http://www.wikidata.org/entity/Q6400459",
        "country_qid": "Q668",
        "Wikidata Qid": "Q6400459"
      }
    },
    {
      "type": "Feature",
      "geometry": {
        "type": "Point",
        "coordinates": [
          73.3606372,
          22.8762227
        ]
      },
      "properties": {
        "label": "Wanakbori Thermal Power Station",
        "type": "power plant",
        "entity": "http://www.wikidata.org/entity/Q7967045",
        "country_qid": "Q668",
        "Wikidata Qid": "Q7967045"
      }
    },
    {
      "type": "Feature",
      "geometry": {
        "type": "Point",
        "coordinates": [
          81.634683,
          23.162615
        ]
      },
      "properties": {
        "label": "Amarkantak Thermal Power Station",
        "type": "power plant",
        "entity": "http://www.wikidata.org/entity/Q4740304",
        "country_qid": "Q668",
        "Wikidata Qid": "Q4740304"
      }
    },
    {
      "type": "Feature",
      "geometry": {
        "type": "Point",
        "coordinates": [
          82.9801,
          24.4454
        ]
      },
      "properties": {
        "label": "Obra Thermal Power Station",
        "type": "power plant",
        "entity": "http://www.wikidata.org/entity/Q3446163",
        "country_qid": "Q668",
        "Wikidata Qid": "Q3446163"
      }
    },
    {
      "type": "Feature",
      "geometry": {
        "type": "Point",
        "coordinates": [
          82.600181,
          26.5891963
        ]
      },
      "properties": {
        "label": "Tanda thermal power plant",
        "type": "power plant",
        "entity": "http://www.wikidata.org/entity/Q7682395",
        "country_qid": "Q668",
        "Wikidata Qid": "Q7682395"
      }
    },
    {
      "type": "Feature",
      "geometry": {
        "type": "Point",
        "coordinates": [
          80.31166667,
          13.20138889
        ]
      },
      "properties": {
        "label": "Ennore Thermal Power Station",
        "type": "power plant",
        "entity": "http://www.wikidata.org/entity/Q5379238",
        "country_qid": "Q668",
        "Wikidata Qid": "Q5379238"
      }
    },
    {
      "type": "Feature",
      "geometry": {
        "type": "Point",
        "coordinates": [
          78.13,
          28.0175
        ]
      },
      "properties": {
        "label": "Harduaganj Thermal Power Station",
        "type": "power plant",
        "entity": "http://www.wikidata.org/entity/Q5656355",
        "country_qid": "Q668",
        "Wikidata Qid": "Q5656355"
      }
    },
    {
      "type": "Feature",
      "geometry": {
        "type": "Point",
        "coordinates": [
          80.5408132,
          16.5967644
        ]
      },
      "properties": {
        "label": "Dr Narla Tata Rao Thermal Power Station",
        "type": "power plant",
        "entity": "http://www.wikidata.org/entity/Q5304541",
        "country_qid": "Q668",
        "Wikidata Qid": "Q5304541"
      }
    },
    {
      "type": "Feature",
      "geometry": {
        "type": "Point",
        "coordinates": [
          77.325511,
          30.109568
        ]
      },
      "properties": {
        "label": "Deenbandhu Chhotu Ram Thermal Power Station",
        "type": "power plant",
        "entity": "http://www.wikidata.org/entity/Q5250039",
        "country_qid": "Q668",
        "Wikidata Qid": "Q5250039"
      }
    },
    {
      "type": "Feature",
      "geometry": {
        "type": "Point",
        "coordinates": [
          80.69,
          17.62
        ]
      },
      "properties": {
        "label": "Kothagudem Thermal Power Station",
        "type": "power plant",
        "entity": "http://www.wikidata.org/entity/Q6433975",
        "country_qid": "Q668",
        "Wikidata Qid": "Q6433975"
      }
    },
    {
      "type": "Feature",
      "geometry": {
        "type": "Point",
        "coordinates": [
          82.6816,
          22.3858
        ]
      },
      "properties": {
        "label": "Korba Super Thermal Power Plant",
        "type": "power plant",
        "entity": "http://www.wikidata.org/entity/Q6431466",
        "country_qid": "Q668",
        "Wikidata Qid": "Q6431466"
      }
    },
    {
      "type": "Feature",
      "geometry": {
        "type": "Point",
        "coordinates": [
          80.32666667,
          13.2475
        ]
      },
      "properties": {
        "label": "North Chennai Thermal Power Station",
        "type": "power plant",
        "entity": "http://www.wikidata.org/entity/Q7054795",
        "country_qid": "Q668",
        "Wikidata Qid": "Q7054795"
      }
    },
    {
      "type": "Feature",
      "geometry": {
        "type": "Point",
        "coordinates": [
          80.12323736,
          14.328207712
        ]
      },
      "properties": {
        "label": "Sri Damodaram Sanjeevaiah Thermal Power Station",
        "type": "power plant",
        "entity": "http://www.wikidata.org/entity/Q7585812",
        "country_qid": "Q668",
        "Wikidata Qid": "Q7585812"
      }
    },
    {
      "type": "Feature",
      "geometry": {
        "type": "Point",
        "coordinates": [
          74.0194,
          29.1817
        ]
      },
      "properties": {
        "label": "सूरतगढ़ थर्मल पावर प्लांट श्रीगंगानगर ,राजस्थान",
        "type": "power plant",
        "entity": "http://www.wikidata.org/entity/Q7645459",
        "country_qid": "Q668",
        "Wikidata Qid": "Q7645459"
      }
    },
    {
      "type": "Feature",
      "geometry": {
        "type": "Point",
        "coordinates": [
          79.45611111,
          18.755
        ]
      },
      "properties": {
        "label": "NTPC Ramagundam",
        "type": "power plant",
        "entity": "http://www.wikidata.org/entity/Q6955491",
        "country_qid": "Q668",
        "Wikidata Qid": "Q6955491"
      }
    },
    {
      "type": "Feature",
      "geometry": {
        "type": "Point",
        "coordinates": [
          85.0806,
          21.0883
        ]
      },
      "properties": {
        "label": "Talcher Super Thermal Power Station",
        "type": "power plant",
        "entity": "http://www.wikidata.org/entity/Q7679080",
        "country_qid": "Q668",
        "Wikidata Qid": "Q7679080"
      }
    },
    {
      "type": "Feature",
      "geometry": {
        "type": "Point",
        "coordinates": [
          85.88,
          23.78527778
        ]
      },
      "properties": {
        "label": "Bokaro Thermal Power Station",
        "type": "power plant",
        "entity": "http://www.wikidata.org/entity/Q4938735",
        "country_qid": "Q668",
        "Wikidata Qid": "Q4938735"
      }
    },
    {
      "type": "Feature",
      "geometry": {
        "type": "Point",
        "coordinates": [
          78.7578106,
          25.5141524
        ]
      },
      "properties": {
        "label": "Parichha Thermal Power Station",
        "type": "power plant",
        "entity": "http://www.wikidata.org/entity/Q7137023",
        "country_qid": "Q668",
        "Wikidata Qid": "Q7137023"
      }
    },
    {
      "type": "Feature",
      "geometry": {
        "type": "Point",
        "coordinates": [
          83.0897,
          17.5938
        ]
      },
      "properties": {
        "label": "Simhadri Super Thermal Power Plant",
        "type": "power plant",
        "entity": "http://www.wikidata.org/entity/Q7517708",
        "country_qid": "Q668",
        "Wikidata Qid": "Q7517708"
      }
    },
    {
      "type": "Feature",
      "geometry": {
        "type": "Point",
        "coordinates": [
          85.2958131,
          20.8267864
        ]
      },
      "properties": {
        "label": "Lanco Babandh Power Plant",
        "type": "power plant",
        "entity": "http://www.wikidata.org/entity/Q11959949",
        "country_qid": "Q668",
        "Wikidata Qid": "Q11959949"
      }
    },
    {
      "type": "Feature",
      "geometry": {
        "type": "Point",
        "coordinates": [
          76.5849,
          31.0428
        ]
      },
      "properties": {
        "label": "Guru Gobind Singh Super Thermal Power Plant",
        "type": "power plant",
        "entity": "http://www.wikidata.org/entity/Q5620368",
        "country_qid": "Q668",
        "Wikidata Qid": "Q5620368"
      }
    },
    {
      "type": "Feature",
      "geometry": {
        "type": "Point",
        "coordinates": [
          76.8736974,
          29.3975978
        ]
      },
      "properties": {
        "label": "Panipat Thermal Power Station II",
        "type": "power plant",
        "entity": "http://www.wikidata.org/entity/Q7131187",
        "country_qid": "Q668",
        "Wikidata Qid": "Q7131187"
      }
    },
    {
      "type": "Feature",
      "geometry": {
        "type": "Point",
        "coordinates": [
          80.24104,
          26.477046
        ]
      },
      "properties": {
        "label": "Panki Thermal Power Station",
        "type": "power plant",
        "entity": "http://www.wikidata.org/entity/Q3445852",
        "country_qid": "Q668",
        "Wikidata Qid": "Q3445852"
      }
    },
    {
      "type": "Feature",
      "geometry": {
        "type": "Point",
        "coordinates": [
          86.474,
          23.598
        ]
      },
      "properties": {
        "label": "Santaldih Thermal Power Station",
        "type": "power plant",
        "entity": "http://www.wikidata.org/entity/Q7420017",
        "country_qid": "Q668",
        "Wikidata Qid": "Q7420017"
      }
    },
    {
      "type": "Feature",
      "geometry": {
        "type": "Point",
        "coordinates": [
          76.8810008,
          29.3972295
        ]
      },
      "properties": {
        "label": "Panipat Thermal Power Station I",
        "type": "power plant",
        "entity": "http://www.wikidata.org/entity/Q7131190",
        "country_qid": "Q668",
        "Wikidata Qid": "Q7131190"
      }
    },
    {
      "type": "Feature",
      "geometry": {
        "type": "Point",
        "coordinates": [
          77.81361111,
          11.77194444
        ]
      },
      "properties": {
        "label": "Mettur Thermal Power Station",
        "type": "power plant",
        "entity": "http://www.wikidata.org/entity/Q6825517",
        "country_qid": "Q668",
        "Wikidata Qid": "Q6825517"
      }
    },
    {
      "type": "Feature",
      "geometry": {
        "type": "Point",
        "coordinates": [
          82.79,
          24.02666667
        ]
      },
      "properties": {
        "label": "Rihand Thermal Power Station",
        "type": "power plant",
        "entity": "http://www.wikidata.org/entity/Q7333903",
        "country_qid": "Q668",
        "Wikidata Qid": "Q7333903"
      }
    },
    {
      "type": "Feature",
      "geometry": {
        "type": "Point",
        "coordinates": [
          87.25027778,
          23.53111111
        ]
      },
      "properties": {
        "label": "Durgapur Thermal Power Station",
        "type": "power plant",
        "entity": "http://www.wikidata.org/entity/Q5316424",
        "country_qid": "Q668",
        "Wikidata Qid": "Q5316424"
      }
    },
    {
      "type": "Feature",
      "geometry": {
        "type": "Point",
        "coordinates": [
          81.065,
          23.3058
        ]
      },
      "properties": {
        "label": "Sanjay Gandhi Thermal Power Station",
        "type": "power plant",
        "entity": "http://www.wikidata.org/entity/Q7418432",
        "country_qid": "Q668",
        "Wikidata Qid": "Q7418432"
      }
    },
    {
      "type": "Feature",
      "geometry": {
        "type": "Point",
        "coordinates": [
          79.09888889,
          21.24888889
        ]
      },
      "properties": {
        "label": "Koradi Thermal Power Station",
        "type": "power plant",
        "entity": "http://www.wikidata.org/entity/Q6431326",
        "country_qid": "Q668",
        "Wikidata Qid": "Q6431326"
      }
    },
    {
      "type": "Feature",
      "geometry": {
        "type": "Point",
        "coordinates": [
          75.8169,
          25.1717
        ]
      },
      "properties": {
        "label": "Kota Super Thermal Power Plant",
        "type": "power plant",
        "entity": "http://www.wikidata.org/entity/Q6433826",
        "country_qid": "Q668",
        "Wikidata Qid": "Q6433826"
      }
    },
    {
      "type": "Feature",
      "geometry": {
        "type": "Point",
        "coordinates": [
          71.2506536,
          26.0425088
        ]
      },
      "properties": {
        "label": "Giral Lignite Power Plant",
        "type": "power plant",
        "entity": "http://www.wikidata.org/entity/Q5564120",
        "country_qid": "Q668",
        "Wikidata Qid": "Q5564120"
      }
    },
    {
      "type": "Feature",
      "geometry": {
        "type": "Point",
        "coordinates": [
          79.4714,
          11.5928
        ]
      },
      "properties": {
        "label": "Neyveli Thermal Power plant",
        "type": "power plant",
        "entity": "http://www.wikidata.org/entity/Q7021491",
        "country_qid": "Q668",
        "Wikidata Qid": "Q7021491"
      }
    },
    {
      "type": "Feature",
      "geometry": {
        "type": "Point",
        "coordinates": [
          87.89416667,
          24.7725
        ]
      },
      "properties": {
        "label": "Farakka Super Thermal Power Station",
        "type": "power plant",
        "entity": "http://www.wikidata.org/entity/Q5434790",
        "country_qid": "Q668",
        "Wikidata Qid": "Q5434790"
      }
    },
    {
      "type": "Feature",
      "geometry": {
        "type": "Point",
        "coordinates": [
          77.307,
          28.374
        ]
      },
      "properties": {
        "label": "Faridabad Thermal Power Station",
        "type": "power plant",
        "entity": "http://www.wikidata.org/entity/Q5435281",
        "country_qid": "Q668",
        "Wikidata Qid": "Q5435281"
      }
    },
    {
      "type": "Feature",
      "geometry": {
        "type": "Point",
        "coordinates": [
          87.13472222,
          23.46027778
        ]
      },
      "properties": {
        "label": "Mejia Thermal Power Station",
        "type": "power plant",
        "entity": "http://www.wikidata.org/entity/Q6810485",
        "country_qid": "Q668",
        "Wikidata Qid": "Q6810485"
      }
    },
    {
      "type": "Feature",
      "geometry": {
        "type": "Point",
        "coordinates": [
          68.7838766,
          23.6624909
        ]
      },
      "properties": {
        "label": "Kutch Thermal Power Station",
        "type": "power plant",
        "entity": "http://www.wikidata.org/entity/Q6448364",
        "country_qid": "Q668",
        "Wikidata Qid": "Q6448364"
      }
    },
    {
      "type": "Feature",
      "geometry": {
        "type": "Point",
        "coordinates": [
          77.0383,
          24.6236
        ]
      },
      "properties": {
        "label": "Chhabra supercritical Thermal Power Plant",
        "type": "power plant",
        "entity": "http://www.wikidata.org/entity/Q5094738",
        "country_qid": "Q668",
        "Wikidata Qid": "Q5094738"
      }
    },
    {
      "type": "Feature",
      "geometry": {
        "type": "Point",
        "coordinates": [
          77.6085,
          28.6003
        ]
      },
      "properties": {
        "label": "NTPC Dadri",
        "type": "power plant",
        "entity": "http://www.wikidata.org/entity/Q6955488",
        "country_qid": "Q668",
        "Wikidata Qid": "Q6955488"
      }
    },
    {
      "type": "Feature",
      "geometry": {
        "type": "Point",
        "coordinates": [
          82.7244329,
          22.2437814
        ]
      },
      "properties": {
        "label": "Lanco Amarkantak Power Plant",
        "type": "power plant",
        "entity": "http://www.wikidata.org/entity/Q11957667",
        "country_qid": "Q668",
        "Wikidata Qid": "Q11957667"
      }
    },
    {
      "type": "Feature",
      "geometry": {
        "type": "Point",
        "coordinates": [
          74.9254596,
          30.2344785
        ]
      },
      "properties": {
        "label": "Guru Nanak Dev Thermal Plant",
        "type": "power plant",
        "entity": "http://www.wikidata.org/entity/Q5620398",
        "country_qid": "Q668",
        "Wikidata Qid": "Q5620398"
      }
    },
    {
      "type": "Feature",
      "geometry": {
        "type": "Point",
        "coordinates": [
          85.2067,
          20.9103
        ]
      },
      "properties": {
        "label": "Talcher Thermal Power Station",
        "type": "power plant",
        "entity": "http://www.wikidata.org/entity/Q7679081",
        "country_qid": "Q668",
        "Wikidata Qid": "Q7679081"
      }
    },
    {
      "type": "Feature",
      "geometry": {
        "type": "Point",
        "coordinates": [
          82.6689,
          24.0939
        ]
      },
      "properties": {
        "label": "Vindhyachal Thermal Power Station",
        "type": "power plant",
        "entity": "http://www.wikidata.org/entity/Q7932339",
        "country_qid": "Q668",
        "Wikidata Qid": "Q7932339"
      }
    },
    {
      "type": "Feature",
      "geometry": {
        "type": "Point",
        "coordinates": [
          75.846562,
          21.043812
        ]
      },
      "properties": {
        "label": "Bhusawal Thermal Power Station",
        "type": "power plant",
        "entity": "http://www.wikidata.org/entity/Q4902216",
        "country_qid": "Q668",
        "Wikidata Qid": "Q4902216"
      }
    },
    {
      "type": "Feature",
      "geometry": {
        "type": "Point",
        "coordinates": [
          78.46,
          14.7
        ]
      },
      "properties": {
        "label": "Rayalaseema Thermal Power Station",
        "type": "power plant",
        "entity": "http://www.wikidata.org/entity/Q7298370",
        "country_qid": "Q668",
        "Wikidata Qid": "Q7298370"
      }
    },
    {
      "type": "Feature",
      "geometry": {
        "type": "Point",
        "coordinates": [
          82.292,
          22.1316
        ]
      },
      "properties": {
        "label": "Sipat Thermal Power Plant",
        "type": "power plant",
        "entity": "http://www.wikidata.org/entity/Q7525601",
        "country_qid": "Q668",
        "Wikidata Qid": "Q7525601"
      }
    },
    {
      "type": "Feature",
      "geometry": {
        "type": "Point",
        "coordinates": [
          73.5573,
          21.2101
        ]
      },
      "properties": {
        "label": "Ukai Thermal Power Station",
        "type": "power plant",
        "entity": "http://www.wikidata.org/entity/Q7878260",
        "country_qid": "Q668",
        "Wikidata Qid": "Q7878260"
      }
    },
    {
      "type": "Feature",
      "geometry": {
        "type": "Point",
        "coordinates": [
          72.67083333,
          23.24916667
        ]
      },
      "properties": {
        "label": "Gandhinagar Thermal Power Station",
        "type": "power plant",
        "entity": "http://www.wikidata.org/entity/Q5520742",
        "country_qid": "Q668",
        "Wikidata Qid": "Q5520742"
      }
    },
    {
      "type": "Feature",
      "geometry": {
        "type": "Point",
        "coordinates": [
          77.2543236,
          28.6369592
        ]
      },
      "properties": {
        "label": "Rajghat Power Station",
        "type": "power plant",
        "entity": "http://www.wikidata.org/entity/Q7286122",
        "country_qid": "Q668",
        "Wikidata Qid": "Q7286122"
      }
    },
    {
      "type": "Feature",
      "geometry": {
        "type": "Point",
        "coordinates": [
          69.828,
          22.421
        ]
      },
      "properties": {
        "label": "Sikka Thermal Power Station",
        "type": "power plant",
        "entity": "http://www.wikidata.org/entity/Q7513765",
        "country_qid": "Q668",
        "Wikidata Qid": "Q7513765"
      }
    },
    {
      "type": "Feature",
      "geometry": {
        "type": "Point",
        "coordinates": [
          75.8598896,
          29.3471556
        ]
      },
      "properties": {
        "label": "Rajiv Gandhi Thermal Power Station",
        "type": "power plant",
        "entity": "http://www.wikidata.org/entity/Q7286221",
        "country_qid": "Q668",
        "Wikidata Qid": "Q7286221"
      }
    },
    {
      "type": "Feature",
      "geometry": {
        "type": "Point",
        "coordinates": [
          77.3069,
          28.5056
        ]
      },
      "properties": {
        "label": "Badarpur Thermal Power Station",
        "type": "power plant",
        "entity": "http://www.wikidata.org/entity/Q4840630",
        "country_qid": "Q668",
        "Wikidata Qid": "Q4840630"
      }
    },
    {
      "type": "Feature",
      "geometry": {
        "type": "Point",
        "coordinates": [
          69.55277778,
          22.82277778
        ]
      },
      "properties": {
        "label": "Mundra Thermal Power Station",
        "type": "power plant",
        "entity": "http://www.wikidata.org/entity/Q6935882",
        "country_qid": "Q668",
        "Wikidata Qid": "Q6935882"
      }
    },
    {
      "type": "Feature",
      "geometry": {
        "type": "Point",
        "coordinates": [
          82.7880589,
          24.203509
        ]
      },
      "properties": {
        "label": "Anpara Thermal Power Station",
        "type": "power plant",
        "entity": "http://www.wikidata.org/entity/Q3446157",
        "country_qid": "Q668",
        "Wikidata Qid": "Q3446157"
      }
    },
    {
      "type": "Feature",
      "geometry": {
        "type": "Point",
        "coordinates": [
          76.800056,
          20.718548
        ]
      },
      "properties": {
        "label": "Paras Thermal Power Station",
        "type": "power plant",
        "entity": "http://www.wikidata.org/entity/Q7135861",
        "country_qid": "Q668",
        "Wikidata Qid": "Q7135861"
      }
    },
    {
      "type": "Feature",
      "geometry": {
        "type": "Point",
        "coordinates": [
          73.891168,
          19.979721
        ]
      },
      "properties": {
        "label": "Nashik Thermal Power Station",
        "type": "power plant",
        "entity": "http://www.wikidata.org/entity/Q6966850",
        "country_qid": "Q668",
        "Wikidata Qid": "Q6966850"
      }
    },
    {
      "type": "Feature",
      "geometry": {
        "type": "Point",
        "coordinates": [
          81.3274,
          25.9146
        ]
      },
      "properties": {
        "label": "Feroze Gandhi Unchahar Thermal Power Plant",
        "type": "power plant",
        "entity": "http://www.wikidata.org/entity/Q5445210",
        "country_qid": "Q668",
        "Wikidata Qid": "Q5445210"
      }
    },
    {
      "type": "Feature",
      "geometry": {
        "type": "Point",
        "coordinates": [
          71.9152528,
          27.5396685
        ]
      },
      "properties": {
        "label": "Bhadla solar park",
        "type": "power plant",
        "entity": "http://www.wikidata.org/entity/Q28154067",
        "country_qid": "Q668",
        "Wikidata Qid": "Q28154067"
      }
    },
    {
      "type": "Feature",
      "geometry": {
        "type": "Point",
        "coordinates": [
          76.373891,
          9.997305
        ]
      },
      "properties": {
        "label": "Brahmapuram Diesel Power Plant",
        "type": "power plant",
        "entity": "http://www.wikidata.org/entity/Q28172473",
        "country_qid": "Q668",
        "Wikidata Qid": "Q28172473"
      }
    },
    {
      "type": "Feature",
      "geometry": {
        "type": "Point",
        "coordinates": [
          86.091472222,
          23.193111111
        ]
      },
      "properties": {
        "label": "Purulia Pumped Storage Power Station",
        "type": "power plant",
        "entity": "http://www.wikidata.org/entity/Q11996504",
        "country_qid": "Q668",
        "Wikidata Qid": "Q11996504"
      }
    },
    {
      "type": "Feature",
      "geometry": {
        "type": "Point",
        "coordinates": [
          73.1139386,
          21.824154
        ]
      },
      "properties": {
        "label": "Jhanor-Gandhar Thermal Power Station",
        "type": "power plant",
        "entity": "http://www.wikidata.org/entity/Q6190893",
        "country_qid": "Q668",
        "Wikidata Qid": "Q6190893"
      }
    },
    {
      "type": "Feature",
      "geometry": {
        "type": "Point",
        "coordinates": [
          77.2502965,
          28.619473
        ]
      },
      "properties": {
        "label": "IPGCL Gas Turbine Power Station",
        "type": "power plant",
        "entity": "http://www.wikidata.org/entity/Q5973021",
        "country_qid": "Q668",
        "Wikidata Qid": "Q5973021"
      }
    },
    {
      "type": "Feature",
      "geometry": {
        "type": "Point",
        "coordinates": [
          87.26472222,
          25.24
        ]
      },
      "properties": {
        "label": "Kahalgaon Super Thermal Power Station",
        "type": "power plant",
        "entity": "http://www.wikidata.org/entity/Q11979879",
        "country_qid": "Q668",
        "Wikidata Qid": "Q11979879"
      }
    },
    {
      "type": "Feature",
      "geometry": {
        "type": "Point",
        "coordinates": [
          73.16638889,
          17.55972222
        ]
      },
      "properties": {
        "label": "Dabhol Power Station",
        "type": "power plant",
        "entity": "http://www.wikidata.org/entity/Q5207477",
        "country_qid": "Q668",
        "Wikidata Qid": "Q5207477"
      }
    },
    {
      "type": "Feature",
      "geometry": {
        "type": "Point",
        "coordinates": [
          81.810507,
          16.9247599
        ]
      },
      "properties": {
        "label": "Rajahmundry Power Plant",
        "type": "power plant",
        "entity": "http://www.wikidata.org/entity/Q11996996",
        "country_qid": "Q668",
        "Wikidata Qid": "Q11996996"
      }
    },
    {
      "type": "Feature",
      "geometry": {
        "type": "Point",
        "coordinates": [
          76.215277777,
          23.227222222
        ]
      },
      "properties": {
        "label": "Madhya Pradesh I",
        "type": "power plant",
        "entity": "http://www.wikidata.org/entity/Q108809407",
        "country_qid": "Q668",
        "Wikidata Qid": "Q108809407"
      }
    },
    {
      "type": "Feature",
      "geometry": {
        "type": "Point",
        "coordinates": [
          88.334638888,
          27.106555555
        ]
      },
      "properties": {
        "label": "Jorethang Loop Hydroelectric project",
        "type": "power plant",
        "entity": "http://www.wikidata.org/entity/Q56368348",
        "country_qid": "Q668",
        "Wikidata Qid": "Q56368348"
      }
    },
    {
      "type": "Feature",
      "geometry": {
        "type": "Point",
        "coordinates": [
          82.7975541,
          24.2044645
        ]
      },
      "properties": {
        "label": "Lanco Anpara Power Plant",
        "type": "power plant",
        "entity": "http://www.wikidata.org/entity/Q11983043",
        "country_qid": "Q668",
        "Wikidata Qid": "Q11983043"
      }
    },
    {
      "type": "Feature",
      "geometry": {
        "type": "Point",
        "coordinates": [
          73.8331,
          17.4561
        ]
      },
      "properties": {
        "label": "Vankusawade Wind Park",
        "type": "power plant",
        "entity": "http://www.wikidata.org/entity/Q7915069",
        "country_qid": "Q668",
        "Wikidata Qid": "Q7915069"
      }
    },
    {
      "type": "Feature",
      "geometry": {
        "type": "Point",
        "coordinates": [
          82.3094201,
          17.0584155
        ]
      },
      "properties": {
        "label": "Spectrum Power Generation Limited",
        "type": "power plant",
        "entity": "http://www.wikidata.org/entity/Q120428955",
        "country_qid": "Q668",
        "Wikidata Qid": "Q120428955"
      }
    },
    {
      "type": "Feature",
      "geometry": {
        "type": "Point",
        "coordinates": [
          73.747222222,
          21.830277777
        ]
      },
      "properties": {
        "label": "Sardar Sarovar Dam",
        "type": "power plant",
        "entity": "http://www.wikidata.org/entity/Q2120392",
        "country_qid": "Q668",
        "Wikidata Qid": "Q2120392"
      }
    },
    {
      "type": "Feature",
      "geometry": {
        "type": "Point",
        "coordinates": [
          85.2673048,
          20.870865
        ]
      },
      "properties": {
        "label": "Kamalanga Thermal Power Plant",
        "type": "power plant",
        "entity": "http://www.wikidata.org/entity/Q11979976",
        "country_qid": "Q668",
        "Wikidata Qid": "Q11979976"
      }
    },
    {
      "type": "Feature",
      "geometry": {
        "type": "Point",
        "coordinates": [
          80.175,
          12.558333
        ]
      },
      "properties": {
        "label": "Q3664611",
        "type": "power plant",
        "entity": "http://www.wikidata.org/entity/Q3664611",
        "country_qid": "Q668",
        "Wikidata Qid": "Q3664611"
      }
    },
    {
      "type": "Feature",
      "geometry": {
        "type": "Point",
        "coordinates": [
          82.8592929,
          19.4269562
        ]
      },
      "properties": {
        "label": "Indravati power plant",
        "type": "power plant",
        "entity": "http://www.wikidata.org/entity/Q11977045",
        "country_qid": "Q668",
        "Wikidata Qid": "Q11977045"
      }
    },
    {
      "type": "Feature",
      "geometry": {
        "type": "Point",
        "coordinates": [
          73.39,
          18.454833333
        ]
      },
      "properties": {
        "label": "Bhira hydro power station",
        "type": "power plant",
        "entity": "http://www.wikidata.org/entity/Q4901813",
        "country_qid": "Q668",
        "Wikidata Qid": "Q4901813"
      }
    },
    {
      "type": "Feature",
      "geometry": {
        "type": "Point",
        "coordinates": [
          88.366666666,
          22.566666666
        ]
      },
      "properties": {
        "label": "Bengal Solar Plant",
        "type": "power plant",
        "entity": "http://www.wikidata.org/entity/Q106298173",
        "country_qid": "Q668",
        "Wikidata Qid": "Q106298173"
      }
    },
    {
      "type": "Feature",
      "geometry": {
        "type": "Point",
        "coordinates": [
          77.0435,
          10.410583333
        ]
      },
      "properties": {
        "label": "Kadamparai Hydroelectric Power Plant",
        "type": "power plant",
        "entity": "http://www.wikidata.org/entity/Q11979865",
        "country_qid": "Q668",
        "Wikidata Qid": "Q11979865"
      }
    },
    {
      "type": "Feature",
      "geometry": {
        "type": "Point",
        "coordinates": [
          88.457138888,
          26.927527777
        ]
      },
      "properties": {
        "label": "Teesta Low Dam - IV Hydropower Plant",
        "type": "power plant",
        "entity": "http://www.wikidata.org/entity/Q56368274",
        "country_qid": "Q668",
        "Wikidata Qid": "Q56368274"
      }
    },
    {
      "type": "Feature",
      "geometry": {
        "type": "Point",
        "coordinates": [
          77.3583,
          28.3461
        ]
      },
      "properties": {
        "label": "Faridabad Thermal Power Plant",
        "type": "power plant",
        "entity": "http://www.wikidata.org/entity/Q5435280",
        "country_qid": "Q668",
        "Wikidata Qid": "Q5435280"
      }
    },
    {
      "type": "Feature",
      "geometry": {
        "type": "Point",
        "coordinates": [
          74.590555555,
          23.529444444
        ]
      },
      "properties": {
        "label": "Mahi Banswara Atomic Power Plant",
        "type": "power plant",
        "entity": "http://www.wikidata.org/entity/Q124613606",
        "country_qid": "Q668",
        "Wikidata Qid": "Q124613606"
      }
    },
    {
      "type": "Feature",
      "geometry": {
        "type": "Point",
        "coordinates": [
          72.7484607,
          19.954552
        ]
      },
      "properties": {
        "label": "Dahanu Thermal Power Station",
        "type": "power plant",
        "entity": "http://www.wikidata.org/entity/Q11964547",
        "country_qid": "Q668",
        "Wikidata Qid": "Q11964547"
      }
    },
    {
      "type": "Feature",
      "geometry": {
        "type": "Point",
        "coordinates": [
          74.80963889,
          33.13997222
        ]
      },
      "properties": {
        "label": "Salal Hydroelectric Power Station",
        "type": "power plant",
        "entity": "http://www.wikidata.org/entity/Q7403509",
        "country_qid": "Q668",
        "Wikidata Qid": "Q7403509"
      }
    },
    {
      "type": "Feature",
      "geometry": {
        "type": "Point",
        "coordinates": [
          72.752497906,
          22.239802477
        ]
      },
      "properties": {
        "label": "Dhuvaran Gas Based CCPP",
        "type": "power plant",
        "entity": "http://www.wikidata.org/entity/Q16947651",
        "country_qid": "Q668",
        "Wikidata Qid": "Q16947651"
      }
    },
    {
      "type": "Feature",
      "geometry": {
        "type": "Point",
        "coordinates": [
          73.35,
          21.23861111
        ]
      },
      "properties": {
        "label": "Kakrapar Atomic Power Station",
        "type": "power plant",
        "entity": "http://www.wikidata.org/entity/Q1739415",
        "country_qid": "Q668",
        "Wikidata Qid": "Q1739415"
      }
    },
    {
      "type": "Feature",
      "geometry": {
        "type": "Point",
        "coordinates": [
          78.015222,
          31.543203
        ]
      },
      "properties": {
        "label": "Karcham Wangtoo Hydroelectric Plant",
        "type": "power plant",
        "entity": "http://www.wikidata.org/entity/Q13447506",
        "country_qid": "Q668",
        "Wikidata Qid": "Q13447506"
      }
    },
    {
      "type": "Feature",
      "geometry": {
        "type": "Point",
        "coordinates": [
          69.312527777,
          24.128722222
        ]
      },
      "properties": {
        "label": "Gujarat Hybrid Renewable Energy Park",
        "type": "power plant",
        "entity": "http://www.wikidata.org/entity/Q104434232",
        "country_qid": "Q668",
        "Wikidata Qid": "Q104434232"
      }
    },
    {
      "type": "Feature",
      "geometry": {
        "type": "Point",
        "coordinates": [
          74.64663889,
          34.46672222
        ]
      },
      "properties": {
        "label": "Kishanganga Hydroelectric Plant",
        "type": "power plant",
        "entity": "http://www.wikidata.org/entity/Q6416539",
        "country_qid": "Q668",
        "Wikidata Qid": "Q6416539"
      }
    },
    {
      "type": "Feature",
      "geometry": {
        "type": "Point",
        "coordinates": [
          77.4139,
          14.2693
        ]
      },
      "properties": {
        "label": "Pavagada Solar Park",
        "type": "power plant",
        "entity": "http://www.wikidata.org/entity/Q29026621",
        "country_qid": "Q668",
        "Wikidata Qid": "Q29026621"
      }
    },
    {
      "type": "Feature",
      "geometry": {
        "type": "Point",
        "coordinates": [
          78.9335918,
          20.928444
        ]
      },
      "properties": {
        "label": "Butibori Power Project",
        "type": "power plant",
        "entity": "http://www.wikidata.org/entity/Q11962632",
        "country_qid": "Q668",
        "Wikidata Qid": "Q11962632"
      }
    },
    {
      "type": "Feature",
      "geometry": {
        "type": "Point",
        "coordinates": [
          79.468583,
          18.731712
        ]
      },
      "properties": {
        "label": "NTPC Ramagundam Floating Solar Power Plant",
        "type": "power plant",
        "entity": "http://www.wikidata.org/entity/Q123630872",
        "country_qid": "Q668",
        "Wikidata Qid": "Q123630872"
      }
    },
    {
      "type": "Feature",
      "geometry": {
        "type": "Point",
        "coordinates": [
          72.9889315,
          21.3405535
        ]
      },
      "properties": {
        "label": "SUGEN Mega Power Plant",
        "type": "power plant",
        "entity": "http://www.wikidata.org/entity/Q120079702",
        "country_qid": "Q668",
        "Wikidata Qid": "Q120079702"
      }
    },
    {
      "type": "Feature",
      "geometry": {
        "type": "Point",
        "coordinates": [
          72.9980886,
          21.3429293
        ]
      },
      "properties": {
        "label": "GENSU Solar Power Plant",
        "type": "power plant",
        "entity": "http://www.wikidata.org/entity/Q120080257",
        "country_qid": "Q668",
        "Wikidata Qid": "Q120080257"
      }
    },
    {
      "type": "Feature",
      "geometry": {
        "type": "Point",
        "coordinates": [
          78.31916667,
          30.60722222
        ]
      },
      "properties": {
        "label": "Dharasu Power Station",
        "type": "power plant",
        "entity": "http://www.wikidata.org/entity/Q5269169",
        "country_qid": "Q668",
        "Wikidata Qid": "Q5269169"
      }
    },
    {
      "type": "Feature",
      "geometry": {
        "type": "Point",
        "coordinates": [
          77.7125,
          8.16833333
        ]
      },
      "properties": {
        "label": "Kudankulam Nuclear Power Plant",
        "type": "power plant",
        "entity": "http://www.wikidata.org/entity/Q337376",
        "country_qid": "Q668",
        "Wikidata Qid": "Q337376"
      }
    },
    {
      "type": "Feature",
      "geometry": {
        "type": "Point",
        "coordinates": [
          95.4077625,
          27.3414652
        ]
      },
      "properties": {
        "label": "Assam Gas based power plant",
        "type": "power plant",
        "entity": "http://www.wikidata.org/entity/Q19377031",
        "country_qid": "Q668",
        "Wikidata Qid": "Q19377031"
      }
    },
    {
      "type": "Feature",
      "geometry": {
        "type": "Point",
        "coordinates": [
          76.60833333,
          11.26666667
        ]
      },
      "properties": {
        "label": "Kundah hydro-electric power house",
        "type": "power plant",
        "entity": "http://www.wikidata.org/entity/Q11982348",
        "country_qid": "Q668",
        "Wikidata Qid": "Q11982348"
      }
    },
    {
      "type": "Feature",
      "geometry": {
        "type": "Point",
        "coordinates": [
          80.175,
          12.55833333
        ]
      },
      "properties": {
        "label": "Madras Atomic Power Station",
        "type": "power plant",
        "entity": "http://www.wikidata.org/entity/Q972715",
        "country_qid": "Q668",
        "Wikidata Qid": "Q972715"
      }
    },
    {
      "type": "Feature",
      "geometry": {
        "type": "Point",
        "coordinates": [
          76.651361111,
          11.286194444
        ]
      },
      "properties": {
        "label": "Kundah II hydro power station",
        "type": "power plant",
        "entity": "http://www.wikidata.org/entity/Q11982347",
        "country_qid": "Q668",
        "Wikidata Qid": "Q11982347"
      }
    },
    {
      "type": "Feature",
      "geometry": {
        "type": "Point",
        "coordinates": [
          88.442138888,
          27.002333333
        ]
      },
      "properties": {
        "label": "Teesta Low Dam - III Hydropower Plant",
        "type": "power plant",
        "entity": "http://www.wikidata.org/entity/Q56368268",
        "country_qid": "Q668",
        "Wikidata Qid": "Q56368268"
      }
    },
    {
      "type": "Feature",
      "geometry": {
        "type": "Point",
        "coordinates": [
          82.1404886,
          17.0421146
        ]
      },
      "properties": {
        "label": "Samalkot Power Project",
        "type": "power plant",
        "entity": "http://www.wikidata.org/entity/Q19387447",
        "country_qid": "Q668",
        "Wikidata Qid": "Q19387447"
      }
    },
    {
      "type": "Feature",
      "geometry": {
        "type": "Point",
        "coordinates": [
          75.7601,
          18.9891
        ]
      },
      "properties": {
        "label": "K. P. Power Solar Park",
        "type": "power plant",
        "entity": "http://www.wikidata.org/entity/Q60743830",
        "country_qid": "Q668",
        "Wikidata Qid": "Q60743830"
      }
    },
    {
      "type": "Feature",
      "geometry": {
        "type": "Point",
        "coordinates": [
          76.393,
          10.1518
        ]
      },
      "properties": {
        "label": "CIAL Solar Power Project",
        "type": "power plant",
        "entity": "http://www.wikidata.org/entity/Q28402313",
        "country_qid": "Q668",
        "Wikidata Qid": "Q28402313"
      }
    },
    {
      "type": "Feature",
      "geometry": {
        "type": "Point",
        "coordinates": [
          76.351388888,
          28.489166666
        ]
      },
      "properties": {
        "label": "Jhajjar Power Station",
        "type": "power plant",
        "entity": "http://www.wikidata.org/entity/Q11978559",
        "country_qid": "Q668",
        "Wikidata Qid": "Q11978559"
      }
    },
    {
      "type": "Feature",
      "geometry": {
        "type": "Point",
        "coordinates": [
          76.4725,
          32.45325
        ]
      },
      "properties": {
        "label": "Budhil hydroelectric power station",
        "type": "power plant",
        "entity": "http://www.wikidata.org/entity/Q11962519",
        "country_qid": "Q668",
        "Wikidata Qid": "Q11962519"
      }
    },
    {
      "type": "Feature",
      "geometry": {
        "type": "Point",
        "coordinates": [
          76.307222,
          15.371389
        ]
      },
      "properties": {
        "label": "Karnataka II solar power plant",
        "type": "power plant",
        "entity": "http://www.wikidata.org/entity/Q65071097",
        "country_qid": "Q668",
        "Wikidata Qid": "Q65071097"
      }
    },
    {
      "type": "Feature",
      "geometry": {
        "type": "Point",
        "coordinates": [
          75.61388889,
          24.87222222
        ]
      },
      "properties": {
        "label": "Rajasthan Atomic Power Station",
        "type": "power plant",
        "entity": "http://www.wikidata.org/entity/Q250830",
        "country_qid": "Q668",
        "Wikidata Qid": "Q250830"
      }
    },
    {
      "type": "Feature",
      "geometry": {
        "type": "Point",
        "coordinates": [
          76.07444444,
          34.45888889
        ]
      },
      "properties": {
        "label": "Chutak Hydroelectric Project",
        "type": "power plant",
        "entity": "http://www.wikidata.org/entity/Q5118360",
        "country_qid": "Q668",
        "Wikidata Qid": "Q5118360"
      }
    },
    {
      "type": "Feature",
      "geometry": {
        "type": "Point",
        "coordinates": [
          79.291334,
          20.004968
        ]
      },
      "properties": {
        "label": "Chandrapur Super Thermal Power Station",
        "type": "power plant",
        "entity": "http://www.wikidata.org/entity/Q11963416",
        "country_qid": "Q668",
        "Wikidata Qid": "Q11963416"
      }
    },
    {
      "type": "Feature",
      "geometry": {
        "type": "Point",
        "coordinates": [
          77.252733,
          28.6151411
        ]
      },
      "properties": {
        "label": "Pragati-I Combined Cycle Gas Power Station",
        "type": "power plant",
        "entity": "http://www.wikidata.org/entity/Q7237615",
        "country_qid": "Q668",
        "Wikidata Qid": "Q7237615"
      }
    },
    {
      "type": "Feature",
      "geometry": {
        "type": "Point",
        "coordinates": [
          72.66111111,
          19.82777778
        ]
      },
      "properties": {
        "label": "Tarapur Atomic Power Station",
        "type": "power plant",
        "entity": "http://www.wikidata.org/entity/Q1739475",
        "country_qid": "Q668",
        "Wikidata Qid": "Q1739475"
      }
    },
    {
      "type": "Feature",
      "geometry": {
        "type": "Point",
        "coordinates": [
          73.827027777,
          23.306333333
        ]
      },
      "properties": {
        "label": "Kadana hydro power station",
        "type": "power plant",
        "entity": "http://www.wikidata.org/entity/Q56368159",
        "country_qid": "Q668",
        "Wikidata Qid": "Q56368159"
      }
    },
    {
      "type": "Feature",
      "geometry": {
        "type": "Point",
        "coordinates": [
          78.428,
          14.017
        ]
      },
      "properties": {
        "label": "NP Kunta Ultra Mega Solar Power Project",
        "type": "power plant",
        "entity": "http://www.wikidata.org/entity/Q28129699",
        "country_qid": "Q668",
        "Wikidata Qid": "Q28129699"
      }
    },
    {
      "type": "Feature",
      "geometry": {
        "type": "Point",
        "coordinates": [
          71.4691329,
          20.8984882
        ]
      },
      "properties": {
        "label": "GSPC Pipavav Power Station",
        "type": "power plant",
        "entity": "http://www.wikidata.org/entity/Q120422842",
        "country_qid": "Q668",
        "Wikidata Qid": "Q120422842"
      }
    },
    {
      "type": "Feature",
      "geometry": {
        "type": "Point",
        "coordinates": [
          79.62752778,
          30.49413889
        ]
      },
      "properties": {
        "label": "Tapovan Vishnugad Hydropower Plant",
        "type": "power plant",
        "entity": "http://www.wikidata.org/entity/Q24948031",
        "country_qid": "Q668",
        "Wikidata Qid": "Q24948031"
      }
    },
    {
      "type": "Feature",
      "geometry": {
        "type": "Point",
        "coordinates": [
          72.6620216,
          21.1648759
        ]
      },
      "properties": {
        "label": "GSEG Combined Cycle Power plant",
        "type": "power plant",
        "entity": "http://www.wikidata.org/entity/Q5617018",
        "country_qid": "Q668",
        "Wikidata Qid": "Q5617018"
      }
    },
    {
      "type": "Feature",
      "geometry": {
        "type": "Point",
        "coordinates": [
          69.02416667,
          23.26277778
        ]
      },
      "properties": {
        "label": "Bitta Solar Power Plant",
        "type": "power plant",
        "entity": "http://www.wikidata.org/entity/Q15199508",
        "country_qid": "Q668",
        "Wikidata Qid": "Q15199508"
      }
    },
    {
      "type": "Feature",
      "geometry": {
        "type": "Point",
        "coordinates": [
          81.5744,
          24.4802
        ]
      },
      "properties": {
        "label": "Rewa Ultra Mega Solar",
        "type": "power plant",
        "entity": "http://www.wikidata.org/entity/Q24929801",
        "country_qid": "Q668",
        "Wikidata Qid": "Q24929801"
      }
    },
    {
      "type": "Feature",
      "geometry": {
        "type": "Point",
        "coordinates": [
          75.1347,
          24.6907
        ]
      },
      "properties": {
        "label": "Welspun Solar MP project",
        "type": "power plant",
        "entity": "http://www.wikidata.org/entity/Q18378474",
        "country_qid": "Q668",
        "Wikidata Qid": "Q18378474"
      }
    },
    {
      "type": "Feature",
      "geometry": {
        "type": "Point",
        "coordinates": [
          74.43888889,
          14.86666667
        ]
      },
      "properties": {
        "label": "Kaiga Atomic Power Station..",
        "type": "power plant",
        "entity": "http://www.wikidata.org/entity/Q1739416",
        "country_qid": "Q668",
        "Wikidata Qid": "Q1739416"
      }
    },
    {
      "type": "Feature",
      "geometry": {
        "type": "Point",
        "coordinates": [
          82.593527777,
          18.831638888
        ]
      },
      "properties": {
        "label": "Upper Kolab hydro power station",
        "type": "power plant",
        "entity": "http://www.wikidata.org/entity/Q11981427",
        "country_qid": "Q668",
        "Wikidata Qid": "Q11981427"
      }
    },
    {
      "type": "Feature",
      "geometry": {
        "type": "Point",
        "coordinates": [
          79.911,
          22.737
        ]
      },
      "properties": {
        "label": "Jhabua Thermal Power Project",
        "type": "power plant",
        "entity": "http://www.wikidata.org/entity/Q11978558",
        "country_qid": "Q668",
        "Wikidata Qid": "Q11978558"
      }
    },
    {
      "type": "Feature",
      "geometry": {
        "type": "Point",
        "coordinates": [
          74.5435183,
          15.9002911
        ]
      },
      "properties": {
        "label": "Belgaum Power Plant",
        "type": "power plant",
        "entity": "http://www.wikidata.org/entity/Q11960494",
        "country_qid": "Q668",
        "Wikidata Qid": "Q11960494"
      }
    },
    {
      "type": "Feature",
      "geometry": {
        "type": "Point",
        "coordinates": [
          80.2702,
          13.0983
        ]
      },
      "properties": {
        "label": "GMR Vasavi Diesel Power Plant",
        "type": "power plant",
        "entity": "http://www.wikidata.org/entity/Q11971401",
        "country_qid": "Q668",
        "Wikidata Qid": "Q11971401"
      }
    },
    {
      "type": "Feature",
      "geometry": {
        "type": "Point",
        "coordinates": [
          74.674833333,
          14.251583333
        ]
      },
      "properties": {
        "label": "Gerusoppa Dam Powerhouse",
        "type": "power plant",
        "entity": "http://www.wikidata.org/entity/Q11971917",
        "country_qid": "Q668",
        "Wikidata Qid": "Q11971917"
      }
    },
    {
      "type": "Feature",
      "geometry": {
        "type": "Point",
        "coordinates": [
          72.9790383,
          21.7806319
        ]
      },
      "properties": {
        "label": "Paguthan Combined Cycle Power Plant",
        "type": "power plant",
        "entity": "http://www.wikidata.org/entity/Q11994626",
        "country_qid": "Q668",
        "Wikidata Qid": "Q11994626"
      }
    },
    {
      "type": "Feature",
      "geometry": {
        "type": "Point",
        "coordinates": [
          75.9925,
          15.651944
        ]
      },
      "properties": {
        "label": "Karnataka I Solar Power Plant",
        "type": "power plant",
        "entity": "http://www.wikidata.org/entity/Q60760557",
        "country_qid": "Q668",
        "Wikidata Qid": "Q60760557"
      }
    },
    {
      "type": "Feature",
      "geometry": {
        "type": "Point",
        "coordinates": [
          75.27993409,
          12.250315712
        ]
      },
      "properties": {
        "label": "Kerala Nuclear Power Station",
        "type": "power plant",
        "entity": "http://www.wikidata.org/entity/Q131686976",
        "country_qid": "Q668",
        "Wikidata Qid": "Q131686976"
      }
    },
    {
      "type": "Feature",
      "geometry": {
        "type": "Point",
        "coordinates": [
          76.86866,
          31.4131399
        ]
      },
      "properties": {
        "label": "Dehar Power Plant",
        "type": "power plant",
        "entity": "http://www.wikidata.org/entity/Q11965021",
        "country_qid": "Q668",
        "Wikidata Qid": "Q11965021"
      }
    },
    {
      "type": "Feature",
      "geometry": {
        "type": "Point",
        "coordinates": [
          78.392162,
          9.347568
        ]
      },
      "properties": {
        "label": "Kamuthi Solar Power Project",
        "type": "power plant",
        "entity": "http://www.wikidata.org/entity/Q24885499",
        "country_qid": "Q668",
        "Wikidata Qid": "Q24885499"
      }
    },
    {
      "type": "Feature",
      "geometry": {
        "type": "Point",
        "coordinates": [
          73.750361111,
          17.402
        ]
      },
      "properties": {
        "label": "Koyna Dam Powerhouse",
        "type": "power plant",
        "entity": "http://www.wikidata.org/entity/Q56368041",
        "country_qid": "Q668",
        "Wikidata Qid": "Q56368041"
      }
    },
    {
      "type": "Feature",
      "geometry": {
        "type": "Point",
        "coordinates": [
          74.31666667,
          20.98333333
        ]
      },
      "properties": {
        "label": "Sakri solar plant",
        "type": "power plant",
        "entity": "http://www.wikidata.org/entity/Q7403079",
        "country_qid": "Q668",
        "Wikidata Qid": "Q7403079"
      }
    },
    {
      "type": "Feature",
      "geometry": {
        "type": "Point",
        "coordinates": [
          77.17972222,
          34.21722222
        ]
      },
      "properties": {
        "label": "Nimoo Bazgo Hydroelectric Plant",
        "type": "power plant",
        "entity": "http://www.wikidata.org/entity/Q15262355",
        "country_qid": "Q668",
        "Wikidata Qid": "Q15262355"
      }
    },
    {
      "type": "Feature",
      "geometry": {
        "type": "Point",
        "coordinates": [
          91.4385867,
          23.4983274
        ]
      },
      "properties": {
        "label": "ONGC Tripura Power Plant",
        "type": "power plant",
        "entity": "http://www.wikidata.org/entity/Q16896197",
        "country_qid": "Q668",
        "Wikidata Qid": "Q16896197"
      }
    },
    {
      "type": "Feature",
      "geometry": {
        "type": "Point",
        "coordinates": [
          72.6126311,
          21.7057166
        ]
      },
      "properties": {
        "label": "DGEN Mega Power Plant",
        "type": "power plant",
        "entity": "http://www.wikidata.org/entity/Q120080744",
        "country_qid": "Q668",
        "Wikidata Qid": "Q120080744"
      }
    },
    {
      "type": "Feature",
      "geometry": {
        "type": "Point",
        "coordinates": [
          73.6494201,
          19.5332449
        ]
      },
      "properties": {
        "label": "Ghatghar pumped-storage power station",
        "type": "power plant",
        "entity": "http://www.wikidata.org/entity/Q11971933",
        "country_qid": "Q668",
        "Wikidata Qid": "Q11971933"
      }
    },
    {
      "type": "Feature",
      "geometry": {
        "type": "Point",
        "coordinates": [
          81.8130104,
          16.9247168
        ]
      },
      "properties": {
        "label": "Vemagiri Power Plant",
        "type": "power plant",
        "entity": "http://www.wikidata.org/entity/Q119629819",
        "country_qid": "Q668",
        "Wikidata Qid": "Q119629819"
      }
    },
    {
      "type": "Feature",
      "geometry": {
        "type": "Point",
        "coordinates": [
          78.283749,
          15.681522
        ]
      },
      "properties": {
        "label": "Kurnool Ultra Mega Solar Park",
        "type": "power plant",
        "entity": "http://www.wikidata.org/entity/Q29467237",
        "country_qid": "Q668",
        "Wikidata Qid": "Q29467237"
      }
    },
    {
      "type": "Feature",
      "geometry": {
        "type": "Point",
        "coordinates": [
          79.5278,
          26.6286
        ]
      },
      "properties": {
        "label": "NTPC Auraiya Gas Power Station",
        "type": "power plant",
        "entity": "http://www.wikidata.org/entity/Q4822081",
        "country_qid": "Q668",
        "Wikidata Qid": "Q4822081"
      }
    },
    {
      "type": "Feature",
      "geometry": {
        "type": "Point",
        "coordinates": [
          80.08972222,
          22.78055556
        ]
      },
      "properties": {
        "label": "Chutka Nuclear Power Plant",
        "type": "power plant",
        "entity": "http://www.wikidata.org/entity/Q24949566",
        "country_qid": "Q668",
        "Wikidata Qid": "Q24949566"
      }
    },
    {
      "type": "Feature",
      "geometry": {
        "type": "Point",
        "coordinates": [
          72.7528599,
          22.2395886
        ]
      },
      "properties": {
        "label": "Dhuvaran Thermal Power Station",
        "type": "power plant",
        "entity": "http://www.wikidata.org/entity/Q17747140",
        "country_qid": "Q668",
        "Wikidata Qid": "Q17747140"
      }
    },
    {
      "type": "Feature",
      "geometry": {
        "type": "Point",
        "coordinates": [
          88.216388888,
          27.13
        ]
      },
      "properties": {
        "label": "Rammam III hydro power station",
        "type": "power plant",
        "entity": "http://www.wikidata.org/entity/Q56368272",
        "country_qid": "Q668",
        "Wikidata Qid": "Q56368272"
      }
    },
    {
      "type": "Feature",
      "geometry": {
        "type": "Point",
        "coordinates": [
          68.99318333,
          22.409125
        ]
      },
      "properties": {
        "label": "Mithapur Solar Power Plant",
        "type": "power plant",
        "entity": "http://www.wikidata.org/entity/Q6881593",
        "country_qid": "Q668",
        "Wikidata Qid": "Q6881593"
      }
    },
    {
      "type": "Feature",
      "geometry": {
        "type": "Point",
        "coordinates": [
          78.48055556,
          30.37777778
        ]
      },
      "properties": {
        "label": "Tehri Dam",
        "type": "power plant",
        "entity": "http://www.wikidata.org/entity/Q69091",
        "country_qid": "Q668",
        "Wikidata Qid": "Q69091"
      }
    },
    {
      "type": "Feature",
      "geometry": {
        "type": "Point",
        "coordinates": [
          73.325,
          16.58333333
        ]
      },
      "properties": {
        "label": "Jaitapur Nuclear Power Project",
        "type": "power plant",
        "entity": "http://www.wikidata.org/entity/Q1642138",
        "country_qid": "Q668",
        "Wikidata Qid": "Q1642138"
      }
    },
    {
      "type": "Feature",
      "geometry": {
        "type": "Point",
        "coordinates": [
          81.8626097,
          16.7349034
        ]
      },
      "properties": {
        "label": "Konaseema Gas Power",
        "type": "power plant",
        "entity": "http://www.wikidata.org/entity/Q120451102",
        "country_qid": "Q668",
        "Wikidata Qid": "Q120451102"
      }
    },
    {
      "type": "Feature",
      "geometry": {
        "type": "Point",
        "coordinates": [
          76.735187084,
          10.321291603
        ]
      },
      "properties": {
        "label": "Sholayar Dam",
        "type": "power plant",
        "entity": "http://www.wikidata.org/entity/Q17089992",
        "country_qid": "Q668",
        "Wikidata Qid": "Q17089992"
      }
    },
    {
      "type": "Feature",
      "geometry": {
        "type": "Point",
        "coordinates": [
          77.07,
          28.79472222
        ]
      },
      "properties": {
        "label": "Pragati-III Combined Cycle Power Plant",
        "type": "power plant",
        "entity": "http://www.wikidata.org/entity/Q7237608",
        "country_qid": "Q668",
        "Wikidata Qid": "Q7237608"
      }
    },
    {
      "type": "Feature",
      "geometry": {
        "type": "Point",
        "coordinates": [
          77.765556,
          16.152778
        ]
      },
      "properties": {
        "label": "Telangana I Solar Power Plant",
        "type": "power plant",
        "entity": "http://www.wikidata.org/entity/Q60754779",
        "country_qid": "Q668",
        "Wikidata Qid": "Q60754779"
      }
    },