{
  "type": "FeatureCollection",
  "features": [
    {
      "type": "Feature",
      "geometry": {
        "type": "Point",
        "coordinates": [
          20.31139,
          42.73722
        ]
      },
      "properties": {
        "label": "Radac Hydropower",
        "type": "power plant",
        "entity": "http://www.wikidata.org/entity/Q110167807",
        "country_qid": "Q1246"
      }
    },
    {
      "type": "Feature",
      "geometry": {
        "type": "Point",
        "coordinates": [
          20.675277777,
          42.010277777
        ]
      },
      "properties": {
        "label": "Hidrocentrali i Dikances",
        "type": "power plant",
        "entity": "http://www.wikidata.org/entity/Q16357840",
        "country_qid": "Q1246"
      }
    },
    {
      "type": "Feature",
      "geometry": {
        "type": "Point",
        "coordinates": [
          21.014722222,
          42.970555555
        ]
      },
      "properties": {
        "label": "Bajgora Wind Park",
        "type": "power plant",
        "entity": "http://www.wikidata.org/entity/Q109811639",
        "country_qid": "Q1246"
      }
    },
    {
      "type": "Feature",
      "geometry": {
        "type": "Point",
        "coordinates": [
          21.08333333,
          42.67527778
        ]
      },
      "properties": {
        "label": "Kosovo A Power Station",
        "type": "power plant",
        "entity": "http://www.wikidata.org/entity/Q6433360",
        "country_qid": "Q1246"
      }
    },
    {
      "type": "Feature",
      "geometry": {
        "type": "Point",
        "coordinates": [
          21.666388888,
          42.655833333
        ]
      },
      "properties": {
        "label": "Kitka Wind Park",
        "type": "power plant",
        "entity": "http://www.wikidata.org/entity/Q110185027",
        "country_qid": "Q1246"
      }
    },
    {
      "type": "Feature",
      "geometry": {
        "type": "Point",
        "coordinates": [
          21.05,
          42.69555556
        ]
      },
      "properties": {
        "label": "Kosovo B Power Station",
        "type": "power plant",
        "entity": "http://www.wikidata.org/entity/Q6433362",
        "country_qid": "Q1246"
      }
    },
    {
      "type": "Feature",
      "geometry": {
        "type": "Point",
        "coordinates": [
          20.17917,
          42.58889
        ]
      },
      "properties": {
        "label": "Hidrocentrali Lumbardhi",
        "type": "power plant",
        "entity": "http://www.wikidata.org/entity/Q110726519",
        "country_qid": "Q1246"
      }
    },
    {
      "type": "Feature",
      "geometry": {
        "type": "Point",
        "coordinates": [
          20.5728456,
          42.3651709
        ]
      },
      "properties": {
        "label": "M & Sillosi",
        "type": "Reservoir",
        "entity": "http://www.wikidata.org/entity/Q116371121",
        "country_qid": "Q1246"
      }
    },
    {
      "type": "Feature",
      "geometry": {
        "type": "Point",
        "coordinates": [
          21.246388888,
          42.6275
        ]
      },
      "properties": {
        "label": "Badoc Lake",
        "type": "Reservoir",
        "entity": "http://www.wikidata.org/entity/Q799675",
        "country_qid": "Q1246"
      }
    },
    {
      "type": "Feature",
      "geometry": {
        "type": "Point",
        "coordinates": [
          20.96242,
          42.82437
        ]
      },
      "properties": {
        "label": "Çeshmja e zasellëve",
        "type": "Reservoir",
        "entity": "http://www.wikidata.org/entity/Q119842900",
        "country_qid": "Q1246"
      }
    },
    {
      "type": "Feature",
      "geometry": {
        "type": "Point",
        "coordinates": [
          20.65205278,
          42.94031111
        ]
      },
      "properties": {
        "label": "Gazivoda Dam",
        "type": "Hydraulic structure",
        "entity": "http://www.wikidata.org/entity/Q17076027",
        "country_qid": "Q1246"
      }
    },
    {
      "type": "Feature",
      "geometry": {
        "type": "Point",
        "coordinates": [
          21.21118,
          42.94753
        ]
      },
      "properties": {
        "label": "Q27345779",
        "type": "Hydraulic structure",
        "entity": "http://www.wikidata.org/entity/Q27345779",
        "country_qid": "Q1246"
      }
    },
    {
      "type": "Feature",
      "geometry": {
        "type": "Point",
        "coordinates": [
          20.897,
          42.662
        ]
      },
      "properties": {
        "label": "New Co Ferronikeli",
        "type": "Industrial building",
        "entity": "http://www.wikidata.org/entity/Q62668508",
        "country_qid": "Q1246"
      }
    },
    {
      "type": "Feature",
      "geometry": {
        "type": "Point",
        "coordinates": [
          21.048611111,
          42.969444444
        ]
      },
      "properties": {
        "label": "Q27345822",
        "type": "Mine",
        "entity": "http://www.wikidata.org/entity/Q27345822",
        "country_qid": "Q1246"
      }
    }
  ]
}