{
  "type": "FeatureCollection",
  "features": [
    {
      "type": "Feature",
      "geometry": {
        "type": "Point",
        "coordinates": [
          102.909969444,
          5.023680555
        ]
      },
      "properties": {
        "label": "Sultan Mahmud Power Station",
        "type": "power plant",
        "entity": "http://www.wikidata.org/entity/Q17056517",
        "country_qid": "Q833",
        "Wikidata Qid": "Q17056517"
      }
    },
    {
      "type": "Feature",
      "geometry": {
        "type": "Point",
        "coordinates": [
          110.464,
          1.6369
        ]
      },
      "properties": {
        "label": "Sejingkat Power Station",
        "type": "power plant",
        "entity": "http://www.wikidata.org/entity/Q116628936",
        "country_qid": "Q833",
        "Wikidata Qid": "Q116628936"
      }
    },
    {
      "type": "Feature",
      "geometry": {
        "type": "Point",
        "coordinates": [
          101.322,
          3.117
        ]
      },
      "properties": {
        "label": "Sultan Salahuddin Abdul Aziz Power Station",
        "type": "power plant",
        "entity": "http://www.wikidata.org/entity/Q7441454",
        "country_qid": "Q833",
        "Wikidata Qid": "Q7441454"
      }
    },
    {
      "type": "Feature",
      "geometry": {
        "type": "Point",
        "coordinates": [
          101.3322472,
          4.235187
        ]
      },
      "properties": {
        "label": "Sultan Idris hydro power station",
        "type": "power plant",
        "entity": "http://www.wikidata.org/entity/Q84761255",
        "country_qid": "Q833",
        "Wikidata Qid": "Q84761255"
      }
    },
    {
      "type": "Feature",
      "geometry": {
        "type": "Point",
        "coordinates": [
          115.52661,
          4.7845198
        ]
      },
      "properties": {
        "label": "Kota 2 hydro power station",
        "type": "power plant",
        "entity": "http://www.wikidata.org/entity/Q116656668",
        "country_qid": "Q833",
        "Wikidata Qid": "Q116656668"
      }
    },
    {
      "type": "Feature",
      "geometry": {
        "type": "Point",
        "coordinates": [
          101.097444444,
          5.216361111
        ]
      },
      "properties": {
        "label": "Kenering hydro power station",
        "type": "power plant",
        "entity": "http://www.wikidata.org/entity/Q12686070",
        "country_qid": "Q833",
        "Wikidata Qid": "Q12686070"
      }
    },
    {
      "type": "Feature",
      "geometry": {
        "type": "Point",
        "coordinates": [
          101.58527778,
          4.45027778
        ]
      },
      "properties": {
        "label": "Ulu Jelai Power Station",
        "type": "power plant",
        "entity": "http://www.wikidata.org/entity/Q24934390",
        "country_qid": "Q833",
        "Wikidata Qid": "Q24934390"
      }
    },
    {
      "type": "Feature",
      "geometry": {
        "type": "Point",
        "coordinates": [
          100.5894,
          4.3908
        ]
      },
      "properties": {
        "label": "Lumut Power Plant",
        "type": "power plant",
        "entity": "http://www.wikidata.org/entity/Q11986984",
        "country_qid": "Q833",
        "Wikidata Qid": "Q11986984"
      }
    },
    {
      "type": "Feature",
      "geometry": {
        "type": "Point",
        "coordinates": [
          101.3343555,
          4.3738992
        ]
      },
      "properties": {
        "label": "Sultan Yusuf hydro power station",
        "type": "power plant",
        "entity": "http://www.wikidata.org/entity/Q84761240",
        "country_qid": "Q833",
        "Wikidata Qid": "Q84761240"
      }
    },
    {
      "type": "Feature",
      "geometry": {
        "type": "Point",
        "coordinates": [
          115.9093666,
          5.6576366
        ]
      },
      "properties": {
        "label": "SPR",
        "type": "power plant",
        "entity": "http://www.wikidata.org/entity/Q116727734",
        "country_qid": "Q833",
        "Wikidata Qid": "Q116727734"
      }
    },
    {
      "type": "Feature",
      "geometry": {
        "type": "Point",
        "coordinates": [
          102.151944444,
          2.223333333
        ]
      },
      "properties": {
        "label": "Tanjung Kling Power Station",
        "type": "power plant",
        "entity": "http://www.wikidata.org/entity/Q7683419",
        "country_qid": "Q833",
        "Wikidata Qid": "Q7683419"
      }
    },
    {
      "type": "Feature",
      "geometry": {
        "type": "Point",
        "coordinates": [
          102.0511554,
          2.3519748
        ]
      },
      "properties": {
        "label": "Edra Melaka Power Plant",
        "type": "power plant",
        "entity": "http://www.wikidata.org/entity/Q116699478",
        "country_qid": "Q833",
        "Wikidata Qid": "Q116699478"
      }
    },
    {
      "type": "Feature",
      "geometry": {
        "type": "Point",
        "coordinates": [
          113.0936922,
          3.2891177
        ]
      },
      "properties": {
        "label": "Bintulu Power Station",
        "type": "power plant",
        "entity": "http://www.wikidata.org/entity/Q116628325",
        "country_qid": "Q833",
        "Wikidata Qid": "Q116628325"
      }
    },
    {
      "type": "Feature",
      "geometry": {
        "type": "Point",
        "coordinates": [
          115.876472222,
          5.131388888
        ]
      },
      "properties": {
        "label": "Tenom Pangi Dam",
        "type": "power plant",
        "entity": "http://www.wikidata.org/entity/Q7700550",
        "country_qid": "Q833",
        "Wikidata Qid": "Q7700550"
      }
    },
    {
      "type": "Feature",
      "geometry": {
        "type": "Point",
        "coordinates": [
          100.3151,
          5.3807
        ]
      },
      "properties": {
        "label": "Gelugor Power Station",
        "type": "power plant",
        "entity": "http://www.wikidata.org/entity/Q11971770",
        "country_qid": "Q833",
        "Wikidata Qid": "Q11971770"
      }
    },
    {
      "type": "Feature",
      "geometry": {
        "type": "Point",
        "coordinates": [
          101.2087892,
          5.4300013
        ]
      },
      "properties": {
        "label": "Bersia hydro power station",
        "type": "power plant",
        "entity": "http://www.wikidata.org/entity/Q84761223",
        "country_qid": "Q833",
        "Wikidata Qid": "Q84761223"
      }
    },
    {
      "type": "Feature",
      "geometry": {
        "type": "Point",
        "coordinates": [
          101.7304373,
          2.5934859
        ]
      },
      "properties": {
        "label": "Jimah East Power Plant",
        "type": "power plant",
        "entity": "http://www.wikidata.org/entity/Q116696059",
        "country_qid": "Q833",
        "Wikidata Qid": "Q116696059"
      }
    },
    {
      "type": "Feature",
      "geometry": {
        "type": "Point",
        "coordinates": [
          114.0562861,
          2.7604862
        ]
      },
      "properties": {
        "label": "Bakun Dam",
        "type": "power plant",
        "entity": "http://www.wikidata.org/entity/Q804548",
        "country_qid": "Q833",
        "Wikidata Qid": "Q804548"
      }
    },
    {
      "type": "Feature",
      "geometry": {
        "type": "Point",
        "coordinates": [
          103.8816274,
          1.4489152
        ]
      },
      "properties": {
        "label": "TNB Pasir Gudang Energy",
        "type": "power plant",
        "entity": "http://www.wikidata.org/entity/Q7636675",
        "country_qid": "Q833",
        "Wikidata Qid": "Q7636675"
      }
    },
    {
      "type": "Feature",
      "geometry": {
        "type": "Point",
        "coordinates": [
          100.1565707,
          6.3405923
        ]
      },
      "properties": {
        "label": "Perlis Power Station",
        "type": "power plant",
        "entity": "http://www.wikidata.org/entity/Q11995345",
        "country_qid": "Q833",
        "Wikidata Qid": "Q11995345"
      }
    },
    {
      "type": "Feature",
      "geometry": {
        "type": "Point",
        "coordinates": [
          100.978,
          4.961
        ]
      },
      "properties": {
        "label": "Chenderoh Power Station",
        "type": "power plant",
        "entity": "http://www.wikidata.org/entity/Q5091159",
        "country_qid": "Q833",
        "Wikidata Qid": "Q5091159"
      }
    },
    {
      "type": "Feature",
      "geometry": {
        "type": "Point",
        "coordinates": [
          101.2118483,
          5.1034526
        ]
      },
      "properties": {
        "label": "Hilir Sungai Piah hydro power station",
        "type": "power plant",
        "entity": "http://www.wikidata.org/entity/Q84761210",
        "country_qid": "Q833",
        "Wikidata Qid": "Q84761210"
      }
    },
    {
      "type": "Feature",
      "geometry": {
        "type": "Point",
        "coordinates": [
          103.8844335,
          1.4446027
        ]
      },
      "properties": {
        "label": "Southern Power Generation",
        "type": "power plant",
        "entity": "http://www.wikidata.org/entity/Q116700169",
        "country_qid": "Q833",
        "Wikidata Qid": "Q116700169"
      }
    },
    {
      "type": "Feature",
      "geometry": {
        "type": "Point",
        "coordinates": [
          102.053888888,
          3.094722222
        ]
      },
      "properties": {
        "label": "Q49627779",
        "type": "power plant",
        "entity": "http://www.wikidata.org/entity/Q49627779",
        "country_qid": "Q833",
        "Wikidata Qid": "Q49627779"
      }
    },
    {
      "type": "Feature",
      "geometry": {
        "type": "Point",
        "coordinates": [
          114.365833333,
          2.646666666
        ]
      },
      "properties": {
        "label": "Murum Dam",
        "type": "power plant",
        "entity": "http://www.wikidata.org/entity/Q6939817",
        "country_qid": "Q833",
        "Wikidata Qid": "Q6939817"
      }
    },
    {
      "type": "Feature",
      "geometry": {
        "type": "Point",
        "coordinates": [
          114.56777778,
          3.38305556
        ]
      },
      "properties": {
        "label": "Baram Dam",
        "type": "power plant",
        "entity": "http://www.wikidata.org/entity/Q4858300",
        "country_qid": "Q833",
        "Wikidata Qid": "Q4858300"
      }
    },
    {
      "type": "Feature",
      "geometry": {
        "type": "Point",
        "coordinates": [
          101.4696,
          3.0433
        ]
      },
      "properties": {
        "label": "Connaught Bridge Power Station",
        "type": "power plant",
        "entity": "http://www.wikidata.org/entity/Q5161321",
        "country_qid": "Q833",
        "Wikidata Qid": "Q5161321"
      }
    },
    {
      "type": "Feature",
      "geometry": {
        "type": "Point",
        "coordinates": [
          115.8897436,
          5.6480703
        ]
      },
      "properties": {
        "label": "Kimanis Power Plant",
        "type": "power plant",
        "entity": "http://www.wikidata.org/entity/Q116727726",
        "country_qid": "Q833",
        "Wikidata Qid": "Q116727726"
      }
    },
    {
      "type": "Feature",
      "geometry": {
        "type": "Point",
        "coordinates": [
          103.5422,
          1.334
        ]
      },
      "properties": {
        "label": "Tanjung Bin Power Station",
        "type": "power plant",
        "entity": "http://www.wikidata.org/entity/Q12005196",
        "country_qid": "Q833",
        "Wikidata Qid": "Q12005196"
      }
    },
    {
      "type": "Feature",
      "geometry": {
        "type": "Point",
        "coordinates": [
          103.448323,
          4.5951042
        ]
      },
      "properties": {
        "label": "Sultan Ismail Power Station",
        "type": "power plant",
        "entity": "http://www.wikidata.org/entity/Q3446052",
        "country_qid": "Q833",
        "Wikidata Qid": "Q3446052"
      }
    },
    {
      "type": "Feature",
      "geometry": {
        "type": "Point",
        "coordinates": [
          101.290217,
          5.0899744
        ]
      },
      "properties": {
        "label": "Hulu Sungai Piah hydro power station",
        "type": "power plant",
        "entity": "http://www.wikidata.org/entity/Q116700379",
        "country_qid": "Q833",
        "Wikidata Qid": "Q116700379"
      }
    },
    {
      "type": "Feature",
      "geometry": {
        "type": "Point",
        "coordinates": [
          102.052,
          2.3479
        ]
      },
      "properties": {
        "label": "Telok Gong Power Station",
        "type": "power plant",
        "entity": "http://www.wikidata.org/entity/Q12005461",
        "country_qid": "Q833",
        "Wikidata Qid": "Q12005461"
      }
    },
    {
      "type": "Feature",
      "geometry": {
        "type": "Point",
        "coordinates": [
          103.4499281,
          4.6019043
        ]
      },
      "properties": {
        "label": "Paka Power Station",
        "type": "power plant",
        "entity": "http://www.wikidata.org/entity/Q11994632",
        "country_qid": "Q833",
        "Wikidata Qid": "Q11994632"
      }
    },
    {
      "type": "Feature",
      "geometry": {
        "type": "Point",
        "coordinates": [
          100.373776,
          5.3752829
        ]
      },
      "properties": {
        "label": "Prai Malakoff Power Station",
        "type": "power plant",
        "entity": "http://www.wikidata.org/entity/Q11996150",
        "country_qid": "Q833",
        "Wikidata Qid": "Q11996150"
      }
    },
    {
      "type": "Feature",
      "geometry": {
        "type": "Point",
        "coordinates": [
          101.798898,
          2.5537328
        ]
      },
      "properties": {
        "label": "Port Dickson Power Plant",
        "type": "power plant",
        "entity": "http://www.wikidata.org/entity/Q19385577",
        "country_qid": "Q833",
        "Wikidata Qid": "Q19385577"
      }
    },
    {
      "type": "Feature",
      "geometry": {
        "type": "Point",
        "coordinates": [
          101.6852017,
          2.9658807
        ]
      },
      "properties": {
        "label": "Putrajaya Power Station",
        "type": "power plant",
        "entity": "http://www.wikidata.org/entity/Q7262416",
        "country_qid": "Q833",
        "Wikidata Qid": "Q7262416"
      }
    },
    {
      "type": "Feature",
      "geometry": {
        "type": "Point",
        "coordinates": [
          116.163184,
          6.0918564
        ]
      },
      "properties": {
        "label": "Teluk Salut Power Plant",
        "type": "power plant",
        "entity": "http://www.wikidata.org/entity/Q116727595",
        "country_qid": "Q833",
        "Wikidata Qid": "Q116727595"
      }
    },
    {
      "type": "Feature",
      "geometry": {
        "type": "Point",
        "coordinates": [
          101.703055555,
          5.625
        ]
      },
      "properties": {
        "label": "Pergau Dam",
        "type": "power plant",
        "entity": "http://www.wikidata.org/entity/Q3445771",
        "country_qid": "Q833",
        "Wikidata Qid": "Q3445771"
      }
    },
    {
      "type": "Feature",
      "geometry": {
        "type": "Point",
        "coordinates": [
          104.1743481,
          1.3764416
        ]
      },
      "properties": {
        "label": "Pengerang Cogeneration Power Plant",
        "type": "power plant",
        "entity": "http://www.wikidata.org/entity/Q116700335",
        "country_qid": "Q833",
        "Wikidata Qid": "Q116700335"
      }
    },
    {
      "type": "Feature",
      "geometry": {
        "type": "Point",
        "coordinates": [
          101.6493273,
          2.7976119
        ]
      },
      "properties": {
        "label": "Kuala Langat Power Plant",
        "type": "power plant",
        "entity": "http://www.wikidata.org/entity/Q19378322",
        "country_qid": "Q833",
        "Wikidata Qid": "Q19378322"
      }
    },
    {
      "type": "Feature",
      "geometry": {
        "type": "Point",
        "coordinates": [
          100.3749695,
          5.3745112
        ]
      },
      "properties": {
        "label": "Prai TNB Power Station",
        "type": "power plant",
        "entity": "http://www.wikidata.org/entity/Q116699292",
        "country_qid": "Q833",
        "Wikidata Qid": "Q116699292"
      }
    },
    {
      "type": "Feature",
      "geometry": {
        "type": "Point",
        "coordinates": [
          116.166113,
          6.0933713
        ]
      },
      "properties": {
        "label": "Rugading Power Plant",
        "type": "power plant",
        "entity": "http://www.wikidata.org/entity/Q116727603",
        "country_qid": "Q833",
        "Wikidata Qid": "Q116727603"
      }
    },
    {
      "type": "Feature",
      "geometry": {
        "type": "Point",
        "coordinates": [
          100.6006157,
          5.4314846
        ]
      },
      "properties": {
        "label": "NUR Power",
        "type": "power plant",
        "entity": "http://www.wikidata.org/entity/Q19378333",
        "country_qid": "Q833",
        "Wikidata Qid": "Q19378333"
      }
    },
    {
      "type": "Feature",
      "geometry": {
        "type": "Point",
        "coordinates": [
          101.301111111,
          5.406666666
        ]
      },
      "properties": {
        "label": "Temenggor Dam",
        "type": "power plant",
        "entity": "http://www.wikidata.org/entity/Q7331841",
        "country_qid": "Q833",
        "Wikidata Qid": "Q7331841"
      }
    },
    {
      "type": "Feature",
      "geometry": {
        "type": "Point",
        "coordinates": [
          115.2412739,
          5.2490822
        ]
      },
      "properties": {
        "label": "Patau-Patau Power Plant",
        "type": "power plant",
        "entity": "http://www.wikidata.org/entity/Q116727816",
        "country_qid": "Q833",
        "Wikidata Qid": "Q116727816"
      }
    },
    {
      "type": "Feature",
      "geometry": {
        "type": "Point",
        "coordinates": [
          100.64292,
          4.163069
        ]
      },
      "properties": {
        "label": "Manjung Power Station",
        "type": "power plant",
        "entity": "http://www.wikidata.org/entity/Q19380991",
        "country_qid": "Q833",
        "Wikidata Qid": "Q19380991"
      }
    },
    {
      "type": "Feature",
      "geometry": {
        "type": "Point",
        "coordinates": [
          103.8801989,
          1.4505622
        ]
      },
      "properties": {
        "label": "YTL Power Pasir Gudang Power Station",
        "type": "power plant",
        "entity": "http://www.wikidata.org/entity/Q11994834",
        "country_qid": "Q833",
        "Wikidata Qid": "Q11994834"
      }
    },
    {
      "type": "Feature",
      "geometry": {
        "type": "Point",
        "coordinates": [
          114.0184575,
          4.4209859
        ]
      },
      "properties": {
        "label": "Miri Power Station",
        "type": "power plant",
        "entity": "http://www.wikidata.org/entity/Q116658188",
        "country_qid": "Q833",
        "Wikidata Qid": "Q116658188"
      }
    },
    {
      "type": "Feature",
      "geometry": {
        "type": "Point",
        "coordinates": [
          111.873888888,
          1.147222222
        ]
      },
      "properties": {
        "label": "Batang Ai Dam",
        "type": "power plant",
        "entity": "http://www.wikidata.org/entity/Q4868579",
        "country_qid": "Q833",
        "Wikidata Qid": "Q4868579"
      }
    },
    {
      "type": "Feature",
      "geometry": {
        "type": "Point",
        "coordinates": [
          113.7706374,
          1.8024905
        ]
      },
      "properties": {
        "label": "Baleh Dam",
        "type": "power plant",
        "entity": "http://www.wikidata.org/entity/Q84761195",
        "country_qid": "Q833",
        "Wikidata Qid": "Q84761195"
      }
    },
    {
      "type": "Feature",
      "geometry": {
        "type": "Point",
        "coordinates": [
          112.3234,
          2.969
        ]
      },
      "properties": {
        "label": "Mukah Power Station",
        "type": "power plant",
        "entity": "http://www.wikidata.org/entity/Q116654839",
        "country_qid": "Q833",
        "Wikidata Qid": "Q116654839"
      }
    },
    {
      "type": "Feature",
      "geometry": {
        "type": "Point",
        "coordinates": [
          102.603694444,
          5.149361111
        ]
      },
      "properties": {
        "label": "Hulu Terengganu Hydroelectric Project",
        "type": "power plant",
        "entity": "http://www.wikidata.org/entity/Q5936378",
        "country_qid": "Q833",
        "Wikidata Qid": "Q5936378"
      }
    },
    {
      "type": "Feature",
      "geometry": {
        "type": "Point",
        "coordinates": [
          116.1664939,
          6.0916431
        ]
      },
      "properties": {
        "label": "Sepanggar Bay Power Plant",
        "type": "power plant",
        "entity": "http://www.wikidata.org/entity/Q116727607",
        "country_qid": "Q833",
        "Wikidata Qid": "Q116727607"
      }
    },
    {
      "type": "Feature",
      "geometry": {
        "type": "Point",
        "coordinates": [
          100.841111111,
          5.891111111
        ]
      },
      "properties": {
        "label": "Q49627708",
        "type": "power plant",
        "entity": "http://www.wikidata.org/entity/Q49627708",
        "country_qid": "Q833",
        "Wikidata Qid": "Q49627708"
      }
    },
    {
      "type": "Feature",
      "geometry": {
        "type": "Point",
        "coordinates": [
          101.791,
          2.533
        ]
      },
      "properties": {
        "label": "Tuanku Jaafar Power Station",
        "type": "power plant",
        "entity": "http://www.wikidata.org/entity/Q7850639",
        "country_qid": "Q833",
        "Wikidata Qid": "Q7850639"
      }
    },
    {
      "type": "Feature",
      "geometry": {
        "type": "Point",
        "coordinates": [
          101.7243433,
          2.5923391
        ]
      },
      "properties": {
        "label": "Jimah Power Plant",
        "type": "power plant",
        "entity": "http://www.wikidata.org/entity/Q11978589",
        "country_qid": "Q833",
        "Wikidata Qid": "Q11978589"
      }
    },
    {
      "type": "Feature",
      "geometry": {
        "type": "Point",
        "coordinates": [
          112.47461,
          2.7375301
        ]
      },
      "properties": {
        "label": "Balingian Power Station",
        "type": "power plant",
        "entity": "http://www.wikidata.org/entity/Q116628728",
        "country_qid": "Q833",
        "Wikidata Qid": "Q116628728"
      }
    },
    {
      "type": "Feature",
      "geometry": {
        "type": "Point",
        "coordinates": [
          101.664,
          3.1169
        ]
      },
      "properties": {
        "label": "Kerinchi Pylon",
        "type": "Transmission tower (pylon)",
        "entity": "http://www.wikidata.org/entity/Q6393909",
        "country_qid": "Q833",
        "Wikidata Qid": "Q6393909"
      }
    },
    {
      "type": "Feature",
      "geometry": {
        "type": "Point",
        "coordinates": [
          102.316,
          2.35511
        ]
      },
      "properties": {
        "label": "Durian Tunggal Reservoir",
        "type": "Reservoir",
        "entity": "http://www.wikidata.org/entity/Q19458243",
        "country_qid": "Q833",
        "Wikidata Qid": "Q19458243"
      }
    },
    {
      "type": "Feature",
      "geometry": {
        "type": "Point",
        "coordinates": [
          103.684222222,
          2.579944444
        ]
      },
      "properties": {
        "label": "Labong Lake",
        "type": "Reservoir",
        "entity": "http://www.wikidata.org/entity/Q96225326",
        "country_qid": "Q833",
        "Wikidata Qid": "Q96225326"
      }
    },
    {
      "type": "Feature",
      "geometry": {
        "type": "Point",
        "coordinates": [
          100.2177,
          6.5652
        ]
      },
      "properties": {
        "label": "Timah Tasoh Dam",
        "type": "Reservoir",
        "entity": "http://www.wikidata.org/entity/Q12686069",
        "country_qid": "Q833",
        "Wikidata Qid": "Q12686069"
      }
    },
    {
      "type": "Feature",
      "geometry": {
        "type": "Point",
        "coordinates": [
          102.8,
          5.0
        ]
      },
      "properties": {
        "label": "Kenyir Lake",
        "type": "Reservoir",
        "entity": "http://www.wikidata.org/entity/Q1420437",
        "country_qid": "Q833",
        "Wikidata Qid": "Q1420437"
      }
    },
    {
      "type": "Feature",
      "geometry": {
        "type": "Point",
        "coordinates": [
          103.91,
          1.55611
        ]
      },
      "properties": {
        "label": "Sultan Iskandar Reservoir",
        "type": "Reservoir",
        "entity": "http://www.wikidata.org/entity/Q303881",
        "country_qid": "Q833",
        "Wikidata Qid": "Q303881"
      }
    },
    {
      "type": "Feature",
      "geometry": {
        "type": "Point",
        "coordinates": [
          102.384,
          2.44053
        ]
      },
      "properties": {
        "label": "Jus Reservoir",
        "type": "Reservoir",
        "entity": "http://www.wikidata.org/entity/Q12686071",
        "country_qid": "Q833",
        "Wikidata Qid": "Q12686071"
      }
    },
    {
      "type": "Feature",
      "geometry": {
        "type": "Point",
        "coordinates": [
          100.216666666,
          6.433333333
        ]
      },
      "properties": {
        "label": "Q49269306",
        "type": "Hydraulic structure",
        "entity": "http://www.wikidata.org/entity/Q49269306",
        "country_qid": "Q833",
        "Wikidata Qid": "Q49269306"
      }
    },
    {
      "type": "Feature",
      "geometry": {
        "type": "Point",
        "coordinates": [
          100.183333333,
          6.416666666
        ]
      },
      "properties": {
        "label": "Q49269305",
        "type": "Hydraulic structure",
        "entity": "http://www.wikidata.org/entity/Q49269305",
        "country_qid": "Q833",
        "Wikidata Qid": "Q49269305"
      }
    },
    {
      "type": "Feature",
      "geometry": {
        "type": "Point",
        "coordinates": [
          101.991111111,
          2.409166666
        ]
      },
      "properties": {
        "label": "Q49269025",
        "type": "Hydraulic structure",
        "entity": "http://www.wikidata.org/entity/Q49269025",
        "country_qid": "Q833",
        "Wikidata Qid": "Q49269025"
      }
    },
    {
      "type": "Feature",
      "geometry": {
        "type": "Point",
        "coordinates": [
          111.35,
          2.15
        ]
      },
      "properties": {
        "label": "TG. MANI",
        "type": "Hydraulic structure",
        "entity": "http://www.wikidata.org/entity/Q111386927",
        "country_qid": "Q833",
        "Wikidata Qid": "Q111386927"
      }
    },
    {
      "type": "Feature",
      "geometry": {
        "type": "Point",
        "coordinates": [
          118.0845,
          5.8116
        ]
      },
      "properties": {
        "label": "Q25480496",
        "type": "Hydraulic structure",
        "entity": "http://www.wikidata.org/entity/Q25480496",
        "country_qid": "Q833",
        "Wikidata Qid": "Q25480496"
      }
    },
    {
      "type": "Feature",
      "geometry": {
        "type": "Point",
        "coordinates": [
          103.630555555,
          2.611666666
        ]
      },
      "properties": {
        "label": "Parit Nombor Enam",
        "type": "Hydraulic structure",
        "entity": "http://www.wikidata.org/entity/Q34735625",
        "country_qid": "Q833",
        "Wikidata Qid": "Q34735625"
      }
    },
    {
      "type": "Feature",
      "geometry": {
        "type": "Point",
        "coordinates": [
          100.236111111,
          6.374722222
        ]
      },
      "properties": {
        "label": "Q49269290",
        "type": "Hydraulic structure",
        "entity": "http://www.wikidata.org/entity/Q49269290",
        "country_qid": "Q833",
        "Wikidata Qid": "Q49269290"
      }
    },
    {
      "type": "Feature",
      "geometry": {
        "type": "Point",
        "coordinates": [
          103.901944444,
          1.435
        ]
      },
      "properties": {
        "label": "Pelabuhan Pasir Gudang",
        "type": "Hydraulic structure",
        "entity": "http://www.wikidata.org/entity/Q34963967",
        "country_qid": "Q833",
        "Wikidata Qid": "Q34963967"
      }
    },
    {
      "type": "Feature",
      "geometry": {
        "type": "Point",
        "coordinates": [
          100.212777777,
          6.355833333
        ]
      },
      "properties": {
        "label": "Q49269292",
        "type": "Hydraulic structure",
        "entity": "http://www.wikidata.org/entity/Q49269292",
        "country_qid": "Q833",
        "Wikidata Qid": "Q49269292"
      }
    },
    {
      "type": "Feature",
      "geometry": {
        "type": "Point",
        "coordinates": [
          100.770555555,
          4.113888888
        ]
      },
      "properties": {
        "label": "Parit Baharu",
        "type": "Hydraulic structure",
        "entity": "http://www.wikidata.org/entity/Q34735485",
        "country_qid": "Q833",
        "Wikidata Qid": "Q34735485"
      }
    },
    {
      "type": "Feature",
      "geometry": {
        "type": "Point",
        "coordinates": [
          100.321944444,
          6.15
        ]
      },
      "properties": {
        "label": "Q49269026",
        "type": "Hydraulic structure",
        "entity": "http://www.wikidata.org/entity/Q49269026",
        "country_qid": "Q833",
        "Wikidata Qid": "Q49269026"
      }
    },
    {
      "type": "Feature",
      "geometry": {
        "type": "Point",
        "coordinates": [
          103.066666666,
          5.363333333
        ]
      },
      "properties": {
        "label": "Parit Nombor Tiga",
        "type": "Hydraulic structure",
        "entity": "http://www.wikidata.org/entity/Q34735688",
        "country_qid": "Q833",
        "Wikidata Qid": "Q34735688"
      }
    },
    {
      "type": "Feature",
      "geometry": {
        "type": "Point",
        "coordinates": [
          100.741,
          5.9684
        ]
      },
      "properties": {
        "label": "Beris Dam",
        "type": "Hydraulic structure",
        "entity": "http://www.wikidata.org/entity/Q4891873",
        "country_qid": "Q833",
        "Wikidata Qid": "Q4891873"
      }
    },
    {
      "type": "Feature",
      "geometry": {
        "type": "Point",
        "coordinates": [
          100.260277777,
          6.346388888
        ]
      },
      "properties": {
        "label": "Q49269296",
        "type": "Hydraulic structure",
        "entity": "http://www.wikidata.org/entity/Q49269296",
        "country_qid": "Q833",
        "Wikidata Qid": "Q49269296"
      }
    },
    {
      "type": "Feature",
      "geometry": {
        "type": "Point",
        "coordinates": [
          101.688,
          3.27758
        ]
      },
      "properties": {
        "label": "Batu Dam",
        "type": "Hydraulic structure",
        "entity": "http://www.wikidata.org/entity/Q4873306",
        "country_qid": "Q833",
        "Wikidata Qid": "Q4873306"
      }
    },
    {
      "type": "Feature",
      "geometry": {
        "type": "Point",
        "coordinates": [
          100.533333333,
          5.016666666
        ]
      },
      "properties": {
        "label": "Q49269428",
        "type": "Hydraulic structure",
        "entity": "http://www.wikidata.org/entity/Q49269428",
        "country_qid": "Q833",
        "Wikidata Qid": "Q49269428"
      }
    },
    {
      "type": "Feature",
      "geometry": {
        "type": "Point",
        "coordinates": [
          100.273888888,
          6.271111111
        ]
      },
      "properties": {
        "label": "Q49269034",
        "type": "Hydraulic structure",
        "entity": "http://www.wikidata.org/entity/Q49269034",
        "country_qid": "Q833",
        "Wikidata Qid": "Q49269034"
      }
    },
    {
      "type": "Feature",
      "geometry": {
        "type": "Point",
        "coordinates": [
          101.75,
          3.233333333
        ]
      },
      "properties": {
        "label": "Klang Gates Dam",
        "type": "Hydraulic structure",
        "entity": "http://www.wikidata.org/entity/Q6419677",
        "country_qid": "Q833",
        "Wikidata Qid": "Q6419677"
      }
    },
    {
      "type": "Feature",
      "geometry": {
        "type": "Point",
        "coordinates": [
          100.270833333,
          6.356111111
        ]
      },
      "properties": {
        "label": "Parit Nombor Lima Arau",
        "type": "Hydraulic structure",
        "entity": "http://www.wikidata.org/entity/Q34735643",
        "country_qid": "Q833",
        "Wikidata Qid": "Q34735643"
      }
    },
    {
      "type": "Feature",
      "geometry": {
        "type": "Point",
        "coordinates": [
          100.633333333,
          4.233333333
        ]
      },
      "properties": {
        "label": "Lumut Port",
        "type": "Hydraulic structure",
        "entity": "http://www.wikidata.org/entity/Q30674119",
        "country_qid": "Q833",
        "Wikidata Qid": "Q30674119"
      }
    },
    {
      "type": "Feature",
      "geometry": {
        "type": "Point",
        "coordinates": [
          100.189444444,
          6.341111111
        ]
      },
      "properties": {
        "label": "Terusan Pauh",
        "type": "Hydraulic structure",
        "entity": "http://www.wikidata.org/entity/Q34744041",
        "country_qid": "Q833",
        "Wikidata Qid": "Q34744041"
      }
    },
    {
      "type": "Feature",
      "geometry": {
        "type": "Point",
        "coordinates": [
          101.796388888,
          4.026666666
        ]
      },
      "properties": {
        "label": "Empang Kenung",
        "type": "Hydraulic structure",
        "entity": "http://www.wikidata.org/entity/Q32838617",
        "country_qid": "Q833",
        "Wikidata Qid": "Q32838617"
      }
    },
    {
      "type": "Feature",
      "geometry": {
        "type": "Point",
        "coordinates": [
          100.243611111,
          6.381944444
        ]
      },
      "properties": {
        "label": "Q49269289",
        "type": "Hydraulic structure",
        "entity": "http://www.wikidata.org/entity/Q49269289",
        "country_qid": "Q833",
        "Wikidata Qid": "Q49269289"
      }
    },
    {
      "type": "Feature",
      "geometry": {
        "type": "Point",
        "coordinates": [
          103.63159,
          2.61558
        ]
      },
      "properties": {
        "label": "Parit Nombor Lima",
        "type": "Hydraulic structure",
        "entity": "http://www.wikidata.org/entity/Q34735636",
        "country_qid": "Q833",
        "Wikidata Qid": "Q34735636"
      }
    },
    {
      "type": "Feature",
      "geometry": {
        "type": "Point",
        "coordinates": [
          100.266666666,
          6.4
        ]
      },
      "properties": {
        "label": "Q49269298",
        "type": "Hydraulic structure",
        "entity": "http://www.wikidata.org/entity/Q49269298",
        "country_qid": "Q833",
        "Wikidata Qid": "Q49269298"
      }
    },
    {
      "type": "Feature",
      "geometry": {
        "type": "Point",
        "coordinates": [
          111.833333333,
          2.716666666
        ]
      },
      "properties": {
        "label": "Q49269032",
        "type": "Hydraulic structure",
        "entity": "http://www.wikidata.org/entity/Q49269032",
        "country_qid": "Q833",
        "Wikidata Qid": "Q49269032"
      }
    },
    {
      "type": "Feature",
      "geometry": {
        "type": "Point",
        "coordinates": [
          100.878888888,
          4.319722222
        ]
      },
      "properties": {
        "label": "Parit Mengkena",
        "type": "Hydraulic structure",
        "entity": "http://www.wikidata.org/entity/Q34735585",
        "country_qid": "Q833",
        "Wikidata Qid": "Q34735585"
      }
    },
    {
      "type": "Feature",
      "geometry": {
        "type": "Point",
        "coordinates": [
          100.751666666,
          4.104444444
        ]
      },
      "properties": {
        "label": "Parit Haji Hussin",
        "type": "Hydraulic structure",
        "entity": "http://www.wikidata.org/entity/Q34735538",
        "country_qid": "Q833",
        "Wikidata Qid": "Q34735538"
      }
    },
    {
      "type": "Feature",
      "geometry": {
        "type": "Point",
        "coordinates": [
          104.229166666,
          1.363333333
        ]
      },
      "properties": {
        "label": "Parit Jepon",
        "type": "Hydraulic structure",
        "entity": "http://www.wikidata.org/entity/Q34735558",
        "country_qid": "Q833",
        "Wikidata Qid": "Q34735558"
      }
    },
    {
      "type": "Feature",
      "geometry": {
        "type": "Point",
        "coordinates": [
          104.816666666,
          4.633333333
        ]
      },
      "properties": {
        "label": "Malong Marine Terminal",
        "type": "Hydraulic structure",
        "entity": "http://www.wikidata.org/entity/Q111386744",
        "country_qid": "Q833",
        "Wikidata Qid": "Q111386744"
      }
    },
    {
      "type": "Feature",
      "geometry": {
        "type": "Point",
        "coordinates": [
          103.616666666,
          2.636944444
        ]
      },
      "properties": {
        "label": "Q49269036",
        "type": "Hydraulic structure",
        "entity": "http://www.wikidata.org/entity/Q49269036",
        "country_qid": "Q833",
        "Wikidata Qid": "Q49269036"
      }
    },
    {
      "type": "Feature",
      "geometry": {
        "type": "Point",
        "coordinates": [
          116.116666666,
          6.083333333
        ]
      },
      "properties": {
        "label": "Sapangar Bay",
        "type": "Hydraulic structure",
        "entity": "http://www.wikidata.org/entity/Q111386723",
        "country_qid": "Q833",
        "Wikidata Qid": "Q111386723"
      }
    },
    {
      "type": "Feature",
      "geometry": {
        "type": "Point",
        "coordinates": [
          103.629444444,
          2.603888888
        ]
      },
      "properties": {
        "label": "Parit Nombor Lapan",
        "type": "Hydraulic structure",
        "entity": "http://www.wikidata.org/entity/Q34735631",
        "country_qid": "Q833",
        "Wikidata Qid": "Q34735631"
      }
    },
    {
      "type": "Feature",
      "geometry": {
        "type": "Point",
        "coordinates": [
          100.834166666,
          4.319166666
        ]
      },
      "properties": {
        "label": "Parit Lima Belas",
        "type": "Hydraulic structure",
        "entity": "http://www.wikidata.org/entity/Q34735578",
        "country_qid": "Q833",
        "Wikidata Qid": "Q34735578"
      }
    },
    {
      "type": "Feature",
      "geometry": {
        "type": "Point",
        "coordinates": [
          100.764166666,
          4.089722222
        ]
      },
      "properties": {
        "label": "Q49250407",
        "type": "Hydraulic structure",
        "entity": "http://www.wikidata.org/entity/Q49250407",
        "country_qid": "Q833",
        "Wikidata Qid": "Q49250407"
      }
    },
    {
      "type": "Feature",
      "geometry": {
        "type": "Point",
        "coordinates": [
          100.283333333,
          6.352222222
        ]
      },
      "properties": {
        "label": "Q49269301",
        "type": "Hydraulic structure",
        "entity": "http://www.wikidata.org/entity/Q49269301",
        "country_qid": "Q833",
        "Wikidata Qid": "Q49269301"
      }
    },
    {
      "type": "Feature",
      "geometry": {
        "type": "Point",
        "coordinates": [
          103.54836667,
          1.36634722
        ]
      },
      "properties": {
        "label": "Port of Tanjung Pelepas",
        "type": "Hydraulic structure",
        "entity": "http://www.wikidata.org/entity/Q821014",
        "country_qid": "Q833",
        "Wikidata Qid": "Q821014"
      }
    },
    {
      "type": "Feature",
      "geometry": {
        "type": "Point",
        "coordinates": [
          100.466666666,
          5.433333333
        ]
      },
      "properties": {
        "label": "Parit Kubu",
        "type": "Hydraulic structure",
        "entity": "http://www.wikidata.org/entity/Q34735564",
        "country_qid": "Q833",
        "Wikidata Qid": "Q34735564"
      }
    },
    {
      "type": "Feature",
      "geometry": {
        "type": "Point",
        "coordinates": [
          100.364722222,
          6.065
        ]
      },
      "properties": {
        "label": "Terusan Wan Mat Saman",
        "type": "Hydraulic structure",
        "entity": "http://www.wikidata.org/entity/Q34744085",
        "country_qid": "Q833",
        "Wikidata Qid": "Q34744085"
      }
    },
    {
      "type": "Feature",
      "geometry": {
        "type": "Point",
        "coordinates": [
          100.832777777,
          4.333333333
        ]
      },
      "properties": {
        "label": "Parit Tiga Belas",
        "type": "Hydraulic structure",
        "entity": "http://www.wikidata.org/entity/Q34735717",
        "country_qid": "Q833",
        "Wikidata Qid": "Q34735717"
      }
    },
    {
      "type": "Feature",
      "geometry": {
        "type": "Point",
        "coordinates": [
          103.905777777,
          1.438805555
        ]
      },
      "properties": {
        "label": "Johor Port",
        "type": "Hydraulic structure",
        "entity": "http://www.wikidata.org/entity/Q4209004",
        "country_qid": "Q833",
        "Wikidata Qid": "Q4209004"
      }
    },
    {
      "type": "Feature",
      "geometry": {
        "type": "Point",
        "coordinates": [
          100.251111111,
          6.316944444
        ]
      },
      "properties": {
        "label": "Terusan Air Nombor Lima Sanglan",
        "type": "Hydraulic structure",
        "entity": "http://www.wikidata.org/entity/Q34743944",
        "country_qid": "Q833",
        "Wikidata Qid": "Q34743944"
      }
    },
    {
      "type": "Feature",
      "geometry": {
        "type": "Point",
        "coordinates": [
          100.443611111,
          5.409722222
        ]
      },
      "properties": {
        "label": "Parit Jelutung",
        "type": "Hydraulic structure",
        "entity": "http://www.wikidata.org/entity/Q34735552",
        "country_qid": "Q833",
        "Wikidata Qid": "Q34735552"
      }
    },
    {
      "type": "Feature",
      "geometry": {
        "type": "Point",
        "coordinates": [
          103.629444444,
          2.601111111
        ]
      },
      "properties": {
        "label": "Parit Nombor Sembilan",
        "type": "Hydraulic structure",
        "entity": "http://www.wikidata.org/entity/Q34735676",
        "country_qid": "Q833",
        "Wikidata Qid": "Q34735676"
      }
    },
    {
      "type": "Feature",
      "geometry": {
        "type": "Point",
        "coordinates": [
          102.133333333,
          2.25
        ]
      },
      "properties": {
        "label": "Pelabuhan Sungai Udang",
        "type": "Hydraulic structure",
        "entity": "http://www.wikidata.org/entity/Q111386753",
        "country_qid": "Q833",
        "Wikidata Qid": "Q111386753"
      }
    },
    {
      "type": "Feature",
      "geometry": {
        "type": "Point",
        "coordinates": [
          100.309722222,
          6.128611111
        ]
      },
      "properties": {
        "label": "Parit Empat",
        "type": "Hydraulic structure",
        "entity": "http://www.wikidata.org/entity/Q34735516",
        "country_qid": "Q833",
        "Wikidata Qid": "Q34735516"
      }
    },
    {
      "type": "Feature",
      "geometry": {
        "type": "Point",
        "coordinates": [
          100.158611111,
          6.409166666
        ]
      },
      "properties": {
        "label": "Terusan Seriap",
        "type": "Hydraulic structure",
        "entity": "http://www.wikidata.org/entity/Q34744048",
        "country_qid": "Q833",
        "Wikidata Qid": "Q34744048"
      }
    },
    {
      "type": "Feature",
      "geometry": {
        "type": "Point",
        "coordinates": [
          101.165277777,
          3.723055555
        ]
      },
      "properties": {
        "label": "Terusan Teluk Mahang",
        "type": "Hydraulic structure",
        "entity": "http://www.wikidata.org/entity/Q34744063",
        "country_qid": "Q833",
        "Wikidata Qid": "Q34744063"
      }
    },
    {
      "type": "Feature",
      "geometry": {
        "type": "Point",
        "coordinates": [
          100.216111111,
          6.248333333
        ]
      },
      "properties": {
        "label": "Terusan Lama Bulu",
        "type": "Hydraulic structure",
        "entity": "http://www.wikidata.org/entity/Q34744034",
        "country_qid": "Q833",
        "Wikidata Qid": "Q34744034"
      }
    },
    {
      "type": "Feature",
      "geometry": {
        "type": "Point",
        "coordinates": [
          100.280277777,
          6.303888888
        ]
      },
      "properties": {
        "label": "Terusan Air Nombor Lima Lama Bulu",
        "type": "Hydraulic structure",
        "entity": "http://www.wikidata.org/entity/Q34743938",
        "country_qid": "Q833",
        "Wikidata Qid": "Q34743938"
      }
    },
    {
      "type": "Feature",
      "geometry": {
        "type": "Point",
        "coordinates": [
          99.766666666,
          6.433333333
        ]
      },
      "properties": {
        "label": "Port Langkawi",
        "type": "Hydraulic structure",
        "entity": "http://www.wikidata.org/entity/Q111386724",
        "country_qid": "Q833",
        "Wikidata Qid": "Q111386724"
      }
    },
    {
      "type": "Feature",
      "geometry": {
        "type": "Point",
        "coordinates": [
          100.225833333,
          6.421666666
        ]
      },
      "properties": {
        "label": "Q49248246",
        "type": "Hydraulic structure",
        "entity": "http://www.wikidata.org/entity/Q49248246",
        "country_qid": "Q833",
        "Wikidata Qid": "Q49248246"
      }
    },
    {
      "type": "Feature",
      "geometry": {
        "type": "Point",
        "coordinates": [
          100.305,
          6.28
        ]
      },
      "properties": {
        "label": "Terusan Air Nombor Empat Tunjang",
        "type": "Hydraulic structure",
        "entity": "http://www.wikidata.org/entity/Q34743924",
        "country_qid": "Q833",
        "Wikidata Qid": "Q34743924"
      }
    },
    {
      "type": "Feature",
      "geometry": {
        "type": "Point",
        "coordinates": [
          100.317222222,
          6.3225
        ]
      },
      "properties": {
        "label": "Q49269491",
        "type": "Hydraulic structure",
        "entity": "http://www.wikidata.org/entity/Q49269491",
        "country_qid": "Q833",
        "Wikidata Qid": "Q49269491"
      }
    },
    {
      "type": "Feature",
      "geometry": {
        "type": "Point",
        "coordinates": [
          100.253333333,
          6.283611111
        ]
      },
      "properties": {
        "label": "Terusan Air Nombor Tujuh Lama Bulu",
        "type": "Hydraulic structure",
        "entity": "http://www.wikidata.org/entity/Q34743971",
        "country_qid": "Q833",
        "Wikidata Qid": "Q34743971"
      }
    },
    {
      "type": "Feature",
      "geometry": {
        "type": "Point",
        "coordinates": [
          103.417,
          4.25
        ]
      },
      "properties": {
        "label": "Kemaman Port",
        "type": "Hydraulic structure",
        "entity": "http://www.wikidata.org/entity/Q6386846",
        "country_qid": "Q833",
        "Wikidata Qid": "Q6386846"
      }
    },
    {
      "type": "Feature",
      "geometry": {
        "type": "Point",
        "coordinates": [
          101.233611111,
          3.4725
        ]
      },
      "properties": {
        "label": "Terusan Besar",
        "type": "Hydraulic structure",
        "entity": "http://www.wikidata.org/entity/Q34744008",
        "country_qid": "Q833",
        "Wikidata Qid": "Q34744008"
      }
    },
    {
      "type": "Feature",
      "geometry": {
        "type": "Point",
        "coordinates": [
          103.63,
          2.608055555
        ]
      },
      "properties": {
        "label": "Parit Nombor Tujuh",
        "type": "Hydraulic structure",
        "entity": "http://www.wikidata.org/entity/Q34735693",
        "country_qid": "Q833",
        "Wikidata Qid": "Q34735693"
      }
    },
    {
      "type": "Feature",
      "geometry": {
        "type": "Point",
        "coordinates": [
          100.266944444,
          6.294166666
        ]
      },
      "properties": {
        "label": "Terusan Air Nombor Enam Lama Bulu",
        "type": "Hydraulic structure",
        "entity": "http://www.wikidata.org/entity/Q34743931",
        "country_qid": "Q833",
        "Wikidata Qid": "Q34743931"
      }
    },
    {
      "type": "Feature",
      "geometry": {
        "type": "Point",
        "coordinates": [
          103.466666666,
          4.25
        ]
      },
      "properties": {
        "label": "Kemaman Harbor",
        "type": "Hydraulic structure",
        "entity": "http://www.wikidata.org/entity/Q111386925",
        "country_qid": "Q833",
        "Wikidata Qid": "Q111386925"
      }
    },
    {
      "type": "Feature",
      "geometry": {
        "type": "Point",
        "coordinates": [
          100.836666666,
          4.296388888
        ]
      },
      "properties": {
        "label": "Parit Lapan Belas",
        "type": "Hydraulic structure",
        "entity": "http://www.wikidata.org/entity/Q34735572",
        "country_qid": "Q833",
        "Wikidata Qid": "Q34735572"
      }
    },
    {
      "type": "Feature",
      "geometry": {
        "type": "Point",
        "coordinates": [
          100.881944444,
          4.282777777
        ]
      },
      "properties": {
        "label": "Parit Besar",
        "type": "Hydraulic structure",
        "entity": "http://www.wikidata.org/entity/Q34735502",
        "country_qid": "Q833",
        "Wikidata Qid": "Q34735502"
      }
    },
    {
      "type": "Feature",
      "geometry": {
        "type": "Point",
        "coordinates": [
          100.416666666,
          5.933333333
        ]
      },
      "properties": {
        "label": "Terusan Sungai Daun",
        "type": "Hydraulic structure",
        "entity": "http://www.wikidata.org/entity/Q34744055",
        "country_qid": "Q833",
        "Wikidata Qid": "Q34744055"
      }
    },
    {
      "type": "Feature",
      "geometry": {
        "type": "Point",
        "coordinates": [
          104.180138888,
          1.340555555
        ]
      },
      "properties": {
        "label": "Pengerang LNG terminal",
        "type": "Hydraulic structure",
        "entity": "http://www.wikidata.org/entity/Q30972509",
        "country_qid": "Q833",
        "Wikidata Qid": "Q30972509"
      }
    },
    {
      "type": "Feature",
      "geometry": {
        "type": "Point",
        "coordinates": [
          103.633888888,
          2.626388888
        ]
      },
      "properties": {
        "label": "Parit Nombor Dua",
        "type": "Hydraulic structure",
        "entity": "http://www.wikidata.org/entity/Q34735599",
        "country_qid": "Q833",
        "Wikidata Qid": "Q34735599"
      }
    },
    {
      "type": "Feature",
      "geometry": {
        "type": "Point",
        "coordinates": [
          100.416944444,
          5.538611111
        ]
      },
      "properties": {
        "label": "Q49269033",
        "type": "Hydraulic structure",
        "entity": "http://www.wikidata.org/entity/Q49269033",
        "country_qid": "Q833",
        "Wikidata Qid": "Q49269033"
      }
    },
    {
      "type": "Feature",
      "geometry": {
        "type": "Point",
        "coordinates": [
          100.316111111,
          6.283611111
        ]
      },
      "properties": {
        "label": "Terusan Air Nombor Tiga Tunjang",
        "type": "Hydraulic structure",
        "entity": "http://www.wikidata.org/entity/Q34743965",
        "country_qid": "Q833",
        "Wikidata Qid": "Q34743965"
      }
    },
    {
      "type": "Feature",
      "geometry": {
        "type": "Point",
        "coordinates": [
          100.266666666,
          6.266666666
        ]
      },
      "properties": {
        "label": "Terusan Tunjang",
        "type": "Hydraulic structure",
        "entity": "http://www.wikidata.org/entity/Q34744077",
        "country_qid": "Q833",
        "Wikidata Qid": "Q34744077"
      }
    },
    {
      "type": "Feature",
      "geometry": {
        "type": "Point",
        "coordinates": [
          101.983333,
          2.275
        ]
      },
      "properties": {
        "label": "Port of Kuala Sungai Linggi",
        "type": "Hydraulic structure",
        "entity": "http://www.wikidata.org/entity/Q18392681",
        "country_qid": "Q833",
        "Wikidata Qid": "Q18392681"
      }
    },
    {
      "type": "Feature",
      "geometry": {
        "type": "Point",
        "coordinates": [
          100.919722222,
          4.254166666
        ]
      },
      "properties": {
        "label": "Parit Tok Melor",
        "type": "Hydraulic structure",
        "entity": "http://www.wikidata.org/entity/Q34735723",
        "country_qid": "Q833",
        "Wikidata Qid": "Q34735723"
      }
    },
    {
      "type": "Feature",
      "geometry": {
        "type": "Point",
        "coordinates": [
          102.383333333,
          6.016666666
        ]
      },
      "properties": {
        "label": "Parit Nik Mood",
        "type": "Hydraulic structure",
        "entity": "http://www.wikidata.org/entity/Q34735592",
        "country_qid": "Q833",
        "Wikidata Qid": "Q34735592"
      }
    },
    {
      "type": "Feature",
      "geometry": {
        "type": "Point",
        "coordinates": [
          103.178972222,
          1.977416666
        ]
      },
      "properties": {
        "label": "Semberong Dam",
        "type": "Hydraulic structure",
        "entity": "http://www.wikidata.org/entity/Q7331837",
        "country_qid": "Q833",
        "Wikidata Qid": "Q7331837"
      }
    },
    {
      "type": "Feature",
      "geometry": {
        "type": "Point",
        "coordinates": [
          100.2275,
          6.455833333
        ]
      },
      "properties": {
        "label": "Terusan Jejawi",
        "type": "Hydraulic structure",
        "entity": "http://www.wikidata.org/entity/Q34744015",
        "country_qid": "Q833",
        "Wikidata Qid": "Q34744015"
      }
    },
    {
      "type": "Feature",
      "geometry": {
        "type": "Point",
        "coordinates": [
          100.433333333,
          5.866666666
        ]
      },
      "properties": {
        "label": "Q49269028",
        "type": "Hydraulic structure",
        "entity": "http://www.wikidata.org/entity/Q49269028",
        "country_qid": "Q833",
        "Wikidata Qid": "Q49269028"
      }
    },
    {
      "type": "Feature",
      "geometry": {
        "type": "Point",
        "coordinates": [
          101.886,
          3.07907
        ]
      },
      "properties": {
        "label": "Semenyih Dam",
        "type": "Hydraulic structure",
        "entity": "http://www.wikidata.org/entity/Q7449235",
        "country_qid": "Q833",
        "Wikidata Qid": "Q7449235"
      }
    },
    {
      "type": "Feature",
      "geometry": {
        "type": "Point",
        "coordinates": [
          100.250833333,
          6.241944444
        ]
      },
      "properties": {
        "label": "Terusan Ayer Hitam",
        "type": "Hydraulic structure",
        "entity": "http://www.wikidata.org/entity/Q34743992",
        "country_qid": "Q833",
        "Wikidata Qid": "Q34743992"
      }
    },
    {
      "type": "Feature",
      "geometry": {
        "type": "Point",
        "coordinates": [
          100.831111111,
          4.325833333
        ]
      },
      "properties": {
        "label": "Parit Empat Belas",
        "type": "Hydraulic structure",
        "entity": "http://www.wikidata.org/entity/Q34735525",
        "country_qid": "Q833",
        "Wikidata Qid": "Q34735525"
      }
    },
    {
      "type": "Feature",
      "geometry": {
        "type": "Point",
        "coordinates": [
          100.339444444,
          6.2425
        ]
      },
      "properties": {
        "label": "Parit Dua",
        "type": "Hydraulic structure",
        "entity": "http://www.wikidata.org/entity/Q34735509",
        "country_qid": "Q833",
        "Wikidata Qid": "Q34735509"
      }
    },
    {
      "type": "Feature",
      "geometry": {
        "type": "Point",
        "coordinates": [
          100.831666666,
          4.301666666
        ]
      },
      "properties": {
        "label": "Parit Tujuh Belas",
        "type": "Hydraulic structure",
        "entity": "http://www.wikidata.org/entity/Q34735731",
        "country_qid": "Q833",
        "Wikidata Qid": "Q34735731"
      }
    },
    {
      "type": "Feature",
      "geometry": {
        "type": "Point",
        "coordinates": [
          103.063611111,
          5.366944444
        ]
      },
      "properties": {
        "label": "Parit Nombor Empat",
        "type": "Hydraulic structure",
        "entity": "http://www.wikidata.org/entity/Q34735618",
        "country_qid": "Q833",
        "Wikidata Qid": "Q34735618"
      }
    },
    {
      "type": "Feature",
      "geometry": {
        "type": "Point",
        "coordinates": [
          103.076111111,
          5.361388888
        ]
      },
      "properties": {
        "label": "Parit Nombor Dua",
        "type": "Hydraulic structure",
        "entity": "http://www.wikidata.org/entity/Q34735605",
        "country_qid": "Q833",
        "Wikidata Qid": "Q34735605"
      }
    },
    {
      "type": "Feature",
      "geometry": {
        "type": "Point",
        "coordinates": [
          103.43889,
          3.97
        ]
      },
      "properties": {
        "label": "Kuantan Port",
        "type": "Hydraulic structure",
        "entity": "http://www.wikidata.org/entity/Q4209714",
        "country_qid": "Q833",
        "Wikidata Qid": "Q4209714"
      }
    },
    {
      "type": "Feature",
      "geometry": {
        "type": "Point",
        "coordinates": [
          100.224722222,
          6.365277777
        ]
      },
      "properties": {
        "label": "Q49269295",
        "type": "Hydraulic structure",
        "entity": "http://www.wikidata.org/entity/Q49269295",
        "country_qid": "Q833",
        "Wikidata Qid": "Q49269295"
      }
    },
    {
      "type": "Feature",
      "geometry": {
        "type": "Point",
        "coordinates": [
          100.839722222,
          4.31
        ]
      },
      "properties": {
        "label": "Parit Enam Belas",
        "type": "Hydraulic structure",
        "entity": "http://www.wikidata.org/entity/Q34735531",
        "country_qid": "Q833",
        "Wikidata Qid": "Q34735531"
      }
    },
    {
      "type": "Feature",
      "geometry": {
        "type": "Point",
        "coordinates": [
          100.316666666,
          6.15
        ]
      },
      "properties": {
        "label": "Alor Janggus",
        "type": "Hydraulic structure",
        "entity": "http://www.wikidata.org/entity/Q34697579",
        "country_qid": "Q833",
        "Wikidata Qid": "Q34697579"
      }
    },
    {
      "type": "Feature",
      "geometry": {
        "type": "Point",
        "coordinates": [
          100.75,
          4.103888888
        ]
      },
      "properties": {
        "label": "Q49269039",
        "type": "Hydraulic structure",
        "entity": "http://www.wikidata.org/entity/Q49269039",
        "country_qid": "Q833",
        "Wikidata Qid": "Q49269039"
      }
    },
    {
      "type": "Feature",
      "geometry": {
        "type": "Point",
        "coordinates": [
          100.36603,
          5.4157
        ]
      },
      "properties": {
        "label": "Port of Penang",
        "type": "Hydraulic structure",
        "entity": "http://www.wikidata.org/entity/Q46349553",
        "country_qid": "Q833",
        "Wikidata Qid": "Q46349553"
      }
    },
    {
      "type": "Feature",
      "geometry": {
        "type": "Point",
        "coordinates": [
          114.266666666,
          4.466666666
        ]
      },
      "properties": {
        "label": "Pagalayan Canal",
        "type": "Hydraulic structure",
        "entity": "http://www.wikidata.org/entity/Q34735100",
        "country_qid": "Q833",
        "Wikidata Qid": "Q34735100"
      }
    },
    {
      "type": "Feature",
      "geometry": {
        "type": "Point",
        "coordinates": [
          103.078333333,
          5.356111111
        ]
      },
      "properties": {
        "label": "Parit Nombor Satu",
        "type": "Hydraulic structure",
        "entity": "http://www.wikidata.org/entity/Q34735664",
        "country_qid": "Q833",
        "Wikidata Qid": "Q34735664"
      }
    },
    {
      "type": "Feature",
      "geometry": {
        "type": "Point",
        "coordinates": [
          100.366666666,
          6.216666666
        ]
      },
      "properties": {
        "label": "Alor Kota Rentang",
        "type": "Hydraulic structure",
        "entity": "http://www.wikidata.org/entity/Q34697588",
        "country_qid": "Q833",
        "Wikidata Qid": "Q34697588"
      }
    },
    {
      "type": "Feature",
      "geometry": {
        "type": "Point",
        "coordinates": [
          102.25,
          2.2
        ]
      },
      "properties": {
        "label": "Melaka",
        "type": "Hydraulic structure",
        "entity": "http://www.wikidata.org/entity/Q111387047",
        "country_qid": "Q833",
        "Wikidata Qid": "Q111387047"
      }
    },
    {
      "type": "Feature",
      "geometry": {
        "type": "Point",
        "coordinates": [
          100.45,
          5.866666666
        ]
      },
      "properties": {
        "label": "Yan Kechil Canal",
        "type": "Hydraulic structure",
        "entity": "http://www.wikidata.org/entity/Q34747805",
        "country_qid": "Q833",
        "Wikidata Qid": "Q34747805"
      }
    },
    {
      "type": "Feature",
      "geometry": {
        "type": "Point",
        "coordinates": [
          113.074396,
          3.27916
        ]
      },
      "properties": {
        "label": "Malaysia LNG",
        "type": "Hydraulic structure",
        "entity": "http://www.wikidata.org/entity/Q7382973",
        "country_qid": "Q833",
        "Wikidata Qid": "Q7382973"
      }
    },
    {
      "type": "Feature",
      "geometry": {
        "type": "Point",
        "coordinates": [
          102.1341884,
          2.2564463
        ]
      },
      "properties": {
        "label": "Melaka LNG terminal",
        "type": "Hydraulic structure",
        "entity": "http://www.wikidata.org/entity/Q30972507",
        "country_qid": "Q833",
        "Wikidata Qid": "Q30972507"
      }
    },
    {
      "type": "Feature",
      "geometry": {
        "type": "Point",
        "coordinates": [
          118.557777777,
          5.568333333
        ]
      },
      "properties": {
        "label": "Terusan Kinabatangan",
        "type": "Hydraulic structure",
        "entity": "http://www.wikidata.org/entity/Q34744027",
        "country_qid": "Q833",
        "Wikidata Qid": "Q34744027"
      }
    },
    {
      "type": "Feature",
      "geometry": {
        "type": "Point",
        "coordinates": [
          100.2925,
          6.311388888
        ]
      },
      "properties": {
        "label": "Terusan Air Nombor Empat Lama Bulu",
        "type": "Hydraulic structure",
        "entity": "http://www.wikidata.org/entity/Q34743910",
        "country_qid": "Q833",
        "Wikidata Qid": "Q34743910"
      }
    },
    {
      "type": "Feature",
      "geometry": {
        "type": "Point",
        "coordinates": [
          118.25,
          4.683333333
        ]
      },
      "properties": {
        "label": "Mostyn",
        "type": "Hydraulic structure",
        "entity": "http://www.wikidata.org/entity/Q111386924",
        "country_qid": "Q833",
        "Wikidata Qid": "Q111386924"
      }
    },
    {
      "type": "Feature",
      "geometry": {
        "type": "Point",
        "coordinates": [
          100.246111111,
          6.384166666
        ]
      },
      "properties": {
        "label": "Q49269294",
        "type": "Hydraulic structure",
        "entity": "http://www.wikidata.org/entity/Q49269294",
        "country_qid": "Q833",
        "Wikidata Qid": "Q49269294"
      }
    },
    {
      "type": "Feature",
      "geometry": {
        "type": "Point",
        "coordinates": [
          100.385277777,
          6.014444444
        ]
      },
      "properties": {
        "label": "Terusan Air Rancangan Muda",
        "type": "Hydraulic structure",
        "entity": "http://www.wikidata.org/entity/Q34743976",
        "country_qid": "Q833",
        "Wikidata Qid": "Q34743976"
      }
    },
    {
      "type": "Feature",
      "geometry": {
        "type": "Point",
        "coordinates": [
          100.775555555,
          4.108888888
        ]
      },
      "properties": {
        "label": "Parit Rahmat",
        "type": "Hydraulic structure",
        "entity": "http://www.wikidata.org/entity/Q34735699",
        "country_qid": "Q833",
        "Wikidata Qid": "Q34735699"
      }
    },
    {
      "type": "Feature",
      "geometry": {
        "type": "Point",
        "coordinates": [
          101.909444444,
          4.788333333
        ]
      },
      "properties": {
        "label": "Lata",
        "type": "Hydraulic structure",
        "entity": "http://www.wikidata.org/entity/Q35707680",
        "country_qid": "Q833",
        "Wikidata Qid": "Q35707680"
      }
    },
    {
      "type": "Feature",
      "geometry": {
        "type": "Point",
        "coordinates": [
          100.240833333,
          6.418333333
        ]
      },
      "properties": {
        "label": "Parit Behor Gelam",
        "type": "Hydraulic structure",
        "entity": "http://www.wikidata.org/entity/Q34735493",
        "country_qid": "Q833",
        "Wikidata Qid": "Q34735493"
      }
    },
    {
      "type": "Feature",
      "geometry": {
        "type": "Point",
        "coordinates": [
          100.221666666,
          6.286111111
        ]
      },
      "properties": {
        "label": "Terusan Ayer Hitam",
        "type": "Hydraulic structure",
        "entity": "http://www.wikidata.org/entity/Q34744000",
        "country_qid": "Q833",
        "Wikidata Qid": "Q34744000"
      }
    },
    {
      "type": "Feature",
      "geometry": {
        "type": "Point",
        "coordinates": [
          101.676388888,
          2.618611111
        ]
      },
      "properties": {
        "label": "Q49269035",
        "type": "Hydraulic structure",
        "entity": "http://www.wikidata.org/entity/Q49269035",
        "country_qid": "Q833",
        "Wikidata Qid": "Q49269035"
      }
    },
    {
      "type": "Feature",
      "geometry": {
        "type": "Point",
        "coordinates": [
          103.631666666,
          2.618888888
        ]
      },
      "properties": {
        "label": "Parit Nombor Empat",
        "type": "Hydraulic structure",
        "entity": "http://www.wikidata.org/entity/Q34735612",
        "country_qid": "Q833",
        "Wikidata Qid": "Q34735612"
      }
    },
    {
      "type": "Feature",
      "geometry": {
        "type": "Point",
        "coordinates": [
          101.983888888,
          2.398611111
        ]
      },
      "properties": {
        "label": "Q49269037",
        "type": "Hydraulic structure",
        "entity": "http://www.wikidata.org/entity/Q49269037",
        "country_qid": "Q833",
        "Wikidata Qid": "Q49269037"
      }
    },
    {
      "type": "Feature",
      "geometry": {
        "type": "Point",
        "coordinates": [
          100.418611111,
          5.12
        ]
      },
      "properties": {
        "label": "Parit Tanah Seratus",
        "type": "Hydraulic structure",
        "entity": "http://www.wikidata.org/entity/Q34735712",
        "country_qid": "Q833",
        "Wikidata Qid": "Q34735712"
      }
    },
    {
      "type": "Feature",
      "geometry": {
        "type": "Point",
        "coordinates": [
          100.303333333,
          6.316666666
        ]
      },
      "properties": {
        "label": "Terusan Air Nombor Tiga Lama Bulu",
        "type": "Hydraulic structure",
        "entity": "http://www.wikidata.org/entity/Q34743958",
        "country_qid": "Q833",
        "Wikidata Qid": "Q34743958"
      }
    },
    {
      "type": "Feature",
      "geometry": {
        "type": "Point",
        "coordinates": [
          100.329722222,
          6.2875
        ]
      },
      "properties": {
        "label": "Q49269492",
        "type": "Hydraulic structure",
        "entity": "http://www.wikidata.org/entity/Q49269492",
        "country_qid": "Q833",
        "Wikidata Qid": "Q49269492"
      }
    },
    {
      "type": "Feature",
      "geometry": {
        "type": "Point",
        "coordinates": [
          100.262777777,
          6.329722222
        ]
      },
      "properties": {
        "label": "Terusan Air Nombor Empat Sanglang",
        "type": "Hydraulic structure",
        "entity": "http://www.wikidata.org/entity/Q34743916",
        "country_qid": "Q833",
        "Wikidata Qid": "Q34743916"
      }
    },
    {
      "type": "Feature",
      "geometry": {
        "type": "Point",
        "coordinates": [
          100.292222222,
          6.362222222
        ]
      },
      "properties": {
        "label": "Q49269302",
        "type": "Hydraulic structure",
        "entity": "http://www.wikidata.org/entity/Q49269302",
        "country_qid": "Q833",
        "Wikidata Qid": "Q49269302"
      }
    },
    {
      "type": "Feature",
      "geometry": {
        "type": "Point",
        "coordinates": [
          99.776388888,
          6.359444444
        ]
      },
      "properties": {
        "label": "Q49269287",
        "type": "Hydraulic structure",
        "entity": "http://www.wikidata.org/entity/Q49269287",
        "country_qid": "Q833",
        "Wikidata Qid": "Q49269287"
      }
    },
    {
      "type": "Feature",
      "geometry": {
        "type": "Point",
        "coordinates": [
          100.200833333,
          6.347222222
        ]
      },
      "properties": {
        "label": "Parit Nombor Lima Belas",
        "type": "Hydraulic structure",
        "entity": "http://www.wikidata.org/entity/Q34735650",
        "country_qid": "Q833",
        "Wikidata Qid": "Q34735650"
      }
    },
    {
      "type": "Feature",
      "geometry": {
        "type": "Point",
        "coordinates": [
          103.631111111,
          2.622777777
        ]
      },
      "properties": {
        "label": "Parit Nombor Tiga",
        "type": "Hydraulic structure",
        "entity": "http://www.wikidata.org/entity/Q34735681",
        "country_qid": "Q833",
        "Wikidata Qid": "Q34735681"
      }
    },
    {
      "type": "Feature",
      "geometry": {
        "type": "Point",
        "coordinates": [
          100.237222222,
          6.331111111
        ]
      },
      "properties": {
        "label": "Parit Nombor Sebelas",
        "type": "Hydraulic structure",
        "entity": "http://www.wikidata.org/entity/Q34735670",
        "country_qid": "Q833",
        "Wikidata Qid": "Q34735670"
      }
    },
    {
      "type": "Feature",
      "geometry": {
        "type": "Point",
        "coordinates": [
          100.266666666,
          6.416666666
        ]
      },
      "properties": {
        "label": "Arau Canal",
        "type": "Hydraulic structure",
        "entity": "http://www.wikidata.org/entity/Q34698068",
        "country_qid": "Q833",
        "Wikidata Qid": "Q34698068"
      }
    },
    {
      "type": "Feature",
      "geometry": {
        "type": "Point",
        "coordinates": [
          100.483333333,
          6.033333333
        ]
      },
      "properties": {
        "label": "Q49269029",
        "type": "Hydraulic structure",
        "entity": "http://www.wikidata.org/entity/Q49269029",
        "country_qid": "Q833",
        "Wikidata Qid": "Q49269029"
      }
    },
    {
      "type": "Feature",
      "geometry": {
        "type": "Point",
        "coordinates": [
          100.768611111,
          4.079722222
        ]
      },
      "properties": {
        "label": "Parit Hindu",
        "type": "Hydraulic structure",
        "entity": "http://www.wikidata.org/entity/Q34735545",
        "country_qid": "Q833",
        "Wikidata Qid": "Q34735545"
      }
    },
    {
      "type": "Feature",
      "geometry": {
        "type": "Point",
        "coordinates": [
          100.50611111,
          5.38472222
        ]
      },
      "properties": {
        "label": "Mengkuang Dam",
        "type": "Hydraulic structure",
        "entity": "http://www.wikidata.org/entity/Q6817015",
        "country_qid": "Q833",
        "Wikidata Qid": "Q6817015"
      }
    },
    {
      "type": "Feature",
      "geometry": {
        "type": "Point",
        "coordinates": [
          100.416666666,
          6.026111111
        ]
      },
      "properties": {
        "label": "Terusan Tokai Tanah Merah",
        "type": "Hydraulic structure",
        "entity": "http://www.wikidata.org/entity/Q34744069",
        "country_qid": "Q833",
        "Wikidata Qid": "Q34744069"
      }
    },
    {
      "type": "Feature",
      "geometry": {
        "type": "Point",
        "coordinates": [
          103.689527777,
          1.906666666
        ]
      },
      "properties": {
        "label": "Linggiu Dam",
        "type": "Hydraulic structure",
        "entity": "http://www.wikidata.org/entity/Q12686072",
        "country_qid": "Q833",
        "Wikidata Qid": "Q12686072"
      }
    },
    {
      "type": "Feature",
      "geometry": {
        "type": "Point",
        "coordinates": [
          100.289166666,
          6.275555555
        ]
      },
      "properties": {
        "label": "Terusan Air Nombor Lima Tunjang",
        "type": "Hydraulic structure",
        "entity": "http://www.wikidata.org/entity/Q34743952",
        "country_qid": "Q833",
        "Wikidata Qid": "Q34743952"
      }
    },
    {
      "type": "Feature",
      "geometry": {
        "type": "Point",
        "coordinates": [
          100.216111111,
          6.358888888
        ]
      },
      "properties": {
        "label": "Terusan Arau",
        "type": "Hydraulic structure",
        "entity": "http://www.wikidata.org/entity/Q34743983",
        "country_qid": "Q833",
        "Wikidata Qid": "Q34743983"
      }
    },
    {
      "type": "Feature",
      "geometry": {
        "type": "Point",
        "coordinates": [
          100.249722222,
          6.389166666
        ]
      },
      "properties": {
        "label": "Q49269297",
        "type": "Hydraulic structure",
        "entity": "http://www.wikidata.org/entity/Q49269297",
        "country_qid": "Q833",
        "Wikidata Qid": "Q49269297"
      }
    },
    {
      "type": "Feature",
      "geometry": {
        "type": "Point",
        "coordinates": [
          100.357222222,
          6.2225
        ]
      },
      "properties": {
        "label": "Parit Satu",
        "type": "Hydraulic structure",
        "entity": "http://www.wikidata.org/entity/Q34735705",
        "country_qid": "Q833",
        "Wikidata Qid": "Q34735705"
      }
    },
    {
      "type": "Feature",
      "geometry": {
        "type": "Point",
        "coordinates": [
          104.006,
          1.44333
        ]
      },
      "properties": {
        "label": "Tanjung Langsat Port",
        "type": "Hydraulic structure",
        "entity": "http://www.wikidata.org/entity/Q7683422",
        "country_qid": "Q833",
        "Wikidata Qid": "Q7683422"
      }
    },
    {
      "type": "Feature",
      "geometry": {
        "type": "Point",
        "coordinates": [
          100.271666666,
          6.338888888
        ]
      },
      "properties": {
        "label": "Q49269304",
        "type": "Hydraulic structure",
        "entity": "http://www.wikidata.org/entity/Q49269304",
        "country_qid": "Q833",
        "Wikidata Qid": "Q49269304"
      }
    },
    {
      "type": "Feature",
      "geometry": {
        "type": "Point",
        "coordinates": [
          110.389444444,
          1.554722222
        ]
      },
      "properties": {
        "label": "Pelabuhan Pending",
        "type": "Hydraulic structure",
        "entity": "http://www.wikidata.org/entity/Q34963976",
        "country_qid": "Q833",
        "Wikidata Qid": "Q34963976"
      }
    },
    {
      "type": "Feature",
      "geometry": {
        "type": "Point",
        "coordinates": [
          100.187222222,
          6.34
        ]
      },
      "properties": {
        "label": "Terusan Kayang",
        "type": "Hydraulic structure",
        "entity": "http://www.wikidata.org/entity/Q34744021",
        "country_qid": "Q833",
        "Wikidata Qid": "Q34744021"
      }
    },
    {
      "type": "Feature",
      "geometry": {
        "type": "Point",
        "coordinates": [
          103.271305555,
          1.888111111
        ]
      },
      "properties": {
        "label": "Machap Dam",
        "type": "Hydraulic structure",
        "entity": "http://www.wikidata.org/entity/Q12686073",
        "country_qid": "Q833",
        "Wikidata Qid": "Q12686073"
      }
    },
    {
      "type": "Feature",
      "geometry": {
        "type": "Point",
        "coordinates": [
          103.635,
          2.630277777
        ]
      },
      "properties": {
        "label": "Parit Nombor Satu",
        "type": "Hydraulic structure",
        "entity": "http://www.wikidata.org/entity/Q34735657",
        "country_qid": "Q833",
        "Wikidata Qid": "Q34735657"
      }
    },
    {
      "type": "Feature",
      "geometry": {
        "type": "Point",
        "coordinates": [
          100.214269,
          5.444858
        ]
      },
      "properties": {
        "label": "Teluk Bahang Dam",
        "type": "Hydraulic structure",
        "entity": "http://www.wikidata.org/entity/Q131542457",
        "country_qid": "Q833",
        "Wikidata Qid": "Q131542457"
      }
    },
    {
      "type": "Feature",
      "geometry": {
        "type": "Point",
        "coordinates": [
          114.0,
          4.466666666
        ]
      },
      "properties": {
        "label": "Lutong",
        "type": "Hydraulic structure",
        "entity": "http://www.wikidata.org/entity/Q111387601",
        "country_qid": "Q833",
        "Wikidata Qid": "Q111387601"
      }
    },
    {
      "type": "Feature",
      "geometry": {
        "type": "Point",
        "coordinates": [
          111.816666666,
          2.283333333
        ]
      },
      "properties": {
        "label": "Sibu",
        "type": "Hydraulic structure",
        "entity": "http://www.wikidata.org/entity/Q111387500",
        "country_qid": "Q833",
        "Wikidata Qid": "Q111387500"
      }
    },
    {
      "type": "Feature",
      "geometry": {
        "type": "Point",
        "coordinates": [
          111.533333333,
          2.133333333
        ]
      },
      "properties": {
        "label": "Sarikei",
        "type": "Hydraulic structure",
        "entity": "http://www.wikidata.org/entity/Q111387495",
        "country_qid": "Q833",
        "Wikidata Qid": "Q111387495"
      }
    },
    {
      "type": "Feature",
      "geometry": {
        "type": "Point",
        "coordinates": [
          102.566666666,
          2.05
        ]
      },
      "properties": {
        "label": "Muar",
        "type": "Hydraulic structure",
        "entity": "http://www.wikidata.org/entity/Q111387259",
        "country_qid": "Q833",
        "Wikidata Qid": "Q111387259"
      }
    },
    {
      "type": "Feature",
      "geometry": {
        "type": "Point",
        "coordinates": [
          118.116666666,
          5.833333333
        ]
      },
      "properties": {
        "label": "Pelabuhan Sandakan",
        "type": "Hydraulic structure",
        "entity": "http://www.wikidata.org/entity/Q111387565",
        "country_qid": "Q833",
        "Wikidata Qid": "Q111387565"
      }
    },
    {
      "type": "Feature",
      "geometry": {
        "type": "Point",
        "coordinates": [
          117.883333333,
          4.25
        ]
      },
      "properties": {
        "label": "Tawa",
        "type": "Hydraulic structure",
        "entity": "http://www.wikidata.org/entity/Q111387329",
        "country_qid": "Q833",
        "Wikidata Qid": "Q111387329"
      }
    },
    {
      "type": "Feature",
      "geometry": {
        "type": "Point",
        "coordinates": [
          118.316666666,
          5.016666666
        ]
      },
      "properties": {
        "label": "Lahad Datu",
        "type": "Hydraulic structure",
        "entity": "http://www.wikidata.org/entity/Q111387569",
        "country_qid": "Q833",
        "Wikidata Qid": "Q111387569"
      }
    },
    {
      "type": "Feature",
      "geometry": {
        "type": "Point",
        "coordinates": [
          103.466666666,
          4.566666666
        ]
      },
      "properties": {
        "label": "Kirteh Oil Terminal",
        "type": "Hydraulic structure",
        "entity": "http://www.wikidata.org/entity/Q111387235",
        "country_qid": "Q833",
        "Wikidata Qid": "Q111387235"
      }
    },
    {
      "type": "Feature",
      "geometry": {
        "type": "Point",
        "coordinates": [
          113.966666666,
          4.383333333
        ]
      },
      "properties": {
        "label": "Miri",
        "type": "Hydraulic structure",
        "entity": "http://www.wikidata.org/entity/Q111387600",
        "country_qid": "Q833",
        "Wikidata Qid": "Q111387600"
      }
    },
    {
      "type": "Feature",
      "geometry": {
        "type": "Point",
        "coordinates": [
          101.4,
          3.0
        ]
      },
      "properties": {
        "label": "Port of Port Klang",
        "type": "Hydraulic structure",
        "entity": "http://www.wikidata.org/entity/Q127789171",
        "country_qid": "Q833",
        "Wikidata Qid": "Q127789171"
      }
    },
    {
      "type": "Feature",
      "geometry": {
        "type": "Point",
        "coordinates": [
          101.4,
          3.0
        ]
      },
      "properties": {
        "label": "Port Klang",
        "type": "Hydraulic structure",
        "entity": "http://www.wikidata.org/entity/Q111387192",
        "country_qid": "Q833",
        "Wikidata Qid": "Q111387192"
      }
    },
    {
      "type": "Feature",
      "geometry": {
        "type": "Point",
        "coordinates": [
          105.016666666,
          5.516666666
        ]
      },
      "properties": {
        "label": "Tapis Marine Terminal A",
        "type": "Hydraulic structure",
        "entity": "http://www.wikidata.org/entity/Q111387237",
        "country_qid": "Q833",
        "Wikidata Qid": "Q111387237"
      }
    },
    {
      "type": "Feature",
      "geometry": {
        "type": "Point",
        "coordinates": [
          101.783333333,
          2.533333333
        ]
      },
      "properties": {
        "label": "Port Dickson",
        "type": "Hydraulic structure",
        "entity": "http://www.wikidata.org/entity/Q111387194",
        "country_qid": "Q833",
        "Wikidata Qid": "Q111387194"
      }
    },
    {
      "type": "Feature",
      "geometry": {
        "type": "Point",
        "coordinates": [
          101.016666666,
          4.016666666
        ]
      },
      "properties": {
        "label": "Teluk Anson",
        "type": "Hydraulic structure",
        "entity": "http://www.wikidata.org/entity/Q111387330",
        "country_qid": "Q833",
        "Wikidata Qid": "Q111387330"
      }
    },
    {
      "type": "Feature",
      "geometry": {
        "type": "Point",
        "coordinates": [
          100.26224,
          5.3958
        ]
      },
      "properties": {
        "label": "Ayer Itam Dam",
        "type": "Hydraulic structure",
        "entity": "http://www.wikidata.org/entity/Q130702404",
        "country_qid": "Q833",
        "Wikidata Qid": "Q130702404"
      }
    },
    {
      "type": "Feature",
      "geometry": {
        "type": "Point",
        "coordinates": [
          116.85,
          6.883333333
        ]
      },
      "properties": {
        "label": "Kudat",
        "type": "Hydraulic structure",
        "entity": "http://www.wikidata.org/entity/Q111387551",
        "country_qid": "Q833",
        "Wikidata Qid": "Q111387551"
      }
    },
    {
      "type": "Feature",
      "geometry": {
        "type": "Point",
        "coordinates": [
          103.133333333,
          5.35
        ]
      },
      "properties": {
        "label": "Kuala Trengganu",
        "type": "Hydraulic structure",
        "entity": "http://www.wikidata.org/entity/Q111387236",
        "country_qid": "Q833",
        "Wikidata Qid": "Q111387236"
      }
    },
    {
      "type": "Feature",
      "geometry": {
        "type": "Point",
        "coordinates": [
          101.56815,
          3.18399
        ]
      },
      "properties": {
        "label": "Sungai Buloh Depot",
        "type": "Industrial building",
        "entity": "http://www.wikidata.org/entity/Q24088767",
        "country_qid": "Q833",
        "Wikidata Qid": "Q24088767"
      }
    },
    {
      "type": "Feature",
      "geometry": {
        "type": "Point",
        "coordinates": [
          101.4655,
          2.9758
        ]
      },
      "properties": {
        "label": "Johan Setia Depot",
        "type": "Industrial building",
        "entity": "http://www.wikidata.org/entity/Q123238135",
        "country_qid": "Q833",
        "Wikidata Qid": "Q123238135"
      }
    },
    {
      "type": "Feature",
      "geometry": {
        "type": "Point",
        "coordinates": [
          101.6918,
          2.9987
        ]
      },
      "properties": {
        "label": "Serdang Depot",
        "type": "Industrial building",
        "entity": "http://www.wikidata.org/entity/Q24884636",
        "country_qid": "Q833",
        "Wikidata Qid": "Q24884636"
      }
    },
    {
      "type": "Feature",
      "geometry": {
        "type": "Point",
        "coordinates": [
          103.261916666,
          1.881361111
        ]
      },
      "properties": {
        "label": "Aw Pottery Studio",
        "type": "Industrial building",
        "entity": "http://www.wikidata.org/entity/Q105397684",
        "country_qid": "Q833",
        "Wikidata Qid": "Q105397684"
      }
    },
    {
      "type": "Feature",
      "geometry": {
        "type": "Point",
        "coordinates": [
          101.5579,
          3.3548
        ]
      },
      "properties": {
        "label": "Tan Chong Motor Assemblies Rawang",
        "type": "Industrial building",
        "entity": "http://www.wikidata.org/entity/Q110029653",
        "country_qid": "Q833",
        "Wikidata Qid": "Q110029653"
      }
    },
    {
      "type": "Feature",
      "geometry": {
        "type": "Point",
        "coordinates": [
          103.024971,
          5.068867
        ]
      },
      "properties": {
        "label": "Kuala Berang Fire and Rescue Station",
        "type": "Industrial building",
        "entity": "http://www.wikidata.org/entity/Q134893450",
        "country_qid": "Q833",
        "Wikidata Qid": "Q134893450"
      }
    },
    {
      "type": "Feature",
      "geometry": {
        "type": "Point",
        "coordinates": [
          103.848222222,
          1.809722222
        ]
      },
      "properties": {
        "label": "Minyue Pottery",
        "type": "Industrial building",
        "entity": "http://www.wikidata.org/entity/Q105101585",
        "country_qid": "Q833",
        "Wikidata Qid": "Q105101585"
      }
    },
    {
      "type": "Feature",
      "geometry": {
        "type": "Point",
        "coordinates": [
          102.24775,
          2.19380556
        ]
      },
      "properties": {
        "label": "Melaka Sultanate Watermill",
        "type": "Industrial building",
        "entity": "http://www.wikidata.org/entity/Q20716030",
        "country_qid": "Q833",
        "Wikidata Qid": "Q20716030"
      }
    },
    {
      "type": "Feature",
      "geometry": {
        "type": "Point",
        "coordinates": [
          103.6370128,
          1.4083774
        ]
      },
      "properties": {
        "label": "Iskandar Malaysia Studios",
        "type": "Industrial building",
        "entity": "http://www.wikidata.org/entity/Q7195598",
        "country_qid": "Q833",
        "Wikidata Qid": "Q7195598"
      }
    },
    {
      "type": "Feature",
      "geometry": {
        "type": "Point",
        "coordinates": [
          101.67318,
          3.18422
        ]
      },
      "properties": {
        "label": "Tan Chong Motor Assemblies Segambut",
        "type": "Industrial building",
        "entity": "http://www.wikidata.org/entity/Q110029620",
        "country_qid": "Q833",
        "Wikidata Qid": "Q110029620"
      }
    },
    {
      "type": "Feature",
      "geometry": {
        "type": "Point",
        "coordinates": [
          100.535,
          5.8125
        ]
      },
      "properties": {
        "label": "Gurun Inverter Station",
        "type": "Industrial building",
        "entity": "http://www.wikidata.org/entity/Q122872933",
        "country_qid": "Q833",
        "Wikidata Qid": "Q122872933"
      }
    },
    {
      "type": "Feature",
      "geometry": {
        "type": "Point",
        "coordinates": [
          102.668055555,
          2.028611111
        ]
      },
      "properties": {
        "label": "Q49460303",
        "type": "Mine",
        "entity": "http://www.wikidata.org/entity/Q49460303",
        "country_qid": "Q833",
        "Wikidata Qid": "Q49460303"
      }
    },
    {
      "type": "Feature",
      "geometry": {
        "type": "Point",
        "coordinates": [
          103.846388888,
          1.513333333
        ]
      },
      "properties": {
        "label": "Q49460313",
        "type": "Mine",
        "entity": "http://www.wikidata.org/entity/Q49460313",
        "country_qid": "Q833",
        "Wikidata Qid": "Q49460313"
      }
    },
    {
      "type": "Feature",
      "geometry": {
        "type": "Point",
        "coordinates": [
          103.4075,
          3.978888888
        ]
      },
      "properties": {
        "label": "Q49460307",
        "type": "Mine",
        "entity": "http://www.wikidata.org/entity/Q49460307",
        "country_qid": "Q833",
        "Wikidata Qid": "Q49460307"
      }
    },
    {
      "type": "Feature",
      "geometry": {
        "type": "Point",
        "coordinates": [
          102.670277777,
          2.025
        ]
      },
      "properties": {
        "label": "Q49460299",
        "type": "Mine",
        "entity": "http://www.wikidata.org/entity/Q49460299",
        "country_qid": "Q833",
        "Wikidata Qid": "Q49460299"
      }
    },
    {
      "type": "Feature",
      "geometry": {
        "type": "Point",
        "coordinates": [
          101.573611111,
          3.623611111
        ]
      },
      "properties": {
        "label": "Q49460275",
        "type": "Mine",
        "entity": "http://www.wikidata.org/entity/Q49460275",
        "country_qid": "Q833",
        "Wikidata Qid": "Q49460275"
      }
    },
    {
      "type": "Feature",
      "geometry": {
        "type": "Point",
        "coordinates": [
          103.574444444,
          1.637777777
        ]
      },
      "properties": {
        "label": "Q49460244",
        "type": "Mine",
        "entity": "http://www.wikidata.org/entity/Q49460244",
        "country_qid": "Q833",
        "Wikidata Qid": "Q49460244"
      }
    },
    {
      "type": "Feature",
      "geometry": {
        "type": "Point",
        "coordinates": [
          102.069722222,
          2.354722222
        ]
      },
      "properties": {
        "label": "Q49460295",
        "type": "Mine",
        "entity": "http://www.wikidata.org/entity/Q49460295",
        "country_qid": "Q833",
        "Wikidata Qid": "Q49460295"
      }
    },
    {
      "type": "Feature",
      "geometry": {
        "type": "Point",
        "coordinates": [
          101.842222222,
          2.985277777
        ]
      },
      "properties": {
        "label": "Q49460287",
        "type": "Mine",
        "entity": "http://www.wikidata.org/entity/Q49460287",
        "country_qid": "Q833",
        "Wikidata Qid": "Q49460287"
      }
    },
    {
      "type": "Feature",
      "geometry": {
        "type": "Point",
        "coordinates": [
          101.783888888,
          3.152777777
        ]
      },
      "properties": {
        "label": "Q49460382",
        "type": "Mine",
        "entity": "http://www.wikidata.org/entity/Q49460382",
        "country_qid": "Q833",
        "Wikidata Qid": "Q49460382"
      }
    },
    {
      "type": "Feature",
      "geometry": {
        "type": "Point",
        "coordinates": [
          103.413333333,
          1.887777777
        ]
      },
      "properties": {
        "label": "Q49427310",
        "type": "Mine",
        "entity": "http://www.wikidata.org/entity/Q49427310",
        "country_qid": "Q833",
        "Wikidata Qid": "Q49427310"
      }
    },
    {
      "type": "Feature",
      "geometry": {
        "type": "Point",
        "coordinates": [
          101.908333333,
          2.754722222
        ]
      },
      "properties": {
        "label": "Q49460363",
        "type": "Mine",
        "entity": "http://www.wikidata.org/entity/Q49460363",
        "country_qid": "Q833",
        "Wikidata Qid": "Q49460363"
      }
    },
    {
      "type": "Feature",
      "geometry": {
        "type": "Point",
        "coordinates": [
          103.585,
          1.64
        ]
      },
      "properties": {
        "label": "Q49460379",
        "type": "Mine",
        "entity": "http://www.wikidata.org/entity/Q49460379",
        "country_qid": "Q833",
        "Wikidata Qid": "Q49460379"
      }
    },
    {
      "type": "Feature",
      "geometry": {
        "type": "Point",
        "coordinates": [
          100.630555555,
          4.195555555
        ]
      },
      "properties": {
        "label": "Q49460283",
        "type": "Mine",
        "entity": "http://www.wikidata.org/entity/Q49460283",
        "country_qid": "Q833",
        "Wikidata Qid": "Q49460283"
      }
    },
    {
      "type": "Feature",
      "geometry": {
        "type": "Point",
        "coordinates": [
          102.541944444,
          2.314722222
        ]
      },
      "properties": {
        "label": "Q49460338",
        "type": "Mine",
        "entity": "http://www.wikidata.org/entity/Q49460338",
        "country_qid": "Q833",
        "Wikidata Qid": "Q49460338"
      }
    },
    {
      "type": "Feature",
      "geometry": {
        "type": "Point",
        "coordinates": [
          101.043611111,
          4.616666666
        ]
      },
      "properties": {
        "label": "Q49460161",
        "type": "Mine",
        "entity": "http://www.wikidata.org/entity/Q49460161",
        "country_qid": "Q833",
        "Wikidata Qid": "Q49460161"
      }
    },
    {
      "type": "Feature",
      "geometry": {
        "type": "Point",
        "coordinates": [
          100.615833333,
          5.299444444
        ]
      },
      "properties": {
        "label": "Q49422801",
        "type": "Mine",
        "entity": "http://www.wikidata.org/entity/Q49422801",
        "country_qid": "Q833",
        "Wikidata Qid": "Q49422801"
      }
    },
    {
      "type": "Feature",
      "geometry": {
        "type": "Point",
        "coordinates": [
          102.255277777,
          2.360833333
        ]
      },
      "properties": {
        "label": "Q49460279",
        "type": "Mine",
        "entity": "http://www.wikidata.org/entity/Q49460279",
        "country_qid": "Q833",
        "Wikidata Qid": "Q49460279"
      }
    },
    {
      "type": "Feature",
      "geometry": {
        "type": "Point",
        "coordinates": [
          103.433333333,
          1.913055555
        ]
      },
      "properties": {
        "label": "Q49460277",
        "type": "Mine",
        "entity": "http://www.wikidata.org/entity/Q49460277",
        "country_qid": "Q833",
        "Wikidata Qid": "Q49460277"
      }
    },
    {
      "type": "Feature",
      "geometry": {
        "type": "Point",
        "coordinates": [
          103.173888888,
          5.223888888
        ]
      },
      "properties": {
        "label": "Q49460438",
        "type": "Mine",
        "entity": "http://www.wikidata.org/entity/Q49460438",
        "country_qid": "Q833",
        "Wikidata Qid": "Q49460438"
      }
    },
    {
      "type": "Feature",
      "geometry": {
        "type": "Point",
        "coordinates": [
          103.843611111,
          1.513055555
        ]
      },
      "properties": {
        "label": "Q49460255",
        "type": "Mine",
        "entity": "http://www.wikidata.org/entity/Q49460255",
        "country_qid": "Q833",
        "Wikidata Qid": "Q49460255"
      }
    },
    {
      "type": "Feature",
      "geometry": {
        "type": "Point",
        "coordinates": [
          116.65575,
          6.026531
        ]
      },
      "properties": {
        "label": "Mamut Mine",
        "type": "Mine",
        "entity": "http://www.wikidata.org/entity/Q14547021",
        "country_qid": "Q833",
        "Wikidata Qid": "Q14547021"
      }
    },
    {
      "type": "Feature",
      "geometry": {
        "type": "Point",
        "coordinates": [
          101.927777777,
          3.836388888
        ]
      },
      "properties": {
        "label": "Q49460289",
        "type": "Mine",
        "entity": "http://www.wikidata.org/entity/Q49460289",
        "country_qid": "Q833",
        "Wikidata Qid": "Q49460289"
      }
    },
    {
      "type": "Feature",
      "geometry": {
        "type": "Point",
        "coordinates": [
          101.088888888,
          4.630833333
        ]
      },
      "properties": {
        "label": "Q49460201",
        "type": "Mine",
        "entity": "http://www.wikidata.org/entity/Q49460201",
        "country_qid": "Q833",
        "Wikidata Qid": "Q49460201"
      }
    },
    {
      "type": "Feature",
      "geometry": {
        "type": "Point",
        "coordinates": [
          102.133333333,
          4.897777777
        ]
      },
      "properties": {
        "label": "Q49427303",
        "type": "Mine",
        "entity": "http://www.wikidata.org/entity/Q49427303",
        "country_qid": "Q833",
        "Wikidata Qid": "Q49427303"
      }
    },