{
  "type": "FeatureCollection",
  "features": [
    {
      "type": "Feature",
      "geometry": {
        "type": "Point",
        "coordinates": [
          102.909969444,
          5.023680555
        ]
      },
      "properties": {
        "label": "Sultan Mahmud Power Station",
        "type": "power plant",
        "entity": "http://www.wikidata.org/entity/Q17056517",
        "country_qid": "Q833",
        "Wikidata Qid": "Q17056517"
      }
    },
    {
      "type": "Feature",
      "geometry": {
        "type": "Point",
        "coordinates": [
          110.464,
          1.6369
        ]
      },
      "properties": {
        "label": "Sejingkat Power Station",
        "type": "power plant",
        "entity": "http://www.wikidata.org/entity/Q116628936",
        "country_qid": "Q833",
        "Wikidata Qid": "Q116628936"
      }
    },
    {
      "type": "Feature",
      "geometry": {
        "type": "Point",
        "coordinates": [
          101.322,
          3.117
        ]
      },
      "properties": {
        "label": "Sultan Salahuddin Abdul Aziz Power Station",
        "type": "power plant",
        "entity": "http://www.wikidata.org/entity/Q7441454",
        "country_qid": "Q833",
        "Wikidata Qid": "Q7441454"
      }
    },
    {
      "type": "Feature",
      "geometry": {
        "type": "Point",
        "coordinates": [
          101.3322472,
          4.235187
        ]
      },
      "properties": {
        "label": "Sultan Idris hydro power station",
        "type": "power plant",
        "entity": "http://www.wikidata.org/entity/Q84761255",
        "country_qid": "Q833",
        "Wikidata Qid": "Q84761255"
      }
    },
    {
      "type": "Feature",
      "geometry": {
        "type": "Point",
        "coordinates": [
          115.52661,
          4.7845198
        ]
      },
      "properties": {
        "label": "Kota 2 hydro power station",
        "type": "power plant",
        "entity": "http://www.wikidata.org/entity/Q116656668",
        "country_qid": "Q833",
        "Wikidata Qid": "Q116656668"
      }
    },
    {
      "type": "Feature",
      "geometry": {
        "type": "Point",
        "coordinates": [
          101.097444444,
          5.216361111
        ]
      },
      "properties": {
        "label": "Kenering hydro power station",
        "type": "power plant",
        "entity": "http://www.wikidata.org/entity/Q12686070",
        "country_qid": "Q833",
        "Wikidata Qid": "Q12686070"
      }
    },
    {
      "type": "Feature",
      "geometry": {
        "type": "Point",
        "coordinates": [
          101.58527778,
          4.45027778
        ]
      },
      "properties": {
        "label": "Ulu Jelai Power Station",
        "type": "power plant",
        "entity": "http://www.wikidata.org/entity/Q24934390",
        "country_qid": "Q833",
        "Wikidata Qid": "Q24934390"
      }
    },
    {
      "type": "Feature",
      "geometry": {
        "type": "Point",
        "coordinates": [
          100.5894,
          4.3908
        ]
      },
      "properties": {
        "label": "Lumut Power Plant",
        "type": "power plant",
        "entity": "http://www.wikidata.org/entity/Q11986984",
        "country_qid": "Q833",
        "Wikidata Qid": "Q11986984"
      }
    },
    {
      "type": "Feature",
      "geometry": {
        "type": "Point",
        "coordinates": [
          101.3343555,
          4.3738992
        ]
      },
      "properties": {
        "label": "Sultan Yusuf hydro power station",
        "type": "power plant",
        "entity": "http://www.wikidata.org/entity/Q84761240",
        "country_qid": "Q833",
        "Wikidata Qid": "Q84761240"
      }
    },
    {
      "type": "Feature",
      "geometry": {
        "type": "Point",
        "coordinates": [
          115.9093666,
          5.6576366
        ]
      },
      "properties": {
        "label": "SPR",
        "type": "power plant",
        "entity": "http://www.wikidata.org/entity/Q116727734",
        "country_qid": "Q833",
        "Wikidata Qid": "Q116727734"
      }
    },
    {
      "type": "Feature",
      "geometry": {
        "type": "Point",
        "coordinates": [
          102.151944444,
          2.223333333
        ]
      },
      "properties": {
        "label": "Tanjung Kling Power Station",
        "type": "power plant",
        "entity": "http://www.wikidata.org/entity/Q7683419",
        "country_qid": "Q833",
        "Wikidata Qid": "Q7683419"
      }
    },
    {
      "type": "Feature",
      "geometry": {
        "type": "Point",
        "coordinates": [
          102.0511554,
          2.3519748
        ]
      },
      "properties": {
        "label": "Edra Melaka Power Plant",
        "type": "power plant",
        "entity": "http://www.wikidata.org/entity/Q116699478",
        "country_qid": "Q833",
        "Wikidata Qid": "Q116699478"
      }
    },
    {
      "type": "Feature",
      "geometry": {
        "type": "Point",
        "coordinates": [
          113.0936922,
          3.2891177
        ]
      },
      "properties": {
        "label": "Bintulu Power Station",
        "type": "power plant",
        "entity": "http://www.wikidata.org/entity/Q116628325",
        "country_qid": "Q833",
        "Wikidata Qid": "Q116628325"
      }
    },
    {
      "type": "Feature",
      "geometry": {
        "type": "Point",
        "coordinates": [
          115.876472222,
          5.131388888
        ]
      },
      "properties": {
        "label": "Tenom Pangi Dam",
        "type": "power plant",
        "entity": "http://www.wikidata.org/entity/Q7700550",
        "country_qid": "Q833",
        "Wikidata Qid": "Q7700550"
      }
    },
    {
      "type": "Feature",
      "geometry": {
        "type": "Point",
        "coordinates": [
          100.3151,
          5.3807
        ]
      },
      "properties": {
        "label": "Gelugor Power Station",
        "type": "power plant",
        "entity": "http://www.wikidata.org/entity/Q11971770",
        "country_qid": "Q833",
        "Wikidata Qid": "Q11971770"
      }
    },
    {
      "type": "Feature",
      "geometry": {
        "type": "Point",
        "coordinates": [
          101.2087892,
          5.4300013
        ]
      },
      "properties": {
        "label": "Bersia hydro power station",
        "type": "power plant",
        "entity": "http://www.wikidata.org/entity/Q84761223",
        "country_qid": "Q833",
        "Wikidata Qid": "Q84761223"
      }
    },
    {
      "type": "Feature",
      "geometry": {
        "type": "Point",
        "coordinates": [
          101.7304373,
          2.5934859
        ]
      },
      "properties": {
        "label": "Jimah East Power Plant",
        "type": "power plant",
        "entity": "http://www.wikidata.org/entity/Q116696059",
        "country_qid": "Q833",
        "Wikidata Qid": "Q116696059"
      }
    },
    {
      "type": "Feature",
      "geometry": {
        "type": "Point",
        "coordinates": [
          114.0562861,
          2.7604862
        ]
      },
      "properties": {
        "label": "Bakun Dam",
        "type": "power plant",
        "entity": "http://www.wikidata.org/entity/Q804548",
        "country_qid": "Q833",
        "Wikidata Qid": "Q804548"
      }
    },
    {
      "type": "Feature",
      "geometry": {
        "type": "Point",
        "coordinates": [
          103.8816274,
          1.4489152
        ]
      },
      "properties": {
        "label": "TNB Pasir Gudang Energy",
        "type": "power plant",
        "entity": "http://www.wikidata.org/entity/Q7636675",
        "country_qid": "Q833",
        "Wikidata Qid": "Q7636675"
      }
    },
    {
      "type": "Feature",
      "geometry": {
        "type": "Point",
        "coordinates": [
          100.1565707,
          6.3405923
        ]
      },
      "properties": {
        "label": "Perlis Power Station",
        "type": "power plant",
        "entity": "http://www.wikidata.org/entity/Q11995345",
        "country_qid": "Q833",
        "Wikidata Qid": "Q11995345"
      }
    },
    {
      "type": "Feature",
      "geometry": {
        "type": "Point",
        "coordinates": [
          100.978,
          4.961
        ]
      },
      "properties": {
        "label": "Chenderoh Power Station",
        "type": "power plant",
        "entity": "http://www.wikidata.org/entity/Q5091159",
        "country_qid": "Q833",
        "Wikidata Qid": "Q5091159"
      }
    },
    {
      "type": "Feature",
      "geometry": {
        "type": "Point",
        "coordinates": [
          101.2118483,
          5.1034526
        ]
      },
      "properties": {
        "label": "Hilir Sungai Piah hydro power station",
        "type": "power plant",
        "entity": "http://www.wikidata.org/entity/Q84761210",
        "country_qid": "Q833",
        "Wikidata Qid": "Q84761210"
      }
    },
    {
      "type": "Feature",
      "geometry": {
        "type": "Point",
        "coordinates": [
          103.8844335,
          1.4446027
        ]
      },
      "properties": {
        "label": "Southern Power Generation",
        "type": "power plant",
        "entity": "http://www.wikidata.org/entity/Q116700169",
        "country_qid": "Q833",
        "Wikidata Qid": "Q116700169"
      }
    },
    {
      "type": "Feature",
      "geometry": {
        "type": "Point",
        "coordinates": [
          102.053888888,
          3.094722222
        ]
      },
      "properties": {
        "label": "Q49627779",
        "type": "power plant",
        "entity": "http://www.wikidata.org/entity/Q49627779",
        "country_qid": "Q833",
        "Wikidata Qid": "Q49627779"
      }
    },
    {
      "type": "Feature",
      "geometry": {
        "type": "Point",
        "coordinates": [
          114.365833333,
          2.646666666
        ]
      },
      "properties": {
        "label": "Murum Dam",
        "type": "power plant",
        "entity": "http://www.wikidata.org/entity/Q6939817",
        "country_qid": "Q833",
        "Wikidata Qid": "Q6939817"
      }
    },
    {
      "type": "Feature",
      "geometry": {
        "type": "Point",
        "coordinates": [
          114.56777778,
          3.38305556
        ]
      },
      "properties": {
        "label": "Baram Dam",
        "type": "power plant",
        "entity": "http://www.wikidata.org/entity/Q4858300",
        "country_qid": "Q833",
        "Wikidata Qid": "Q4858300"
      }
    },
    {
      "type": "Feature",
      "geometry": {
        "type": "Point",
        "coordinates": [
          101.4696,
          3.0433
        ]
      },
      "properties": {
        "label": "Connaught Bridge Power Station",
        "type": "power plant",
        "entity": "http://www.wikidata.org/entity/Q5161321",
        "country_qid": "Q833",
        "Wikidata Qid": "Q5161321"
      }
    },
    {
      "type": "Feature",
      "geometry": {
        "type": "Point",
        "coordinates": [
          115.8897436,
          5.6480703
        ]
      },
      "properties": {
        "label": "Kimanis Power Plant",
        "type": "power plant",
        "entity": "http://www.wikidata.org/entity/Q116727726",
        "country_qid": "Q833",
        "Wikidata Qid": "Q116727726"
      }
    },
    {
      "type": "Feature",
      "geometry": {
        "type": "Point",
        "coordinates": [
          103.5422,
          1.334
        ]
      },
      "properties": {
        "label": "Tanjung Bin Power Station",
        "type": "power plant",
        "entity": "http://www.wikidata.org/entity/Q12005196",
        "country_qid": "Q833",
        "Wikidata Qid": "Q12005196"
      }
    },
    {
      "type": "Feature",
      "geometry": {
        "type": "Point",
        "coordinates": [
          103.448323,
          4.5951042
        ]
      },
      "properties": {
        "label": "Sultan Ismail Power Station",
        "type": "power plant",
        "entity": "http://www.wikidata.org/entity/Q3446052",
        "country_qid": "Q833",
        "Wikidata Qid": "Q3446052"
      }
    },
    {
      "type": "Feature",
      "geometry": {
        "type": "Point",
        "coordinates": [
          101.290217,
          5.0899744
        ]
      },
      "properties": {
        "label": "Hulu Sungai Piah hydro power station",
        "type": "power plant",
        "entity": "http://www.wikidata.org/entity/Q116700379",
        "country_qid": "Q833",
        "Wikidata Qid": "Q116700379"
      }
    },
    {
      "type": "Feature",
      "geometry": {
        "type": "Point",
        "coordinates": [
          102.052,
          2.3479
        ]
      },
      "properties": {
        "label": "Telok Gong Power Station",
        "type": "power plant",
        "entity": "http://www.wikidata.org/entity/Q12005461",
        "country_qid": "Q833",
        "Wikidata Qid": "Q12005461"
      }
    },
    {
      "type": "Feature",
      "geometry": {
        "type": "Point",
        "coordinates": [
          103.4499281,
          4.6019043
        ]
      },
      "properties": {
        "label": "Paka Power Station",
        "type": "power plant",
        "entity": "http://www.wikidata.org/entity/Q11994632",
        "country_qid": "Q833",
        "Wikidata Qid": "Q11994632"
      }
    },
    {
      "type": "Feature",
      "geometry": {
        "type": "Point",
        "coordinates": [
          100.373776,
          5.3752829
        ]
      },
      "properties": {
        "label": "Prai Malakoff Power Station",
        "type": "power plant",
        "entity": "http://www.wikidata.org/entity/Q11996150",
        "country_qid": "Q833",
        "Wikidata Qid": "Q11996150"
      }
    },
    {
      "type": "Feature",
      "geometry": {
        "type": "Point",
        "coordinates": [
          101.798898,
          2.5537328
        ]
      },
      "properties": {
        "label": "Port Dickson Power Plant",
        "type": "power plant",
        "entity": "http://www.wikidata.org/entity/Q19385577",
        "country_qid": "Q833",
        "Wikidata Qid": "Q19385577"
      }
    },
    {
      "type": "Feature",
      "geometry": {
        "type": "Point",
        "coordinates": [
          101.6852017,
          2.9658807
        ]
      },
      "properties": {
        "label": "Putrajaya Power Station",
        "type": "power plant",
        "entity": "http://www.wikidata.org/entity/Q7262416",
        "country_qid": "Q833",
        "Wikidata Qid": "Q7262416"
      }
    },
    {
      "type": "Feature",
      "geometry": {
        "type": "Point",
        "coordinates": [
          116.163184,
          6.0918564
        ]
      },
      "properties": {
        "label": "Teluk Salut Power Plant",
        "type": "power plant",
        "entity": "http://www.wikidata.org/entity/Q116727595",
        "country_qid": "Q833",
        "Wikidata Qid": "Q116727595"
      }
    },
    {
      "type": "Feature",
      "geometry": {
        "type": "Point",
        "coordinates": [
          101.703055555,
          5.625
        ]
      },
      "properties": {
        "label": "Pergau Dam",
        "type": "power plant",
        "entity": "http://www.wikidata.org/entity/Q3445771",
        "country_qid": "Q833",
        "Wikidata Qid": "Q3445771"
      }
    },
    {
      "type": "Feature",
      "geometry": {
        "type": "Point",
        "coordinates": [
          104.1743481,
          1.3764416
        ]
      },
      "properties": {
        "label": "Pengerang Cogeneration Power Plant",
        "type": "power plant",
        "entity": "http://www.wikidata.org/entity/Q116700335",
        "country_qid": "Q833",
        "Wikidata Qid": "Q116700335"
      }
    },
    {
      "type": "Feature",
      "geometry": {
        "type": "Point",
        "coordinates": [
          101.6493273,
          2.7976119
        ]
      },
      "properties": {
        "label": "Kuala Langat Power Plant",
        "type": "power plant",
        "entity": "http://www.wikidata.org/entity/Q19378322",
        "country_qid": "Q833",
        "Wikidata Qid": "Q19378322"
      }
    },
    {
      "type": "Feature",
      "geometry": {
        "type": "Point",
        "coordinates": [
          100.3749695,
          5.3745112
        ]
      },
      "properties": {
        "label": "Prai TNB Power Station",
        "type": "power plant",
        "entity": "http://www.wikidata.org/entity/Q116699292",
        "country_qid": "Q833",
        "Wikidata Qid": "Q116699292"
      }
    },
    {
      "type": "Feature",
      "geometry": {
        "type": "Point",
        "coordinates": [
          116.166113,
          6.0933713
        ]
      },
      "properties": {
        "label": "Rugading Power Plant",
        "type": "power plant",
        "entity": "http://www.wikidata.org/entity/Q116727603",
        "country_qid": "Q833",
        "Wikidata Qid": "Q116727603"
      }
    },
    {
      "type": "Feature",
      "geometry": {
        "type": "Point",
        "coordinates": [
          100.6006157,
          5.4314846
        ]
      },
      "properties": {
        "label": "NUR Power",
        "type": "power plant",
        "entity": "http://www.wikidata.org/entity/Q19378333",
        "country_qid": "Q833",
        "Wikidata Qid": "Q19378333"
      }
    },
    {
      "type": "Feature",
      "geometry": {
        "type": "Point",
        "coordinates": [
          101.301111111,
          5.406666666
        ]
      },
      "properties": {
        "label": "Temenggor Dam",
        "type": "power plant",
        "entity": "http://www.wikidata.org/entity/Q7331841",
        "country_qid": "Q833",
        "Wikidata Qid": "Q7331841"
      }
    },
    {
      "type": "Feature",
      "geometry": {
        "type": "Point",
        "coordinates": [
          115.2412739,
          5.2490822
        ]
      },
      "properties": {
        "label": "Patau-Patau Power Plant",
        "type": "power plant",
        "entity": "http://www.wikidata.org/entity/Q116727816",
        "country_qid": "Q833",
        "Wikidata Qid": "Q116727816"
      }
    },
    {
      "type": "Feature",
      "geometry": {
        "type": "Point",
        "coordinates": [
          100.64292,
          4.163069
        ]
      },
      "properties": {
        "label": "Manjung Power Station",
        "type": "power plant",
        "entity": "http://www.wikidata.org/entity/Q19380991",
        "country_qid": "Q833",
        "Wikidata Qid": "Q19380991"
      }
    },
    {
      "type": "Feature",
      "geometry": {
        "type": "Point",
        "coordinates": [
          103.8801989,
          1.4505622
        ]
      },
      "properties": {
        "label": "YTL Power Pasir Gudang Power Station",
        "type": "power plant",
        "entity": "http://www.wikidata.org/entity/Q11994834",
        "country_qid": "Q833",
        "Wikidata Qid": "Q11994834"
      }
    },
    {
      "type": "Feature",
      "geometry": {
        "type": "Point",
        "coordinates": [
          114.0184575,
          4.4209859
        ]
      },
      "properties": {
        "label": "Miri Power Station",
        "type": "power plant",
        "entity": "http://www.wikidata.org/entity/Q116658188",
        "country_qid": "Q833",
        "Wikidata Qid": "Q116658188"
      }
    },
    {
      "type": "Feature",
      "geometry": {
        "type": "Point",
        "coordinates": [
          111.873888888,
          1.147222222
        ]
      },
      "properties": {
        "label": "Batang Ai Dam",
        "type": "power plant",
        "entity": "http://www.wikidata.org/entity/Q4868579",
        "country_qid": "Q833",
        "Wikidata Qid": "Q4868579"
      }
    },
    {
      "type": "Feature",
      "geometry": {
        "type": "Point",
        "coordinates": [
          113.7706374,
          1.8024905
        ]
      },
      "properties": {
        "label": "Baleh Dam",
        "type": "power plant",
        "entity": "http://www.wikidata.org/entity/Q84761195",
        "country_qid": "Q833",
        "Wikidata Qid": "Q84761195"
      }
    },
    {
      "type": "Feature",
      "geometry": {
        "type": "Point",
        "coordinates": [
          112.3234,
          2.969
        ]
      },
      "properties": {
        "label": "Mukah Power Station",
        "type": "power plant",
        "entity": "http://www.wikidata.org/entity/Q116654839",
        "country_qid": "Q833",
        "Wikidata Qid": "Q116654839"
      }
    },
    {
      "type": "Feature",
      "geometry": {
        "type": "Point",
        "coordinates": [
          102.603694444,
          5.149361111
        ]
      },
      "properties": {
        "label": "Hulu Terengganu Hydroelectric Project",
        "type": "power plant",
        "entity": "http://www.wikidata.org/entity/Q5936378",
        "country_qid": "Q833",
        "Wikidata Qid": "Q5936378"
      }
    },
    {
      "type": "Feature",
      "geometry": {
        "type": "Point",
        "coordinates": [
          116.1664939,
          6.0916431
        ]
      },
      "properties": {
        "label": "Sepanggar Bay Power Plant",
        "type": "power plant",
        "entity": "http://www.wikidata.org/entity/Q116727607",
        "country_qid": "Q833",
        "Wikidata Qid": "Q116727607"
      }
    },
    {
      "type": "Feature",
      "geometry": {
        "type": "Point",
        "coordinates": [
          100.841111111,
          5.891111111
        ]
      },
      "properties": {
        "label": "Q49627708",
        "type": "power plant",
        "entity": "http://www.wikidata.org/entity/Q49627708",
        "country_qid": "Q833",
        "Wikidata Qid": "Q49627708"
      }
    },
    {
      "type": "Feature",
      "geometry": {
        "type": "Point",
        "coordinates": [
          101.791,
          2.533
        ]
      },
      "properties": {
        "label": "Tuanku Jaafar Power Station",
        "type": "power plant",
        "entity": "http://www.wikidata.org/entity/Q7850639",
        "country_qid": "Q833",
        "Wikidata Qid": "Q7850639"
      }
    },
    {
      "type": "Feature",
      "geometry": {
        "type": "Point",
        "coordinates": [
          101.7243433,
          2.5923391
        ]
      },
      "properties": {
        "label": "Jimah Power Plant",
        "type": "power plant",
        "entity": "http://www.wikidata.org/entity/Q11978589",
        "country_qid": "Q833",
        "Wikidata Qid": "Q11978589"
      }
    },
    {
      "type": "Feature",
      "geometry": {
        "type": "Point",
        "coordinates": [
          112.47461,
          2.7375301
        ]
      },
      "properties": {
        "label": "Balingian Power Station",
        "type": "power plant",
        "entity": "http://www.wikidata.org/entity/Q116628728",
        "country_qid": "Q833",
        "Wikidata Qid": "Q116628728"
      }
    },
    {
      "type": "Feature",
      "geometry": {
        "type": "Point",
        "coordinates": [
          101.664,
          3.1169
        ]
      },
      "properties": {
        "label": "Kerinchi Pylon",
        "type": "Transmission tower (pylon)",
        "entity": "http://www.wikidata.org/entity/Q6393909",
        "country_qid": "Q833",
        "Wikidata Qid": "Q6393909"
      }
    },
    {
      "type": "Feature",
      "geometry": {
        "type": "Point",
        "coordinates": [
          102.316,
          2.35511
        ]
      },
      "properties": {
        "label": "Durian Tunggal Reservoir",
        "type": "Reservoir",
        "entity": "http://www.wikidata.org/entity/Q19458243",
        "country_qid": "Q833",
        "Wikidata Qid": "Q19458243"
      }
    },
    {
      "type": "Feature",
      "geometry": {
        "type": "Point",
        "coordinates": [
          103.684222222,
          2.579944444
        ]
      },
      "properties": {
        "label": "Labong Lake",
        "type": "Reservoir",
        "entity": "http://www.wikidata.org/entity/Q96225326",
        "country_qid": "Q833",
        "Wikidata Qid": "Q96225326"
      }
    },
    {
      "type": "Feature",
      "geometry": {
        "type": "Point",
        "coordinates": [
          100.2177,
          6.5652
        ]
      },
      "properties": {
        "label": "Timah Tasoh Dam",
        "type": "Reservoir",
        "entity": "http://www.wikidata.org/entity/Q12686069",
        "country_qid": "Q833",
        "Wikidata Qid": "Q12686069"
      }
    },
    {
      "type": "Feature",
      "geometry": {
        "type": "Point",
        "coordinates": [
          102.8,
          5.0
        ]
      },
      "properties": {
        "label": "Kenyir Lake",
        "type": "Reservoir",
        "entity": "http://www.wikidata.org/entity/Q1420437",
        "country_qid": "Q833",
        "Wikidata Qid": "Q1420437"
      }
    },
    {
      "type": "Feature",
      "geometry": {
        "type": "Point",
        "coordinates": [
          103.91,
          1.55611
        ]
      },
      "properties": {
        "label": "Sultan Iskandar Reservoir",
        "type": "Reservoir",
        "entity": "http://www.wikidata.org/entity/Q303881",
        "country_qid": "Q833",
        "Wikidata Qid": "Q303881"
      }
    },
    {
      "type": "Feature",
      "geometry": {
        "type": "Point",
        "coordinates": [
          102.384,
          2.44053
        ]
      },
      "properties": {
        "label": "Jus Reservoir",
        "type": "Reservoir",
        "entity": "http://www.wikidata.org/entity/Q12686071",
        "country_qid": "Q833",
        "Wikidata Qid": "Q12686071"
      }
    },
    {
      "type": "Feature",
      "geometry": {
        "type": "Point",
        "coordinates": [
          101.56815,
          3.18399
        ]
      },
      "properties": {
        "label": "Sungai Buloh Depot",
        "type": "Industrial building",
        "entity": "http://www.wikidata.org/entity/Q24088767",
        "country_qid": "Q833",
        "Wikidata Qid": "Q24088767"
      }
    },
    {
      "type": "Feature",
      "geometry": {
        "type": "Point",
        "coordinates": [
          101.4655,
          2.9758
        ]
      },
      "properties": {
        "label": "Johan Setia Depot",
        "type": "Industrial building",
        "entity": "http://www.wikidata.org/entity/Q123238135",
        "country_qid": "Q833",
        "Wikidata Qid": "Q123238135"
      }
    },
    {
      "type": "Feature",
      "geometry": {
        "type": "Point",
        "coordinates": [
          101.6918,
          2.9987
        ]
      },
      "properties": {
        "label": "Serdang Depot",
        "type": "Industrial building",
        "entity": "http://www.wikidata.org/entity/Q24884636",
        "country_qid": "Q833",
        "Wikidata Qid": "Q24884636"
      }
    },
    {
      "type": "Feature",
      "geometry": {
        "type": "Point",
        "coordinates": [
          103.261916666,
          1.881361111
        ]
      },
      "properties": {
        "label": "Aw Pottery Studio",
        "type": "Industrial building",
        "entity": "http://www.wikidata.org/entity/Q105397684",
        "country_qid": "Q833",
        "Wikidata Qid": "Q105397684"
      }
    },
    {
      "type": "Feature",
      "geometry": {
        "type": "Point",
        "coordinates": [
          101.5579,
          3.3548
        ]
      },
      "properties": {
        "label": "Tan Chong Motor Assemblies Rawang",
        "type": "Industrial building",
        "entity": "http://www.wikidata.org/entity/Q110029653",
        "country_qid": "Q833",
        "Wikidata Qid": "Q110029653"
      }
    },
    {
      "type": "Feature",
      "geometry": {
        "type": "Point",
        "coordinates": [
          103.024971,
          5.068867
        ]
      },
      "properties": {
        "label": "Kuala Berang Fire and Rescue Station",
        "type": "Industrial building",
        "entity": "http://www.wikidata.org/entity/Q134893450",
        "country_qid": "Q833",
        "Wikidata Qid": "Q134893450"
      }
    },
    {
      "type": "Feature",
      "geometry": {
        "type": "Point",
        "coordinates": [
          103.848222222,
          1.809722222
        ]
      },
      "properties": {
        "label": "Minyue Pottery",
        "type": "Industrial building",
        "entity": "http://www.wikidata.org/entity/Q105101585",
        "country_qid": "Q833",
        "Wikidata Qid": "Q105101585"
      }
    },
    {
      "type": "Feature",
      "geometry": {
        "type": "Point",
        "coordinates": [
          102.24775,
          2.19380556
        ]
      },
      "properties": {
        "label": "Melaka Sultanate Watermill",
        "type": "Industrial building",
        "entity": "http://www.wikidata.org/entity/Q20716030",
        "country_qid": "Q833",
        "Wikidata Qid": "Q20716030"
      }
    },
    {
      "type": "Feature",
      "geometry": {
        "type": "Point",
        "coordinates": [
          103.6370128,
          1.4083774
        ]
      },
      "properties": {
        "label": "Iskandar Malaysia Studios",
        "type": "Industrial building",
        "entity": "http://www.wikidata.org/entity/Q7195598",
        "country_qid": "Q833",
        "Wikidata Qid": "Q7195598"
      }
    },
    {
      "type": "Feature",
      "geometry": {
        "type": "Point",
        "coordinates": [
          101.67318,
          3.18422
        ]
      },
      "properties": {
        "label": "Tan Chong Motor Assemblies Segambut",
        "type": "Industrial building",
        "entity": "http://www.wikidata.org/entity/Q110029620",
        "country_qid": "Q833",
        "Wikidata Qid": "Q110029620"
      }
    },
    {
      "type": "Feature",
      "geometry": {
        "type": "Point",
        "coordinates": [
          100.535,
          5.8125
        ]
      },
      "properties": {
        "label": "Gurun Inverter Station",
        "type": "Industrial building",
        "entity": "http://www.wikidata.org/entity/Q122872933",
        "country_qid": "Q833",
        "Wikidata Qid": "Q122872933"
      }
    },
    {
      "type": "Feature",
      "geometry": {
        "type": "Point",
        "coordinates": [
          102.668055555,
          2.028611111
        ]
      },
      "properties": {
        "label": "Q49460303",
        "type": "Mine",
        "entity": "http://www.wikidata.org/entity/Q49460303",
        "country_qid": "Q833",
        "Wikidata Qid": "Q49460303"
      }
    },
    {
      "type": "Feature",
      "geometry": {
        "type": "Point",
        "coordinates": [
          103.846388888,
          1.513333333
        ]
      },
      "properties": {
        "label": "Q49460313",
        "type": "Mine",
        "entity": "http://www.wikidata.org/entity/Q49460313",
        "country_qid": "Q833",
        "Wikidata Qid": "Q49460313"
      }
    },
    {
      "type": "Feature",
      "geometry": {
        "type": "Point",
        "coordinates": [
          103.4075,
          3.978888888
        ]
      },
      "properties": {
        "label": "Q49460307",
        "type": "Mine",
        "entity": "http://www.wikidata.org/entity/Q49460307",
        "country_qid": "Q833",
        "Wikidata Qid": "Q49460307"
      }
    },
    {
      "type": "Feature",
      "geometry": {
        "type": "Point",
        "coordinates": [
          102.670277777,
          2.025
        ]
      },
      "properties": {
        "label": "Q49460299",
        "type": "Mine",
        "entity": "http://www.wikidata.org/entity/Q49460299",
        "country_qid": "Q833",
        "Wikidata Qid": "Q49460299"
      }
    },
    {
      "type": "Feature",
      "geometry": {
        "type": "Point",
        "coordinates": [
          101.573611111,
          3.623611111
        ]
      },
      "properties": {
        "label": "Q49460275",
        "type": "Mine",
        "entity": "http://www.wikidata.org/entity/Q49460275",
        "country_qid": "Q833",
        "Wikidata Qid": "Q49460275"
      }
    },
    {
      "type": "Feature",
      "geometry": {
        "type": "Point",
        "coordinates": [
          103.574444444,
          1.637777777
        ]
      },
      "properties": {
        "label": "Q49460244",
        "type": "Mine",
        "entity": "http://www.wikidata.org/entity/Q49460244",
        "country_qid": "Q833",
        "Wikidata Qid": "Q49460244"
      }
    },
    {
      "type": "Feature",
      "geometry": {
        "type": "Point",
        "coordinates": [
          102.069722222,
          2.354722222
        ]
      },
      "properties": {
        "label": "Q49460295",
        "type": "Mine",
        "entity": "http://www.wikidata.org/entity/Q49460295",
        "country_qid": "Q833",
        "Wikidata Qid": "Q49460295"
      }
    },
    {
      "type": "Feature",
      "geometry": {
        "type": "Point",
        "coordinates": [
          101.842222222,
          2.985277777
        ]
      },
      "properties": {
        "label": "Q49460287",
        "type": "Mine",
        "entity": "http://www.wikidata.org/entity/Q49460287",
        "country_qid": "Q833",
        "Wikidata Qid": "Q49460287"
      }
    },
    {
      "type": "Feature",
      "geometry": {
        "type": "Point",
        "coordinates": [
          101.783888888,
          3.152777777
        ]
      },
      "properties": {
        "label": "Q49460382",
        "type": "Mine",
        "entity": "http://www.wikidata.org/entity/Q49460382",
        "country_qid": "Q833",
        "Wikidata Qid": "Q49460382"
      }
    },
    {
      "type": "Feature",
      "geometry": {
        "type": "Point",
        "coordinates": [
          103.413333333,
          1.887777777
        ]
      },
      "properties": {
        "label": "Q49427310",
        "type": "Mine",
        "entity": "http://www.wikidata.org/entity/Q49427310",
        "country_qid": "Q833",
        "Wikidata Qid": "Q49427310"
      }
    },
    {
      "type": "Feature",
      "geometry": {
        "type": "Point",
        "coordinates": [
          101.908333333,
          2.754722222
        ]
      },
      "properties": {
        "label": "Q49460363",
        "type": "Mine",
        "entity": "http://www.wikidata.org/entity/Q49460363",
        "country_qid": "Q833",
        "Wikidata Qid": "Q49460363"
      }
    },
    {
      "type": "Feature",
      "geometry": {
        "type": "Point",
        "coordinates": [
          103.585,
          1.64
        ]
      },
      "properties": {
        "label": "Q49460379",
        "type": "Mine",
        "entity": "http://www.wikidata.org/entity/Q49460379",
        "country_qid": "Q833",
        "Wikidata Qid": "Q49460379"
      }
    },
    {
      "type": "Feature",
      "geometry": {
        "type": "Point",
        "coordinates": [
          100.630555555,
          4.195555555
        ]
      },
      "properties": {
        "label": "Q49460283",
        "type": "Mine",
        "entity": "http://www.wikidata.org/entity/Q49460283",
        "country_qid": "Q833",
        "Wikidata Qid": "Q49460283"
      }
    },
    {
      "type": "Feature",
      "geometry": {
        "type": "Point",
        "coordinates": [
          102.541944444,
          2.314722222
        ]
      },
      "properties": {
        "label": "Q49460338",
        "type": "Mine",
        "entity": "http://www.wikidata.org/entity/Q49460338",
        "country_qid": "Q833",
        "Wikidata Qid": "Q49460338"
      }
    },
    {
      "type": "Feature",
      "geometry": {
        "type": "Point",
        "coordinates": [
          101.043611111,
          4.616666666
        ]
      },
      "properties": {
        "label": "Q49460161",
        "type": "Mine",
        "entity": "http://www.wikidata.org/entity/Q49460161",
        "country_qid": "Q833",
        "Wikidata Qid": "Q49460161"
      }
    },
    {
      "type": "Feature",
      "geometry": {
        "type": "Point",
        "coordinates": [
          100.615833333,
          5.299444444
        ]
      },
      "properties": {
        "label": "Q49422801",
        "type": "Mine",
        "entity": "http://www.wikidata.org/entity/Q49422801",
        "country_qid": "Q833",
        "Wikidata Qid": "Q49422801"
      }
    },
    {
      "type": "Feature",
      "geometry": {
        "type": "Point",
        "coordinates": [
          102.255277777,
          2.360833333
        ]
      },
      "properties": {
        "label": "Q49460279",
        "type": "Mine",
        "entity": "http://www.wikidata.org/entity/Q49460279",
        "country_qid": "Q833",
        "Wikidata Qid": "Q49460279"
      }
    },
    {
      "type": "Feature",
      "geometry": {
        "type": "Point",
        "coordinates": [
          103.433333333,
          1.913055555
        ]
      },
      "properties": {
        "label": "Q49460277",
        "type": "Mine",
        "entity": "http://www.wikidata.org/entity/Q49460277",
        "country_qid": "Q833",
        "Wikidata Qid": "Q49460277"
      }
    },
    {
      "type": "Feature",
      "geometry": {
        "type": "Point",
        "coordinates": [
          103.173888888,
          5.223888888
        ]
      },
      "properties": {
        "label": "Q49460438",
        "type": "Mine",
        "entity": "http://www.wikidata.org/entity/Q49460438",
        "country_qid": "Q833",
        "Wikidata Qid": "Q49460438"
      }
    },
    {
      "type": "Feature",
      "geometry": {
        "type": "Point",
        "coordinates": [
          103.843611111,
          1.513055555
        ]
      },
      "properties": {
        "label": "Q49460255",
        "type": "Mine",
        "entity": "http://www.wikidata.org/entity/Q49460255",
        "country_qid": "Q833",
        "Wikidata Qid": "Q49460255"
      }
    },
    {
      "type": "Feature",
      "geometry": {
        "type": "Point",
        "coordinates": [
          116.65575,
          6.026531
        ]
      },
      "properties": {
        "label": "Mamut Mine",
        "type": "Mine",
        "entity": "http://www.wikidata.org/entity/Q14547021",
        "country_qid": "Q833",
        "Wikidata Qid": "Q14547021"
      }
    },
    {
      "type": "Feature",
      "geometry": {
        "type": "Point",
        "coordinates": [
          101.927777777,
          3.836388888
        ]
      },
      "properties": {
        "label": "Q49460289",
        "type": "Mine",
        "entity": "http://www.wikidata.org/entity/Q49460289",
        "country_qid": "Q833",
        "Wikidata Qid": "Q49460289"
      }
    },
    {
      "type": "Feature",
      "geometry": {
        "type": "Point",
        "coordinates": [
          101.088888888,
          4.630833333
        ]
      },
      "properties": {
        "label": "Q49460201",
        "type": "Mine",
        "entity": "http://www.wikidata.org/entity/Q49460201",
        "country_qid": "Q833",
        "Wikidata Qid": "Q49460201"
      }
    },
    {
      "type": "Feature",
      "geometry": {
        "type": "Point",
        "coordinates": [
          102.133333333,
          4.897777777
        ]
      },
      "properties": {
        "label": "Q49427303",
        "type": "Mine",
        "entity": "http://www.wikidata.org/entity/Q49427303",
        "country_qid": "Q833",
        "Wikidata Qid": "Q49427303"
      }
    },
    {
      "type": "Feature",
      "geometry": {
        "type": "Point",
        "coordinates": [
          102.695277777,
          2.0225
        ]
      },
      "properties": {
        "label": "Q49460301",
        "type": "Mine",
        "entity": "http://www.wikidata.org/entity/Q49460301",
        "country_qid": "Q833",
        "Wikidata Qid": "Q49460301"
      }
    },
    {
      "type": "Feature",
      "geometry": {
        "type": "Point",
        "coordinates": [
          103.458611111,
          1.725555555
        ]
      },
      "properties": {
        "label": "Q49460327",
        "type": "Mine",
        "entity": "http://www.wikidata.org/entity/Q49460327",
        "country_qid": "Q833",
        "Wikidata Qid": "Q49460327"
      }
    },
    {
      "type": "Feature",
      "geometry": {
        "type": "Point",
        "coordinates": [
          102.646944444,
          2.028611111
        ]
      },
      "properties": {
        "label": "Q49460297",
        "type": "Mine",
        "entity": "http://www.wikidata.org/entity/Q49460297",
        "country_qid": "Q833",
        "Wikidata Qid": "Q49460297"
      }
    },
    {
      "type": "Feature",
      "geometry": {
        "type": "Point",
        "coordinates": [
          101.911388888,
          4.867777777
        ]
      },
      "properties": {
        "label": "Q49422784",
        "type": "Mine",
        "entity": "http://www.wikidata.org/entity/Q49422784",
        "country_qid": "Q833",
        "Wikidata Qid": "Q49422784"
      }
    },
    {
      "type": "Feature",
      "geometry": {
        "type": "Point",
        "coordinates": [
          101.941111111,
          3.8325
        ]
      },
      "properties": {
        "label": "Q49460285",
        "type": "Mine",
        "entity": "http://www.wikidata.org/entity/Q49460285",
        "country_qid": "Q833",
        "Wikidata Qid": "Q49460285"
      }
    },
    {
      "type": "Feature",
      "geometry": {
        "type": "Point",
        "coordinates": [
          103.887777777,
          1.522222222
        ]
      },
      "properties": {
        "label": "Q49460316",
        "type": "Mine",
        "entity": "http://www.wikidata.org/entity/Q49460316",
        "country_qid": "Q833",
        "Wikidata Qid": "Q49460316"
      }
    },
    {
      "type": "Feature",
      "geometry": {
        "type": "Point",
        "coordinates": [
          103.596611111,
          1.431777777
        ]
      },
      "properties": {
        "label": "Nusajaya Tech Park",
        "type": "Industrial park",
        "entity": "http://www.wikidata.org/entity/Q120081354",
        "country_qid": "Q833",
        "Wikidata Qid": "Q120081354"
      }
    }
  ]
}