{
  "type": "FeatureCollection",
  "features": [
    {
      "type": "Feature",
      "geometry": {
        "type": "Point",
        "coordinates": [
          57.627305555,
          -20.472833333
        ]
      },
      "properties": {
        "label": "Q56374165",
        "type": "power plant",
        "entity": "http://www.wikidata.org/entity/Q56374165",
        "country_qid": "Q1027"
      }
    },
    {
      "type": "Feature",
      "geometry": {
        "type": "Point",
        "coordinates": [
          57.476777777,
          -20.163388888
        ]
      },
      "properties": {
        "label": "Q56374164",
        "type": "power plant",
        "entity": "http://www.wikidata.org/entity/Q56374164",
        "country_qid": "Q1027"
      }
    },
    {
      "type": "Feature",
      "geometry": {
        "type": "Point",
        "coordinates": [
          57.479194444,
          -20.177805555
        ]
      },
      "properties": {
        "label": "Q56374162",
        "type": "power plant",
        "entity": "http://www.wikidata.org/entity/Q56374162",
        "country_qid": "Q1027"
      }
    },
    {
      "type": "Feature",
      "geometry": {
        "type": "Point",
        "coordinates": [
          57.492805555,
          -20.14575
        ]
      },
      "properties": {
        "label": "Q56374163",
        "type": "power plant",
        "entity": "http://www.wikidata.org/entity/Q56374163",
        "country_qid": "Q1027"
      }
    },
    {
      "type": "Feature",
      "geometry": {
        "type": "Point",
        "coordinates": [
          57.690027777,
          -20.316861111
        ]
      },
      "properties": {
        "label": "Q56374166",
        "type": "power plant",
        "entity": "http://www.wikidata.org/entity/Q56374166",
        "country_qid": "Q1027"
      }
    },
    {
      "type": "Feature",
      "geometry": {
        "type": "Point",
        "coordinates": [
          57.43004,
          -20.25559
        ]
      },
      "properties": {
        "label": "La Ferme Reservoir",
        "type": "Reservoir",
        "entity": "http://www.wikidata.org/entity/Q34897072",
        "country_qid": "Q1027"
      }
    },
    {
      "type": "Feature",
      "geometry": {
        "type": "Point",
        "coordinates": [
          57.46146,
          -20.37891
        ]
      },
      "properties": {
        "label": "Mare Longue Reservoir",
        "type": "Reservoir",
        "entity": "http://www.wikidata.org/entity/Q34905830",
        "country_qid": "Q1027"
      }
    },
    {
      "type": "Feature",
      "geometry": {
        "type": "Point",
        "coordinates": [
          57.59136,
          -20.32447
        ]
      },
      "properties": {
        "label": "Q31871114",
        "type": "Hydraulic structure",
        "entity": "http://www.wikidata.org/entity/Q31871114",
        "country_qid": "Q1027"
      }
    },
    {
      "type": "Feature",
      "geometry": {
        "type": "Point",
        "coordinates": [
          57.445555555,
          -20.330277777
        ]
      },
      "properties": {
        "label": "Magenta Dam",
        "type": "Hydraulic structure",
        "entity": "http://www.wikidata.org/entity/Q27764369",
        "country_qid": "Q1027"
      }
    },
    {
      "type": "Feature",
      "geometry": {
        "type": "Point",
        "coordinates": [
          57.643055555,
          -20.110555555
        ]
      },
      "properties": {
        "label": "Bois Rouge Canal",
        "type": "Hydraulic structure",
        "entity": "http://www.wikidata.org/entity/Q27763579",
        "country_qid": "Q1027"
      }
    },
    {
      "type": "Feature",
      "geometry": {
        "type": "Point",
        "coordinates": [
          57.527222222,
          -20.118055555
        ]
      },
      "properties": {
        "label": "Bethurst Canal",
        "type": "Hydraulic structure",
        "entity": "http://www.wikidata.org/entity/Q27764488",
        "country_qid": "Q1027"
      }
    },
    {
      "type": "Feature",
      "geometry": {
        "type": "Point",
        "coordinates": [
          63.416666666,
          -19.683333333
        ]
      },
      "properties": {
        "label": "Port Mathurin",
        "type": "Hydraulic structure",
        "entity": "http://www.wikidata.org/entity/Q111387344",
        "country_qid": "Q1027"
      }
    },
    {
      "type": "Feature",
      "geometry": {
        "type": "Point",
        "coordinates": [
          57.616666666,
          -20.133333333
        ]
      },
      "properties": {
        "label": "Villebague Canal",
        "type": "Hydraulic structure",
        "entity": "http://www.wikidata.org/entity/Q27759756",
        "country_qid": "Q1027"
      }
    },
    {
      "type": "Feature",
      "geometry": {
        "type": "Point",
        "coordinates": [
          57.49831,
          -20.16139
        ]
      },
      "properties": {
        "label": "Caudan Waterfront",
        "type": "Hydraulic structure",
        "entity": "http://www.wikidata.org/entity/Q2943077",
        "country_qid": "Q1027"
      }
    },
    {
      "type": "Feature",
      "geometry": {
        "type": "Point",
        "coordinates": [
          57.5,
          -20.15
        ]
      },
      "properties": {
        "label": "Port Louis",
        "type": "Hydraulic structure",
        "entity": "http://www.wikidata.org/entity/Q111387343",
        "country_qid": "Q1027"
      }
    },
    {
      "type": "Feature",
      "geometry": {
        "type": "Point",
        "coordinates": [
          57.471388888,
          -20.166944444
        ]
      },
      "properties": {
        "label": "Dyot Canal",
        "type": "Hydraulic structure",
        "entity": "http://www.wikidata.org/entity/Q27763643",
        "country_qid": "Q1027"
      }
    },
    {
      "type": "Feature",
      "geometry": {
        "type": "Point",
        "coordinates": [
          57.501172222,
          -20.159705555
        ]
      },
      "properties": {
        "label": "Windmill",
        "type": "Industrial building",
        "entity": "http://www.wikidata.org/entity/Q130435662",
        "country_qid": "Q1027"
      }
    }
  ]
}