{
  "type": "FeatureCollection",
  "features": [
    {
      "type": "Feature",
      "geometry": {
        "type": "Point",
        "coordinates": [
          56.638974,
          24.4653944
        ]
      },
      "properties": {
        "label": "Sohar III Power Plant",
        "type": "power plant",
        "entity": "http://www.wikidata.org/entity/Q114358961",
        "country_qid": "Q842",
        "Wikidata Qid": "Q114358961"
      }
    },
    {
      "type": "Feature",
      "geometry": {
        "type": "Point",
        "coordinates": [
          57.9842707,
          23.7076948
        ]
      },
      "properties": {
        "label": "Barka I integrated water and power plant",
        "type": "power plant",
        "entity": "http://www.wikidata.org/entity/Q11956637",
        "country_qid": "Q842",
        "Wikidata Qid": "Q11956637"
      }
    },
    {
      "type": "Feature",
      "geometry": {
        "type": "Point",
        "coordinates": [
          57.098055555,
          21.297222222
        ]
      },
      "properties": {
        "label": "Q97177476",
        "type": "power plant",
        "entity": "http://www.wikidata.org/entity/Q97177476",
        "country_qid": "Q842",
        "Wikidata Qid": "Q97177476"
      }
    },
    {
      "type": "Feature",
      "geometry": {
        "type": "Point",
        "coordinates": [
          56.461111111,
          19.342222222
        ]
      },
      "properties": {
        "label": "Q97177494",
        "type": "power plant",
        "entity": "http://www.wikidata.org/entity/Q97177494",
        "country_qid": "Q842",
        "Wikidata Qid": "Q97177494"
      }
    },
    {
      "type": "Feature",
      "geometry": {
        "type": "Point",
        "coordinates": [
          58.411389,
          23.603333
        ]
      },
      "properties": {
        "label": "Q97177418",
        "type": "power plant",
        "entity": "http://www.wikidata.org/entity/Q97177418",
        "country_qid": "Q842",
        "Wikidata Qid": "Q97177418"
      }
    },
    {
      "type": "Feature",
      "geometry": {
        "type": "Point",
        "coordinates": [
          56.633333333,
          24.472222222
        ]
      },
      "properties": {
        "label": "Sohar I integrated water and power plant",
        "type": "power plant",
        "entity": "http://www.wikidata.org/entity/Q12001754",
        "country_qid": "Q842",
        "Wikidata Qid": "Q12001754"
      }
    },
    {
      "type": "Feature",
      "geometry": {
        "type": "Point",
        "coordinates": [
          57.578055555,
          22.706944444
        ]
      },
      "properties": {
        "label": "Manah Power Plant",
        "type": "power plant",
        "entity": "http://www.wikidata.org/entity/Q97305547",
        "country_qid": "Q842",
        "Wikidata Qid": "Q97305547"
      }
    },
    {
      "type": "Feature",
      "geometry": {
        "type": "Point",
        "coordinates": [
          59.416388888,
          22.655555555
        ]
      },
      "properties": {
        "label": "Sur Power Plant",
        "type": "power plant",
        "entity": "http://www.wikidata.org/entity/Q97305549",
        "country_qid": "Q842",
        "Wikidata Qid": "Q97305549"
      }
    },
    {
      "type": "Feature",
      "geometry": {
        "type": "Point",
        "coordinates": [
          57.9767769,
          23.7075279
        ]
      },
      "properties": {
        "label": "Barka III Power Plant",
        "type": "power plant",
        "entity": "http://www.wikidata.org/entity/Q114358928",
        "country_qid": "Q842",
        "Wikidata Qid": "Q114358928"
      }
    },
    {
      "type": "Feature",
      "geometry": {
        "type": "Point",
        "coordinates": [
          58.199075,
          23.5543032
        ]
      },
      "properties": {
        "label": "Al Rusail Power Plant",
        "type": "power plant",
        "entity": "http://www.wikidata.org/entity/Q11998681",
        "country_qid": "Q842",
        "Wikidata Qid": "Q11998681"
      }
    },
    {
      "type": "Feature",
      "geometry": {
        "type": "Point",
        "coordinates": [
          56.282222222,
          23.365
        ]
      },
      "properties": {
        "label": "Ibri Power Plant",
        "type": "power plant",
        "entity": "http://www.wikidata.org/entity/Q97177395",
        "country_qid": "Q842",
        "Wikidata Qid": "Q97177395"
      }
    },
    {
      "type": "Feature",
      "geometry": {
        "type": "Point",
        "coordinates": [
          59.069722222,
          22.39
        ]
      },
      "properties": {
        "label": "Al Kamil Power Plant",
        "type": "power plant",
        "entity": "http://www.wikidata.org/entity/Q97305545",
        "country_qid": "Q842",
        "Wikidata Qid": "Q97305545"
      }
    },
    {
      "type": "Feature",
      "geometry": {
        "type": "Point",
        "coordinates": [
          56.0891175,
          26.0561211
        ]
      },
      "properties": {
        "label": "Musandam Power Plant",
        "type": "power plant",
        "entity": "http://www.wikidata.org/entity/Q97177484",
        "country_qid": "Q842",
        "Wikidata Qid": "Q97177484"
      }
    },
    {
      "type": "Feature",
      "geometry": {
        "type": "Point",
        "coordinates": [
          55.685555555,
          18.333055555
        ]
      },
      "properties": {
        "label": "Q97177428",
        "type": "power plant",
        "entity": "http://www.wikidata.org/entity/Q97177428",
        "country_qid": "Q842",
        "Wikidata Qid": "Q97177428"
      }
    },
    {
      "type": "Feature",
      "geometry": {
        "type": "Point",
        "coordinates": [
          53.9732872,
          16.9396386
        ]
      },
      "properties": {
        "label": "Salalah II Power Plant",
        "type": "power plant",
        "entity": "http://www.wikidata.org/entity/Q97680206",
        "country_qid": "Q842",
        "Wikidata Qid": "Q97680206"
      }
    },
    {
      "type": "Feature",
      "geometry": {
        "type": "Point",
        "coordinates": [
          54.59,
          17.81
        ]
      },
      "properties": {
        "label": "Dhofar Wind Farm",
        "type": "power plant",
        "entity": "http://www.wikidata.org/entity/Q114359009",
        "country_qid": "Q842",
        "Wikidata Qid": "Q114359009"
      }
    },
    {
      "type": "Feature",
      "geometry": {
        "type": "Point",
        "coordinates": [
          56.722222222,
          21.370277777
        ]
      },
      "properties": {
        "label": "Q97177516",
        "type": "power plant",
        "entity": "http://www.wikidata.org/entity/Q97177516",
        "country_qid": "Q842",
        "Wikidata Qid": "Q97177516"
      }
    },
    {
      "type": "Feature",
      "geometry": {
        "type": "Point",
        "coordinates": [
          54.4905551,
          17.0379695
        ]
      },
      "properties": {
        "label": "Salalah integrated water and power plant",
        "type": "power plant",
        "entity": "http://www.wikidata.org/entity/Q114359144",
        "country_qid": "Q842",
        "Wikidata Qid": "Q114359144"
      }
    },
    {
      "type": "Feature",
      "geometry": {
        "type": "Point",
        "coordinates": [
          57.9814846,
          23.7076042
        ]
      },
      "properties": {
        "label": "Barka II Power Plant",
        "type": "power plant",
        "entity": "http://www.wikidata.org/entity/Q114358771",
        "country_qid": "Q842",
        "Wikidata Qid": "Q114358771"
      }
    },
    {
      "type": "Feature",
      "geometry": {
        "type": "Point",
        "coordinates": [
          56.2335634,
          23.3695199
        ]
      },
      "properties": {
        "label": "Ibri II Solar Power Plant",
        "type": "power plant",
        "entity": "http://www.wikidata.org/entity/Q114356180",
        "country_qid": "Q842",
        "Wikidata Qid": "Q114356180"
      }
    },
    {
      "type": "Feature",
      "geometry": {
        "type": "Point",
        "coordinates": [
          56.6349453,
          24.4709396
        ]
      },
      "properties": {
        "label": "Sohar II Power Plant",
        "type": "power plant",
        "entity": "http://www.wikidata.org/entity/Q114358956",
        "country_qid": "Q842",
        "Wikidata Qid": "Q114358956"
      }
    },
    {
      "type": "Feature",
      "geometry": {
        "type": "Point",
        "coordinates": [
          56.63718,
          24.46676
        ]
      },
      "properties": {
        "label": "Sohar Aluminium Power Plant",
        "type": "power plant",
        "entity": "http://www.wikidata.org/entity/Q12001757",
        "country_qid": "Q842",
        "Wikidata Qid": "Q12001757"
      }
    },
    {
      "type": "Feature",
      "geometry": {
        "type": "Point",
        "coordinates": [
          56.422777777,
          24.307777777
        ]
      },
      "properties": {
        "label": "Q97177435",
        "type": "power plant",
        "entity": "http://www.wikidata.org/entity/Q97177435",
        "country_qid": "Q842",
        "Wikidata Qid": "Q97177435"
      }
    },
    {
      "type": "Feature",
      "geometry": {
        "type": "Point",
        "coordinates": [
          58.848835,
          23.082366
        ]
      },
      "properties": {
        "label": "Wadi Dayqah Dam",
        "type": "Reservoir",
        "entity": "http://www.wikidata.org/entity/Q22675437",
        "country_qid": "Q842",
        "Wikidata Qid": "Q22675437"
      }
    },
    {
      "type": "Feature",
      "geometry": {
        "type": "Point",
        "coordinates": [
          56.230277777,
          23.416111111
        ]
      },
      "properties": {
        "label": "Q48978107",
        "type": "Hydraulic structure",
        "entity": "http://www.wikidata.org/entity/Q48978107",
        "country_qid": "Q842",
        "Wikidata Qid": "Q48978107"
      }
    },
    {
      "type": "Feature",
      "geometry": {
        "type": "Point",
        "coordinates": [
          56.24944444,
          26.20333333
        ]
      },
      "properties": {
        "label": "Port of Khasab",
        "type": "Hydraulic structure",
        "entity": "http://www.wikidata.org/entity/Q7231170",
        "country_qid": "Q842",
        "Wikidata Qid": "Q7231170"
      }
    },
    {
      "type": "Feature",
      "geometry": {
        "type": "Point",
        "coordinates": [
          57.7,
          19.66861111
        ]
      },
      "properties": {
        "label": "Port of Duqm",
        "type": "Hydraulic structure",
        "entity": "http://www.wikidata.org/entity/Q4703759",
        "country_qid": "Q842",
        "Wikidata Qid": "Q4703759"
      }
    },
    {
      "type": "Feature",
      "geometry": {
        "type": "Point",
        "coordinates": [
          58.50888889,
          23.63638889
        ]
      },
      "properties": {
        "label": "Port of Mina Al Fahal",
        "type": "Hydraulic structure",
        "entity": "http://www.wikidata.org/entity/Q7231198",
        "country_qid": "Q842",
        "Wikidata Qid": "Q7231198"
      }
    },
    {
      "type": "Feature",
      "geometry": {
        "type": "Point",
        "coordinates": [
          59.40527778,
          22.66111111
        ]
      },
      "properties": {
        "label": "Qalhat LNG Terminal",
        "type": "Hydraulic structure",
        "entity": "http://www.wikidata.org/entity/Q15269784",
        "country_qid": "Q842",
        "Wikidata Qid": "Q15269784"
      }
    },
    {
      "type": "Feature",
      "geometry": {
        "type": "Point",
        "coordinates": [
          58.001479,
          23.605065
        ]
      },
      "properties": {
        "label": "Al Jifnain Dam",
        "type": "Hydraulic structure",
        "entity": "http://www.wikidata.org/entity/Q130641669",
        "country_qid": "Q842",
        "Wikidata Qid": "Q130641669"
      }
    },
    {
      "type": "Feature",
      "geometry": {
        "type": "Point",
        "coordinates": [
          56.099166666,
          23.549444444
        ]
      },
      "properties": {
        "label": "Q48978140",
        "type": "Hydraulic structure",
        "entity": "http://www.wikidata.org/entity/Q48978140",
        "country_qid": "Q842",
        "Wikidata Qid": "Q48978140"
      }
    },
    {
      "type": "Feature",
      "geometry": {
        "type": "Point",
        "coordinates": [
          57.25,
          22.75
        ]
      },
      "properties": {
        "label": "Q48978141",
        "type": "Hydraulic structure",
        "entity": "http://www.wikidata.org/entity/Q48978141",
        "country_qid": "Q842",
        "Wikidata Qid": "Q48978141"
      }
    },
    {
      "type": "Feature",
      "geometry": {
        "type": "Point",
        "coordinates": [
          58.566111111,
          23.63
        ]
      },
      "properties": {
        "label": "Port Sultan Qaboos",
        "type": "Hydraulic structure",
        "entity": "http://www.wikidata.org/entity/Q2327342",
        "country_qid": "Q842",
        "Wikidata Qid": "Q2327342"
      }
    },
    {
      "type": "Feature",
      "geometry": {
        "type": "Point",
        "coordinates": [
          57.21667,
          22.75
        ]
      },
      "properties": {
        "label": "Q48978139",
        "type": "Hydraulic structure",
        "entity": "http://www.wikidata.org/entity/Q48978139",
        "country_qid": "Q842",
        "Wikidata Qid": "Q48978139"
      }
    },
    {
      "type": "Feature",
      "geometry": {
        "type": "Point",
        "coordinates": [
          58.166111111,
          23.635833333
        ]
      },
      "properties": {
        "label": "Sadd al Khawá¸‘",
        "type": "Hydraulic structure",
        "entity": "http://www.wikidata.org/entity/Q34925859",
        "country_qid": "Q842",
        "Wikidata Qid": "Q34925859"
      }
    },
    {
      "type": "Feature",
      "geometry": {
        "type": "Point",
        "coordinates": [
          56.061388888,
          23.581111111
        ]
      },
      "properties": {
        "label": "Q48978275",
        "type": "Hydraulic structure",
        "entity": "http://www.wikidata.org/entity/Q48978275",
        "country_qid": "Q842",
        "Wikidata Qid": "Q48978275"
      }
    },
    {
      "type": "Feature",
      "geometry": {
        "type": "Point",
        "coordinates": [
          56.6103,
          24.5042
        ]
      },
      "properties": {
        "label": "SOHAR Port and Freezone",
        "type": "Hydraulic structure",
        "entity": "http://www.wikidata.org/entity/Q15379049",
        "country_qid": "Q842",
        "Wikidata Qid": "Q15379049"
      }
    },
    {
      "type": "Feature",
      "geometry": {
        "type": "Point",
        "coordinates": [
          54.01162,
          16.94355
        ]
      },
      "properties": {
        "label": "Port of Salalah",
        "type": "Hydraulic structure",
        "entity": "http://www.wikidata.org/entity/Q2190920",
        "country_qid": "Q842",
        "Wikidata Qid": "Q2190920"
      }
    },
    {
      "type": "Feature",
      "geometry": {
        "type": "Point",
        "coordinates": [
          56.61027778,
          24.50416667
        ]
      },
      "properties": {
        "label": "Port of Sohar",
        "type": "Hydraulic structure",
        "entity": "http://www.wikidata.org/entity/Q4808608",
        "country_qid": "Q842",
        "Wikidata Qid": "Q4808608"
      }
    },
    {
      "type": "Feature",
      "geometry": {
        "type": "Point",
        "coordinates": [
          57.683,
          19.68459
        ]
      },
      "properties": {
        "label": "Duqm Refinery",
        "type": "Industrial building",
        "entity": "http://www.wikidata.org/entity/Q111710552",
        "country_qid": "Q842",
        "Wikidata Qid": "Q111710552"
      }
    },
    {
      "type": "Feature",
      "geometry": {
        "type": "Point",
        "coordinates": [
          58.5922,
          23.61387
        ]
      },
      "properties": {
        "label": "Muscat",
        "type": "Industrial building",
        "entity": "http://www.wikidata.org/entity/Q127430774",
        "country_qid": "Q842",
        "Wikidata Qid": "Q127430774"
      }
    }
  ]
}