{
  "type": "FeatureCollection",
  "features": [
    {
      "type": "Feature",
      "geometry": {
        "type": "Point",
        "coordinates": [
          134.475027777,
          7.443472222
        ]
      },
      "properties": {
        "label": "Aimeliik Power Plant",
        "type": "power plant",
        "entity": "http://www.wikidata.org/entity/Q106346218",
        "country_qid": "Q695"
      }
    },
    {
      "type": "Feature",
      "geometry": {
        "type": "Point",
        "coordinates": [
          134.456496,
          7.334683
        ]
      },
      "properties": {
        "label": "Malakal Power Plant",
        "type": "power plant",
        "entity": "http://www.wikidata.org/entity/Q106346228",
        "country_qid": "Q695"
      }
    },
    {
      "type": "Feature",
      "geometry": {
        "type": "Point",
        "coordinates": [
          134.45,
          7.333333333
        ]
      },
      "properties": {
        "label": "Malakal Harbor",
        "type": "Hydraulic structure",
        "entity": "http://www.wikidata.org/entity/Q111387166",
        "country_qid": "Q695"
      }
    },
    {
      "type": "Feature",
      "geometry": {
        "type": "Point",
        "coordinates": [
          134.45935,
          7.33284
        ]
      },
      "properties": {
        "label": "Malakal Port",
        "type": "Hydraulic structure",
        "entity": "http://www.wikidata.org/entity/Q34963493",
        "country_qid": "Q695"
      }
    },
    {
      "type": "Feature",
      "geometry": {
        "type": "Point",
        "coordinates": [
          134.5613,
          7.3658
        ]
      },
      "properties": {
        "label": "Chelechol ra Orrak",
        "type": "Mine",
        "entity": "http://www.wikidata.org/entity/Q65096031",
        "country_qid": "Q695"
      }
    },
    {
      "type": "Feature",
      "geometry": {
        "type": "Point",
        "coordinates": [
          134.566944444,
          7.348055555
        ]
      },
      "properties": {
        "label": "Daob ma Uet el Beluu",
        "type": "Mine",
        "entity": "http://www.wikidata.org/entity/Q65096074",
        "country_qid": "Q695"
      }
    }
  ]
}