{
  "type": "FeatureCollection",
  "features": [
    {
      "type": "Feature",
      "geometry": {
        "type": "Point",
        "coordinates": [
          51.6132311,
          25.1148504
        ]
      },
      "properties": {
        "label": "Umm Al Houl power and desalination plant",
        "type": "power plant",
        "entity": "http://www.wikidata.org/entity/Q104896345",
        "country_qid": "Q846",
        "Wikidata Qid": "Q104896345"
      }
    },
    {
      "type": "Feature",
      "geometry": {
        "type": "Point",
        "coordinates": [
          51.015416666,
          25.239611111
        ]
      },
      "properties": {
        "label": "Al-Kharsaah Solar Power Plant",
        "type": "power plant",
        "entity": "http://www.wikidata.org/entity/Q134278642",
        "country_qid": "Q846",
        "Wikidata Qid": "Q134278642"
      }
    },
    {
      "type": "Feature",
      "geometry": {
        "type": "Point",
        "coordinates": [
          51.5471489,
          25.9251405
        ]
      },
      "properties": {
        "label": "Ras Laffan B power and desalination plant",
        "type": "power plant",
        "entity": "http://www.wikidata.org/entity/Q17561167",
        "country_qid": "Q846",
        "Wikidata Qid": "Q17561167"
      }
    },
    {
      "type": "Feature",
      "geometry": {
        "type": "Point",
        "coordinates": [
          51.6164303,
          25.1988254
        ]
      },
      "properties": {
        "label": "Ras Abu Fontas Power and Desalination Plant",
        "type": "power plant",
        "entity": "http://www.wikidata.org/entity/Q19386236",
        "country_qid": "Q846",
        "Wikidata Qid": "Q19386236"
      }
    },
    {
      "type": "Feature",
      "geometry": {
        "type": "Point",
        "coordinates": [
          51.5781344,
          24.9748874
        ]
      },
      "properties": {
        "label": "Mesaieed Power Plant",
        "type": "power plant",
        "entity": "http://www.wikidata.org/entity/Q104896165",
        "country_qid": "Q846",
        "Wikidata Qid": "Q104896165"
      }
    },
    {
      "type": "Feature",
      "geometry": {
        "type": "Point",
        "coordinates": [
          51.5452099,
          25.9230652
        ]
      },
      "properties": {
        "label": "Ras Laffan A power and desalination plant",
        "type": "power plant",
        "entity": "http://www.wikidata.org/entity/Q104895760",
        "country_qid": "Q846",
        "Wikidata Qid": "Q104895760"
      }
    },
    {
      "type": "Feature",
      "geometry": {
        "type": "Point",
        "coordinates": [
          51.58110046,
          24.97130013
        ]
      },
      "properties": {
        "label": "Qatalum Power Plant",
        "type": "power plant",
        "entity": "http://www.wikidata.org/entity/Q21036854",
        "country_qid": "Q846",
        "Wikidata Qid": "Q21036854"
      }
    },
    {
      "type": "Feature",
      "geometry": {
        "type": "Point",
        "coordinates": [
          51.52222222,
          25.93694444
        ]
      },
      "properties": {
        "label": "Ras Girtas Power Plant",
        "type": "power plant",
        "entity": "http://www.wikidata.org/entity/Q7294671",
        "country_qid": "Q846",
        "Wikidata Qid": "Q7294671"
      }
    },
    {
      "type": "Feature",
      "geometry": {
        "type": "Point",
        "coordinates": [
          50.95765,
          25.76323
        ]
      },
      "properties": {
        "label": "Maqţa‘ al Baḩr",
        "type": "Hydraulic structure",
        "entity": "http://www.wikidata.org/entity/Q34731773",
        "country_qid": "Q846",
        "Wikidata Qid": "Q34731773"
      }
    },
    {
      "type": "Feature",
      "geometry": {
        "type": "Point",
        "coordinates": [
          50.84665,
          25.62303
        ]
      },
      "properties": {
        "label": "Maqţa‘ ad Dawākhil",
        "type": "Hydraulic structure",
        "entity": "http://www.wikidata.org/entity/Q34731764",
        "country_qid": "Q846",
        "Wikidata Qid": "Q34731764"
      }
    },
    {
      "type": "Feature",
      "geometry": {
        "type": "Point",
        "coordinates": [
          52.416666666,
          25.683333333
        ]
      },
      "properties": {
        "label": "Jazirat Halul",
        "type": "Hydraulic structure",
        "entity": "http://www.wikidata.org/entity/Q111386891",
        "country_qid": "Q846",
        "Wikidata Qid": "Q111386891"
      }
    },
    {
      "type": "Feature",
      "geometry": {
        "type": "Point",
        "coordinates": [
          51.583333333,
          25.916666666
        ]
      },
      "properties": {
        "label": "Ras Laffan",
        "type": "Hydraulic structure",
        "entity": "http://www.wikidata.org/entity/Q111387350",
        "country_qid": "Q846",
        "Wikidata Qid": "Q111387350"
      }
    },
    {
      "type": "Feature",
      "geometry": {
        "type": "Point",
        "coordinates": [
          51.55,
          26.65
        ]
      },
      "properties": {
        "label": "Al Rayyan Terminal",
        "type": "Hydraulic structure",
        "entity": "http://www.wikidata.org/entity/Q111386675",
        "country_qid": "Q846",
        "Wikidata Qid": "Q111386675"
      }
    },
    {
      "type": "Feature",
      "geometry": {
        "type": "Point",
        "coordinates": [
          51.602,
          25.015
        ]
      },
      "properties": {
        "label": "Hamad Port",
        "type": "Hydraulic structure",
        "entity": "http://www.wikidata.org/entity/Q38251172",
        "country_qid": "Q846",
        "Wikidata Qid": "Q38251172"
      }
    },
    {
      "type": "Feature",
      "geometry": {
        "type": "Point",
        "coordinates": [
          51.1227,
          26.07395
        ]
      },
      "properties": {
        "label": "Jisrat al Khaymah",
        "type": "Hydraulic structure",
        "entity": "http://www.wikidata.org/entity/Q34925565",
        "country_qid": "Q846",
        "Wikidata Qid": "Q34925565"
      }
    },
    {
      "type": "Feature",
      "geometry": {
        "type": "Point",
        "coordinates": [
          51.5564,
          25.9146
        ]
      },
      "properties": {
        "label": "Qatargas Ras Laffan LNG terminal",
        "type": "Hydraulic structure",
        "entity": "http://www.wikidata.org/entity/Q30972666",
        "country_qid": "Q846",
        "Wikidata Qid": "Q30972666"
      }
    },
    {
      "type": "Feature",
      "geometry": {
        "type": "Point",
        "coordinates": [
          51.5555117,
          25.8821404
        ]
      },
      "properties": {
        "label": "Oryx GTL",
        "type": "Industrial building",
        "entity": "http://www.wikidata.org/entity/Q3886335",
        "country_qid": "Q846",
        "Wikidata Qid": "Q3886335"
      }
    },
    {
      "type": "Feature",
      "geometry": {
        "type": "Point",
        "coordinates": [
          51.50528,
          25.905
        ]
      },
      "properties": {
        "label": "Pearl GTL",
        "type": "Industrial building",
        "entity": "http://www.wikidata.org/entity/Q3373844",
        "country_qid": "Q846",
        "Wikidata Qid": "Q3373844"
      }
    }
  ]
}