{
  "type": "FeatureCollection",
  "features": [
    {
      "type": "Feature",
      "geometry": {
        "type": "Point",
        "coordinates": [
          24.697083333,
          43.814472222
        ]
      },
      "properties": {
        "label": "Q30974126",
        "type": "power plant",
        "entity": "http://www.wikidata.org/entity/Q30974126",
        "country_qid": "Q218",
        "Wikidata Qid": "Q30974126"
      }
    },
    {
      "type": "Feature",
      "geometry": {
        "type": "Point",
        "coordinates": [
          23.635472222,
          45.761055555
        ]
      },
      "properties": {
        "label": "Q30973981",
        "type": "power plant",
        "entity": "http://www.wikidata.org/entity/Q30973981",
        "country_qid": "Q218",
        "Wikidata Qid": "Q30973981"
      }
    },
    {
      "type": "Feature",
      "geometry": {
        "type": "Point",
        "coordinates": [
          23.947916666,
          45.386638888
        ]
      },
      "properties": {
        "label": "Q30973990",
        "type": "power plant",
        "entity": "http://www.wikidata.org/entity/Q30973990",
        "country_qid": "Q218",
        "Wikidata Qid": "Q30973990"
      }
    },
    {
      "type": "Feature",
      "geometry": {
        "type": "Point",
        "coordinates": [
          24.309722222,
          45.277388888
        ]
      },
      "properties": {
        "label": "Q30974019",
        "type": "power plant",
        "entity": "http://www.wikidata.org/entity/Q30974019",
        "country_qid": "Q218",
        "Wikidata Qid": "Q30974019"
      }
    },
    {
      "type": "Feature",
      "geometry": {
        "type": "Point",
        "coordinates": [
          22.657861111,
          46.914916666
        ]
      },
      "properties": {
        "label": "Q30973813",
        "type": "power plant",
        "entity": "http://www.wikidata.org/entity/Q30973813",
        "country_qid": "Q218",
        "Wikidata Qid": "Q30973813"
      }
    },
    {
      "type": "Feature",
      "geometry": {
        "type": "Point",
        "coordinates": [
          22.80675,
          45.125694444
        ]
      },
      "properties": {
        "label": "Q30973804",
        "type": "power plant",
        "entity": "http://www.wikidata.org/entity/Q30973804",
        "country_qid": "Q218",
        "Wikidata Qid": "Q30973804"
      }
    },
    {
      "type": "Feature",
      "geometry": {
        "type": "Point",
        "coordinates": [
          24.622722222,
          43.916444444
        ]
      },
      "properties": {
        "label": "Q30974117",
        "type": "power plant",
        "entity": "http://www.wikidata.org/entity/Q30974117",
        "country_qid": "Q218",
        "Wikidata Qid": "Q30974117"
      }
    },
    {
      "type": "Feature",
      "geometry": {
        "type": "Point",
        "coordinates": [
          24.125064772,
          45.638641171
        ]
      },
      "properties": {
        "label": "Q120598296",
        "type": "power plant",
        "entity": "http://www.wikidata.org/entity/Q120598296",
        "country_qid": "Q218",
        "Wikidata Qid": "Q120598296"
      }
    },
    {
      "type": "Feature",
      "geometry": {
        "type": "Point",
        "coordinates": [
          24.482944444,
          44.163694444
        ]
      },
      "properties": {
        "label": "Q30974104",
        "type": "power plant",
        "entity": "http://www.wikidata.org/entity/Q30974104",
        "country_qid": "Q218",
        "Wikidata Qid": "Q30974104"
      }
    },
    {
      "type": "Feature",
      "geometry": {
        "type": "Point",
        "coordinates": [
          26.305638888,
          45.442777777
        ]
      },
      "properties": {
        "label": "Q30973984",
        "type": "power plant",
        "entity": "http://www.wikidata.org/entity/Q30973984",
        "country_qid": "Q218",
        "Wikidata Qid": "Q30973984"
      }
    },
    {
      "type": "Feature",
      "geometry": {
        "type": "Point",
        "coordinates": [
          24.631166666,
          45.349166666
        ]
      },
      "properties": {
        "label": "Q30975273",
        "type": "power plant",
        "entity": "http://www.wikidata.org/entity/Q30975273",
        "country_qid": "Q218",
        "Wikidata Qid": "Q30975273"
      }
    },
    {
      "type": "Feature",
      "geometry": {
        "type": "Point",
        "coordinates": [
          24.107083333,
          45.355694444
        ]
      },
      "properties": {
        "label": "Q30973989",
        "type": "power plant",
        "entity": "http://www.wikidata.org/entity/Q30973989",
        "country_qid": "Q218",
        "Wikidata Qid": "Q30973989"
      }
    },
    {
      "type": "Feature",
      "geometry": {
        "type": "Point",
        "coordinates": [
          24.573666666,
          44.041583333
        ]
      },
      "properties": {
        "label": "Q30974106",
        "type": "power plant",
        "entity": "http://www.wikidata.org/entity/Q30974106",
        "country_qid": "Q218",
        "Wikidata Qid": "Q30974106"
      }
    },
    {
      "type": "Feature",
      "geometry": {
        "type": "Point",
        "coordinates": [
          23.181638888,
          46.698527777
        ]
      },
      "properties": {
        "label": "Q30974124",
        "type": "power plant",
        "entity": "http://www.wikidata.org/entity/Q30974124",
        "country_qid": "Q218",
        "Wikidata Qid": "Q30974124"
      }
    },
    {
      "type": "Feature",
      "geometry": {
        "type": "Point",
        "coordinates": [
          22.520611111,
          44.405333333
        ]
      },
      "properties": {
        "label": "Q30974029",
        "type": "power plant",
        "entity": "http://www.wikidata.org/entity/Q30974029",
        "country_qid": "Q218",
        "Wikidata Qid": "Q30974029"
      }
    },
    {
      "type": "Feature",
      "geometry": {
        "type": "Point",
        "coordinates": [
          24.322916666,
          44.535972222
        ]
      },
      "properties": {
        "label": "Q30974041",
        "type": "power plant",
        "entity": "http://www.wikidata.org/entity/Q30974041",
        "country_qid": "Q218",
        "Wikidata Qid": "Q30974041"
      }
    },
    {
      "type": "Feature",
      "geometry": {
        "type": "Point",
        "coordinates": [
          24.403222222,
          44.263833333
        ]
      },
      "properties": {
        "label": "Q30974103",
        "type": "power plant",
        "entity": "http://www.wikidata.org/entity/Q30974103",
        "country_qid": "Q218",
        "Wikidata Qid": "Q30974103"
      }
    },
    {
      "type": "Feature",
      "geometry": {
        "type": "Point",
        "coordinates": [
          25.151166666,
          45.492277777
        ]
      },
      "properties": {
        "label": "Q30974107",
        "type": "power plant",
        "entity": "http://www.wikidata.org/entity/Q30974107",
        "country_qid": "Q218",
        "Wikidata Qid": "Q30974107"
      }
    },
    {
      "type": "Feature",
      "geometry": {
        "type": "Point",
        "coordinates": [
          24.16827,
          45.66102
        ]
      },
      "properties": {
        "label": "Q120609128",
        "type": "power plant",
        "entity": "http://www.wikidata.org/entity/Q120609128",
        "country_qid": "Q218",
        "Wikidata Qid": "Q120609128"
      }
    },
    {
      "type": "Feature",
      "geometry": {
        "type": "Point",
        "coordinates": [
          22.833611111,
          45.479194444
        ]
      },
      "properties": {
        "label": "Q30974116",
        "type": "power plant",
        "entity": "http://www.wikidata.org/entity/Q30974116",
        "country_qid": "Q218",
        "Wikidata Qid": "Q30974116"
      }
    },
    {
      "type": "Feature",
      "geometry": {
        "type": "Point",
        "coordinates": [
          26.178083333,
          46.92225
        ]
      },
      "properties": {
        "label": "Q30974026",
        "type": "power plant",
        "entity": "http://www.wikidata.org/entity/Q30974026",
        "country_qid": "Q218",
        "Wikidata Qid": "Q30974026"
      }
    },
    {
      "type": "Feature",
      "geometry": {
        "type": "Point",
        "coordinates": [
          24.50333333,
          43.77361111
        ]
      },
      "properties": {
        "label": "Corabia Solar Park",
        "type": "power plant",
        "entity": "http://www.wikidata.org/entity/Q5169416",
        "country_qid": "Q218",
        "Wikidata Qid": "Q5169416"
      }
    },
    {
      "type": "Feature",
      "geometry": {
        "type": "Point",
        "coordinates": [
          22.82555556,
          45.91333333
        ]
      },
      "properties": {
        "label": "Mintia-Deva Power Station",
        "type": "power plant",
        "entity": "http://www.wikidata.org/entity/Q6869635",
        "country_qid": "Q218",
        "Wikidata Qid": "Q6869635"
      }
    },
    {
      "type": "Feature",
      "geometry": {
        "type": "Point",
        "coordinates": [
          21.26532,
          45.747623
        ]
      },
      "properties": {
        "label": "Q2551186",
        "type": "power plant",
        "entity": "http://www.wikidata.org/entity/Q2551186",
        "country_qid": "Q218",
        "Wikidata Qid": "Q2551186"
      }
    },
    {
      "type": "Feature",
      "geometry": {
        "type": "Point",
        "coordinates": [
          26.097893,
          44.415816
        ]
      },
      "properties": {
        "label": "Filaret Electrical Plant",
        "type": "power plant",
        "entity": "http://www.wikidata.org/entity/Q20433141",
        "country_qid": "Q218",
        "Wikidata Qid": "Q20433141"
      }
    },
    {
      "type": "Feature",
      "geometry": {
        "type": "Point",
        "coordinates": [
          28.63183333,
          44.65577778
        ]
      },
      "properties": {
        "label": "Eolica Mihai Viteazu Wind Farm",
        "type": "power plant",
        "entity": "http://www.wikidata.org/entity/Q5381774",
        "country_qid": "Q218",
        "Wikidata Qid": "Q5381774"
      }
    },
    {
      "type": "Feature",
      "geometry": {
        "type": "Point",
        "coordinates": [
          25.9,
          43.8667
        ]
      },
      "properties": {
        "label": "Slobozia Solar Park",
        "type": "power plant",
        "entity": "http://www.wikidata.org/entity/Q16900278",
        "country_qid": "Q218",
        "Wikidata Qid": "Q16900278"
      }
    },
    {
      "type": "Feature",
      "geometry": {
        "type": "Point",
        "coordinates": [
          23.13333333,
          47.86666667
        ]
      },
      "properties": {
        "label": "Livada Solar Park",
        "type": "power plant",
        "entity": "http://www.wikidata.org/entity/Q15242525",
        "country_qid": "Q218",
        "Wikidata Qid": "Q15242525"
      }
    },
    {
      "type": "Feature",
      "geometry": {
        "type": "Point",
        "coordinates": [
          25.645833,
          45.662222
        ]
      },
      "properties": {
        "label": "Q106413910",
        "type": "power plant",
        "entity": "http://www.wikidata.org/entity/Q106413910",
        "country_qid": "Q218",
        "Wikidata Qid": "Q106413910"
      }
    },
    {
      "type": "Feature",
      "geometry": {
        "type": "Point",
        "coordinates": [
          28.34044444,
          44.49625
        ]
      },
      "properties": {
        "label": "Q56026040",
        "type": "power plant",
        "entity": "http://www.wikidata.org/entity/Q56026040",
        "country_qid": "Q218",
        "Wikidata Qid": "Q56026040"
      }
    },
    {
      "type": "Feature",
      "geometry": {
        "type": "Point",
        "coordinates": [
          24.33333333,
          47.01666667
        ]
      },
      "properties": {
        "label": "Lechința Solar Park",
        "type": "power plant",
        "entity": "http://www.wikidata.org/entity/Q6511592",
        "country_qid": "Q218",
        "Wikidata Qid": "Q6511592"
      }
    },
    {
      "type": "Feature",
      "geometry": {
        "type": "Point",
        "coordinates": [
          23.5392844,
          44.9323149
        ]
      },
      "properties": {
        "label": "Târgu Cărbunești Solar Park",
        "type": "power plant",
        "entity": "http://www.wikidata.org/entity/Q16901262",
        "country_qid": "Q218",
        "Wikidata Qid": "Q16901262"
      }
    },
    {
      "type": "Feature",
      "geometry": {
        "type": "Point",
        "coordinates": [
          25.93333333,
          44.6
        ]
      },
      "properties": {
        "label": "Crevedia Solar Park",
        "type": "power plant",
        "entity": "http://www.wikidata.org/entity/Q5184772",
        "country_qid": "Q218",
        "Wikidata Qid": "Q5184772"
      }
    },
    {
      "type": "Feature",
      "geometry": {
        "type": "Point",
        "coordinates": [
          25.99896,
          44.880334
        ]
      },
      "properties": {
        "label": "Petrom Brazi Power Station",
        "type": "power plant",
        "entity": "http://www.wikidata.org/entity/Q15266078",
        "country_qid": "Q218",
        "Wikidata Qid": "Q15266078"
      }
    },
    {
      "type": "Feature",
      "geometry": {
        "type": "Point",
        "coordinates": [
          26.38333333,
          44.68333333
        ]
      },
      "properties": {
        "label": "Fierbinți Solar Park",
        "type": "power plant",
        "entity": "http://www.wikidata.org/entity/Q5447263",
        "country_qid": "Q218",
        "Wikidata Qid": "Q5447263"
      }
    },
    {
      "type": "Feature",
      "geometry": {
        "type": "Point",
        "coordinates": [
          24.287274,
          45.038945
        ]
      },
      "properties": {
        "label": "Govora Power Station",
        "type": "power plant",
        "entity": "http://www.wikidata.org/entity/Q5589943",
        "country_qid": "Q218",
        "Wikidata Qid": "Q5589943"
      }
    },
    {
      "type": "Feature",
      "geometry": {
        "type": "Point",
        "coordinates": [
          27.81666667,
          44.7
        ]
      },
      "properties": {
        "label": "Gura Ialomiței Solar Park",
        "type": "power plant",
        "entity": "http://www.wikidata.org/entity/Q15222312",
        "country_qid": "Q218",
        "Wikidata Qid": "Q15222312"
      }
    },
    {
      "type": "Feature",
      "geometry": {
        "type": "Point",
        "coordinates": [
          28.607222,
          44.158333
        ]
      },
      "properties": {
        "label": "Q106413919",
        "type": "power plant",
        "entity": "http://www.wikidata.org/entity/Q106413919",
        "country_qid": "Q218",
        "Wikidata Qid": "Q106413919"
      }
    },
    {
      "type": "Feature",
      "geometry": {
        "type": "Point",
        "coordinates": [
          22.683916666,
          46.830833333
        ]
      },
      "properties": {
        "label": "Remeți Hydroelectric Power Station",
        "type": "power plant",
        "entity": "http://www.wikidata.org/entity/Q7311762",
        "country_qid": "Q218",
        "Wikidata Qid": "Q7311762"
      }
    },
    {
      "type": "Feature",
      "geometry": {
        "type": "Point",
        "coordinates": [
          27.605,
          47.149167
        ]
      },
      "properties": {
        "label": "Q106413895",
        "type": "power plant",
        "entity": "http://www.wikidata.org/entity/Q106413895",
        "country_qid": "Q218",
        "Wikidata Qid": "Q106413895"
      }
    },
    {
      "type": "Feature",
      "geometry": {
        "type": "Point",
        "coordinates": [
          24.563611111,
          44.561944444
        ]
      },
      "properties": {
        "label": "Scornicești Solar Park",
        "type": "power plant",
        "entity": "http://www.wikidata.org/entity/Q7435364",
        "country_qid": "Q218",
        "Wikidata Qid": "Q7435364"
      }
    },
    {
      "type": "Feature",
      "geometry": {
        "type": "Point",
        "coordinates": [
          25.9275,
          43.879444
        ]
      },
      "properties": {
        "label": "Q106413909",
        "type": "power plant",
        "entity": "http://www.wikidata.org/entity/Q106413909",
        "country_qid": "Q218",
        "Wikidata Qid": "Q106413909"
      }
    },
    {
      "type": "Feature",
      "geometry": {
        "type": "Point",
        "coordinates": [
          22.346444444,
          45.409472222
        ]
      },
      "properties": {
        "label": "Ruieni Hydroelectric Power Station",
        "type": "power plant",
        "entity": "http://www.wikidata.org/entity/Q7349794",
        "country_qid": "Q218",
        "Wikidata Qid": "Q7349794"
      }
    },
    {
      "type": "Feature",
      "geometry": {
        "type": "Point",
        "coordinates": [
          27.718333,
          45.431944
        ]
      },
      "properties": {
        "label": "Galați Power Station",
        "type": "power plant",
        "entity": "http://www.wikidata.org/entity/Q5518170",
        "country_qid": "Q218",
        "Wikidata Qid": "Q5518170"
      }
    },
    {
      "type": "Feature",
      "geometry": {
        "type": "Point",
        "coordinates": [
          25.67222222,
          44.34472222
        ]
      },
      "properties": {
        "label": "Bucșani Solar Park",
        "type": "power plant",
        "entity": "http://www.wikidata.org/entity/Q17006412",
        "country_qid": "Q218",
        "Wikidata Qid": "Q17006412"
      }
    },
    {
      "type": "Feature",
      "geometry": {
        "type": "Point",
        "coordinates": [
          27.92338333,
          45.16503333
        ]
      },
      "properties": {
        "label": "Brăila Power Station",
        "type": "power plant",
        "entity": "http://www.wikidata.org/entity/Q4981972",
        "country_qid": "Q218",
        "Wikidata Qid": "Q4981972"
      }
    },
    {
      "type": "Feature",
      "geometry": {
        "type": "Point",
        "coordinates": [
          25.792856812,
          45.025331488
        ]
      },
      "properties": {
        "label": "Termocentrala de la Floresti",
        "type": "power plant",
        "entity": "http://www.wikidata.org/entity/Q118542609",
        "country_qid": "Q218",
        "Wikidata Qid": "Q118542609"
      }
    },
    {
      "type": "Feature",
      "geometry": {
        "type": "Point",
        "coordinates": [
          24.771944,
          46.420833
        ]
      },
      "properties": {
        "label": "Q106413892",
        "type": "power plant",
        "entity": "http://www.wikidata.org/entity/Q106413892",
        "country_qid": "Q218",
        "Wikidata Qid": "Q106413892"
      }
    },
    {
      "type": "Feature",
      "geometry": {
        "type": "Point",
        "coordinates": [
          21.816025,
          45.033775
        ]
      },
      "properties": {
        "label": "Crivina Power Station",
        "type": "power plant",
        "entity": "http://www.wikidata.org/entity/Q5186951",
        "country_qid": "Q218",
        "Wikidata Qid": "Q5186951"
      }
    },
    {
      "type": "Feature",
      "geometry": {
        "type": "Point",
        "coordinates": [
          28.05728056,
          44.32234722
        ]
      },
      "properties": {
        "label": "Cernavodă Nuclear Power Plant",
        "type": "power plant",
        "entity": "http://www.wikidata.org/entity/Q1248956",
        "country_qid": "Q218",
        "Wikidata Qid": "Q1248956"
      }
    },
    {
      "type": "Feature",
      "geometry": {
        "type": "Point",
        "coordinates": [
          21.893056,
          47.084167
        ]
      },
      "properties": {
        "label": "Q106413890",
        "type": "power plant",
        "entity": "http://www.wikidata.org/entity/Q106413890",
        "country_qid": "Q218",
        "Wikidata Qid": "Q106413890"
      }
    },
    {
      "type": "Feature",
      "geometry": {
        "type": "Point",
        "coordinates": [
          21.81666667,
          47.11666667
        ]
      },
      "properties": {
        "label": "Borș Solar Park",
        "type": "power plant",
        "entity": "http://www.wikidata.org/entity/Q4947089",
        "country_qid": "Q218",
        "Wikidata Qid": "Q4947089"
      }
    },
    {
      "type": "Feature",
      "geometry": {
        "type": "Point",
        "coordinates": [
          21.328611,
          46.2225
        ]
      },
      "properties": {
        "label": "Q12723182",
        "type": "power plant",
        "entity": "http://www.wikidata.org/entity/Q12723182",
        "country_qid": "Q218",
        "Wikidata Qid": "Q12723182"
      }
    },
    {
      "type": "Feature",
      "geometry": {
        "type": "Point",
        "coordinates": [
          22.88333333,
          47.78333333
        ]
      },
      "properties": {
        "label": "Satu Mare Solar Park",
        "type": "power plant",
        "entity": "http://www.wikidata.org/entity/Q7426556",
        "country_qid": "Q218",
        "Wikidata Qid": "Q7426556"
      }
    },
    {
      "type": "Feature",
      "geometry": {
        "type": "Point",
        "coordinates": [
          25.97722222,
          44.42388889
        ]
      },
      "properties": {
        "label": "Bucharest West Power Station",
        "type": "power plant",
        "entity": "http://www.wikidata.org/entity/Q4982661",
        "country_qid": "Q218",
        "Wikidata Qid": "Q4982661"
      }
    },
    {
      "type": "Feature",
      "geometry": {
        "type": "Point",
        "coordinates": [
          23.817222,
          44.343889
        ]
      },
      "properties": {
        "label": "Q106413906",
        "type": "power plant",
        "entity": "http://www.wikidata.org/entity/Q106413906",
        "country_qid": "Q218",
        "Wikidata Qid": "Q106413906"
      }
    },
    {
      "type": "Feature",
      "geometry": {
        "type": "Point",
        "coordinates": [
          22.565,
          44.30444444
        ]
      },
      "properties": {
        "label": "Iron Gate II Hydroelectric Power Station",
        "type": "power plant",
        "entity": "http://www.wikidata.org/entity/Q1136390",
        "country_qid": "Q218",
        "Wikidata Qid": "Q1136390"
      }
    },
    {
      "type": "Feature",
      "geometry": {
        "type": "Point",
        "coordinates": [
          23.261667,
          45.365
        ]
      },
      "properties": {
        "label": "Q106413902",
        "type": "power plant",
        "entity": "http://www.wikidata.org/entity/Q106413902",
        "country_qid": "Q218",
        "Wikidata Qid": "Q106413902"
      }
    },
    {
      "type": "Feature",
      "geometry": {
        "type": "Point",
        "coordinates": [
          22.685,
          44.67666667
        ]
      },
      "properties": {
        "label": "Halânga Power Station",
        "type": "power plant",
        "entity": "http://www.wikidata.org/entity/Q5643811",
        "country_qid": "Q218",
        "Wikidata Qid": "Q5643811"
      }
    },
    {
      "type": "Feature",
      "geometry": {
        "type": "Point",
        "coordinates": [
          28.113055555,
          44.315277777
        ]
      },
      "properties": {
        "label": "EDP Cernavodă Wind Farm",
        "type": "power plant",
        "entity": "http://www.wikidata.org/entity/Q5322864",
        "country_qid": "Q218",
        "Wikidata Qid": "Q5322864"
      }
    },
    {
      "type": "Feature",
      "geometry": {
        "type": "Point",
        "coordinates": [
          24.86666667,
          44.85833333
        ]
      },
      "properties": {
        "label": "Q11995771",
        "type": "power plant",
        "entity": "http://www.wikidata.org/entity/Q11995771",
        "country_qid": "Q218",
        "Wikidata Qid": "Q11995771"
      }
    },
    {
      "type": "Feature",
      "geometry": {
        "type": "Point",
        "coordinates": [
          24.183611,
          46.466944
        ]
      },
      "properties": {
        "label": "Q106413900",
        "type": "power plant",
        "entity": "http://www.wikidata.org/entity/Q106413900",
        "country_qid": "Q218",
        "Wikidata Qid": "Q106413900"
      }
    },
    {
      "type": "Feature",
      "geometry": {
        "type": "Point",
        "coordinates": [
          25.0467,
          45.8222
        ]
      },
      "properties": {
        "label": "Mândra Solar Park",
        "type": "power plant",
        "entity": "http://www.wikidata.org/entity/Q16894571",
        "country_qid": "Q218",
        "Wikidata Qid": "Q16894571"
      }
    },
    {
      "type": "Feature",
      "geometry": {
        "type": "Point",
        "coordinates": [
          23.4078,
          44.6697
        ]
      },
      "properties": {
        "label": "Turceni Power Station",
        "type": "power plant",
        "entity": "http://www.wikidata.org/entity/Q2944717",
        "country_qid": "Q218",
        "Wikidata Qid": "Q2944717"
      }
    },
    {
      "type": "Feature",
      "geometry": {
        "type": "Point",
        "coordinates": [
          22.9475,
          45.0444
        ]
      },
      "properties": {
        "label": "Tismana Hydroelectric Power Station",
        "type": "power plant",
        "entity": "http://www.wikidata.org/entity/Q7809609",
        "country_qid": "Q218",
        "Wikidata Qid": "Q7809609"
      }
    },
    {
      "type": "Feature",
      "geometry": {
        "type": "Point",
        "coordinates": [
          21.16416667,
          45.91055556
        ]
      },
      "properties": {
        "label": "Covaci Solar Park",
        "type": "power plant",
        "entity": "http://www.wikidata.org/entity/Q5178879",
        "country_qid": "Q218",
        "Wikidata Qid": "Q5178879"
      }
    },
    {
      "type": "Feature",
      "geometry": {
        "type": "Point",
        "coordinates": [
          26.76944444,
          46.25833333
        ]
      },
      "properties": {
        "label": "Borzești Power Station",
        "type": "power plant",
        "entity": "http://www.wikidata.org/entity/Q4946929",
        "country_qid": "Q218",
        "Wikidata Qid": "Q4946929"
      }
    },
    {
      "type": "Feature",
      "geometry": {
        "type": "Point",
        "coordinates": [
          25.8,
          44.05
        ]
      },
      "properties": {
        "label": "Izvoarele Solar Park",
        "type": "power plant",
        "entity": "http://www.wikidata.org/entity/Q16892766",
        "country_qid": "Q218",
        "Wikidata Qid": "Q16892766"
      }
    },
    {
      "type": "Feature",
      "geometry": {
        "type": "Point",
        "coordinates": [
          22.1294,
          46.3728
        ]
      },
      "properties": {
        "label": "Sebiș Solar Park",
        "type": "power plant",
        "entity": "http://www.wikidata.org/entity/Q16899918",
        "country_qid": "Q218",
        "Wikidata Qid": "Q16899918"
      }
    },
    {
      "type": "Feature",
      "geometry": {
        "type": "Point",
        "coordinates": [
          26.008889,
          44.883333
        ]
      },
      "properties": {
        "label": "Q106413912",
        "type": "power plant",
        "entity": "http://www.wikidata.org/entity/Q106413912",
        "country_qid": "Q218",
        "Wikidata Qid": "Q106413912"
      }
    },
    {
      "type": "Feature",
      "geometry": {
        "type": "Point",
        "coordinates": [
          23.2686,
          46.7139
        ]
      },
      "properties": {
        "label": "Tarnița – Lăpuștești Hydroelectric Power Station",
        "type": "power plant",
        "entity": "http://www.wikidata.org/entity/Q7686424",
        "country_qid": "Q218",
        "Wikidata Qid": "Q7686424"
      }
    },
    {
      "type": "Feature",
      "geometry": {
        "type": "Point",
        "coordinates": [
          24.6833,
          45.7333
        ]
      },
      "properties": {
        "label": "Ucea de Sus Solar Park",
        "type": "power plant",
        "entity": "http://www.wikidata.org/entity/Q16902251",
        "country_qid": "Q218",
        "Wikidata Qid": "Q16902251"
      }
    },
    {
      "type": "Feature",
      "geometry": {
        "type": "Point",
        "coordinates": [
          26.10722222,
          44.37277778
        ]
      },
      "properties": {
        "label": "Progresu Power Station",
        "type": "power plant",
        "entity": "http://www.wikidata.org/entity/Q7248889",
        "country_qid": "Q218",
        "Wikidata Qid": "Q7248889"
      }
    },
    {
      "type": "Feature",
      "geometry": {
        "type": "Point",
        "coordinates": [
          26.108611,
          44.371667
        ]
      },
      "properties": {
        "label": "Q106413915",
        "type": "power plant",
        "entity": "http://www.wikidata.org/entity/Q106413915",
        "country_qid": "Q218",
        "Wikidata Qid": "Q106413915"
      }
    },
    {
      "type": "Feature",
      "geometry": {
        "type": "Point",
        "coordinates": [
          25.3972,
          45.0029
        ]
      },
      "properties": {
        "label": "Doicești Power Station",
        "type": "power plant",
        "entity": "http://www.wikidata.org/entity/Q5288610",
        "country_qid": "Q218",
        "Wikidata Qid": "Q5288610"
      }
    },
    {
      "type": "Feature",
      "geometry": {
        "type": "Point",
        "coordinates": [
          24.288056,
          45.038611
        ]
      },
      "properties": {
        "label": "Q106413908",
        "type": "power plant",
        "entity": "http://www.wikidata.org/entity/Q106413908",
        "country_qid": "Q218",
        "Wikidata Qid": "Q106413908"
      }
    },
    {
      "type": "Feature",
      "geometry": {
        "type": "Point",
        "coordinates": [
          23.13503889,
          44.90833889
        ]
      },
      "properties": {
        "label": "Rovinari Power Station",
        "type": "power plant",
        "entity": "http://www.wikidata.org/entity/Q7371723",
        "country_qid": "Q218",
        "Wikidata Qid": "Q7371723"
      }
    },
    {
      "type": "Feature",
      "geometry": {
        "type": "Point",
        "coordinates": [
          23.59525,
          45.671416666
        ]
      },
      "properties": {
        "label": "Q30973983",
        "type": "power plant",
        "entity": "http://www.wikidata.org/entity/Q30973983",
        "country_qid": "Q218",
        "Wikidata Qid": "Q30973983"
      }
    },
    {
      "type": "Feature",
      "geometry": {
        "type": "Point",
        "coordinates": [
          27.22417,
          47.83861
        ]
      },
      "properties": {
        "label": "Q12729969",
        "type": "power plant",
        "entity": "http://www.wikidata.org/entity/Q12729969",
        "country_qid": "Q218",
        "Wikidata Qid": "Q12729969"
      }
    },
    {
      "type": "Feature",
      "geometry": {
        "type": "Point",
        "coordinates": [
          26.81944444,
          45.1625
        ]
      },
      "properties": {
        "label": "Buzău Power Station",
        "type": "power plant",
        "entity": "http://www.wikidata.org/entity/Q5003618",
        "country_qid": "Q218",
        "Wikidata Qid": "Q5003618"
      }
    },
    {
      "type": "Feature",
      "geometry": {
        "type": "Point",
        "coordinates": [
          21.328157104,
          46.221095988
        ]
      },
      "properties": {
        "label": "Arad Power Station",
        "type": "power plant",
        "entity": "http://www.wikidata.org/entity/Q4783611",
        "country_qid": "Q218",
        "Wikidata Qid": "Q4783611"
      }
    },
    {
      "type": "Feature",
      "geometry": {
        "type": "Point",
        "coordinates": [
          26.4,
          44.83333333
        ]
      },
      "properties": {
        "label": "Ciorani Solar Park",
        "type": "power plant",
        "entity": "http://www.wikidata.org/entity/Q5121218",
        "country_qid": "Q218",
        "Wikidata Qid": "Q5121218"
      }
    },
    {
      "type": "Feature",
      "geometry": {
        "type": "Point",
        "coordinates": [
          26.297222,
          47.651944
        ]
      },
      "properties": {
        "label": "Q12742132",
        "type": "power plant",
        "entity": "http://www.wikidata.org/entity/Q12742132",
        "country_qid": "Q218",
        "Wikidata Qid": "Q12742132"
      }
    },
    {
      "type": "Feature",
      "geometry": {
        "type": "Point",
        "coordinates": [
          25.78333333,
          45.85
        ]
      },
      "properties": {
        "label": "Sfântu Gheorghe Solar Park",
        "type": "power plant",
        "entity": "http://www.wikidata.org/entity/Q7459741",
        "country_qid": "Q218",
        "Wikidata Qid": "Q7459741"
      }
    },
    {
      "type": "Feature",
      "geometry": {
        "type": "Point",
        "coordinates": [
          22.52916667,
          44.67083333
        ]
      },
      "properties": {
        "label": "Iron Gate I Hydroelectric Power Station",
        "type": "power plant",
        "entity": "http://www.wikidata.org/entity/Q1289417",
        "country_qid": "Q218",
        "Wikidata Qid": "Q1289417"
      }
    },
    {
      "type": "Feature",
      "geometry": {
        "type": "Point",
        "coordinates": [
          28.68972222,
          44.90166667
        ]
      },
      "properties": {
        "label": "Babadag Wind Farm",
        "type": "power plant",
        "entity": "http://www.wikidata.org/entity/Q4837422",
        "country_qid": "Q218",
        "Wikidata Qid": "Q4837422"
      }
    },
    {
      "type": "Feature",
      "geometry": {
        "type": "Point",
        "coordinates": [
          23.71810833,
          44.38768889
        ]
      },
      "properties": {
        "label": "Ișalnița Power Station",
        "type": "power plant",
        "entity": "http://www.wikidata.org/entity/Q6103516",
        "country_qid": "Q218",
        "Wikidata Qid": "Q6103516"
      }
    },
    {
      "type": "Feature",
      "geometry": {
        "type": "Point",
        "coordinates": [
          25.181944444,
          44.701111111
        ]
      },
      "properties": {
        "label": "Rătești Solar Park",
        "type": "power plant",
        "entity": "http://www.wikidata.org/entity/Q123560569",
        "country_qid": "Q218",
        "Wikidata Qid": "Q123560569"
      }
    },
    {
      "type": "Feature",
      "geometry": {
        "type": "Point",
        "coordinates": [
          27.59166667,
          47.15833333
        ]
      },
      "properties": {
        "label": "Iași I Power Station",
        "type": "power plant",
        "entity": "http://www.wikidata.org/entity/Q5983522",
        "country_qid": "Q218",
        "Wikidata Qid": "Q5983522"
      }
    },
    {
      "type": "Feature",
      "geometry": {
        "type": "Point",
        "coordinates": [
          23.48333333,
          45.93333333
        ]
      },
      "properties": {
        "label": "Pianu Solar Park",
        "type": "power plant",
        "entity": "http://www.wikidata.org/entity/Q7190224",
        "country_qid": "Q218",
        "Wikidata Qid": "Q7190224"
      }
    },
    {
      "type": "Feature",
      "geometry": {
        "type": "Point",
        "coordinates": [
          24.86666667,
          44.85833333
        ]
      },
      "properties": {
        "label": "Palas Power Station",
        "type": "power plant",
        "entity": "http://www.wikidata.org/entity/Q7126744",
        "country_qid": "Q218",
        "Wikidata Qid": "Q7126744"
      }
    },
    {
      "type": "Feature",
      "geometry": {
        "type": "Point",
        "coordinates": [
          28.04733333,
          44.21008333
        ]
      },
      "properties": {
        "label": "EDP Peștera Wind Farm",
        "type": "power plant",
        "entity": "http://www.wikidata.org/entity/Q5322865",
        "country_qid": "Q218",
        "Wikidata Qid": "Q5322865"
      }
    },
    {
      "type": "Feature",
      "geometry": {
        "type": "Point",
        "coordinates": [
          27.923889,
          45.166111
        ]
      },
      "properties": {
        "label": "Q106413917",
        "type": "power plant",
        "entity": "http://www.wikidata.org/entity/Q106413917",
        "country_qid": "Q218",
        "Wikidata Qid": "Q106413917"
      }
    },
    {
      "type": "Feature",
      "geometry": {
        "type": "Point",
        "coordinates": [
          26.938611,
          46.530833
        ]
      },
      "properties": {
        "label": "Q28726204",
        "type": "power plant",
        "entity": "http://www.wikidata.org/entity/Q28726204",
        "country_qid": "Q218",
        "Wikidata Qid": "Q28726204"
      }
    },
    {
      "type": "Feature",
      "geometry": {
        "type": "Point",
        "coordinates": [
          24.188083,
          46.467229
        ]
      },
      "properties": {
        "label": "Iernut Power Station",
        "type": "power plant",
        "entity": "http://www.wikidata.org/entity/Q12723186",
        "country_qid": "Q218",
        "Wikidata Qid": "Q12723186"
      }
    },
    {
      "type": "Feature",
      "geometry": {
        "type": "Point",
        "coordinates": [
          24.86666667,
          44.85833333
        ]
      },
      "properties": {
        "label": "Pitești Sud Power Station",
        "type": "power plant",
        "entity": "http://www.wikidata.org/entity/Q7198916",
        "country_qid": "Q218",
        "Wikidata Qid": "Q7198916"
      }
    },
    {
      "type": "Feature",
      "geometry": {
        "type": "Point",
        "coordinates": [
          23.2617637,
          45.3654997
        ]
      },
      "properties": {
        "label": "Paroșeni Power Station",
        "type": "power plant",
        "entity": "http://www.wikidata.org/entity/Q7139610",
        "country_qid": "Q218",
        "Wikidata Qid": "Q7139610"
      }
    },
    {
      "type": "Feature",
      "geometry": {
        "type": "Point",
        "coordinates": [
          21.85,
          46.55
        ]
      },
      "properties": {
        "label": "Avram Iancu Solar Park",
        "type": "power plant",
        "entity": "http://www.wikidata.org/entity/Q4829440",
        "country_qid": "Q218",
        "Wikidata Qid": "Q4829440"
      }
    },
    {
      "type": "Feature",
      "geometry": {
        "type": "Point",
        "coordinates": [
          26.064167,
          44.440556
        ]
      },
      "properties": {
        "label": "Q106413914",
        "type": "power plant",
        "entity": "http://www.wikidata.org/entity/Q106413914",
        "country_qid": "Q218",
        "Wikidata Qid": "Q106413914"
      }
    },
    {
      "type": "Feature",
      "geometry": {
        "type": "Point",
        "coordinates": [
          28.56527778,
          44.59027778
        ]
      },
      "properties": {
        "label": "Fântânele-Cogealac Wind Farm",
        "type": "power plant",
        "entity": "http://www.wikidata.org/entity/Q760828",
        "country_qid": "Q218",
        "Wikidata Qid": "Q760828"
      }
    },
    {
      "type": "Feature",
      "geometry": {
        "type": "Point",
        "coordinates": [
          22.826111,
          45.913889
        ]
      },
      "properties": {
        "label": "Q106413903",
        "type": "power plant",
        "entity": "http://www.wikidata.org/entity/Q106413903",
        "country_qid": "Q218",
        "Wikidata Qid": "Q106413903"
      }
    },
    {
      "type": "Feature",
      "geometry": {
        "type": "Point",
        "coordinates": [
          25.397778,
          45.0025
        ]
      },
      "properties": {
        "label": "Q106413901",
        "type": "power plant",
        "entity": "http://www.wikidata.org/entity/Q106413901",
        "country_qid": "Q218",
        "Wikidata Qid": "Q106413901"
      }
    },
    {
      "type": "Feature",
      "geometry": {
        "type": "Point",
        "coordinates": [
          26.15555556,
          44.40583333
        ]
      },
      "properties": {
        "label": "Bucharest South Power Station",
        "type": "power plant",
        "entity": "http://www.wikidata.org/entity/Q4982654",
        "country_qid": "Q218",
        "Wikidata Qid": "Q4982654"
      }
    },
    {
      "type": "Feature",
      "geometry": {
        "type": "Point",
        "coordinates": [
          27.720278,
          47.146667
        ]
      },
      "properties": {
        "label": "Q106413896",
        "type": "power plant",
        "entity": "http://www.wikidata.org/entity/Q106413896",
        "country_qid": "Q218",
        "Wikidata Qid": "Q106413896"
      }
    },
    {
      "type": "Feature",
      "geometry": {
        "type": "Point",
        "coordinates": [
          26.06277778,
          44.44027778
        ]
      },
      "properties": {
        "label": "Grozăvești Power Station",
        "type": "power plant",
        "entity": "http://www.wikidata.org/entity/Q5611794",
        "country_qid": "Q218",
        "Wikidata Qid": "Q5611794"
      }
    },
    {
      "type": "Feature",
      "geometry": {
        "type": "Point",
        "coordinates": [
          21.984722,
          47.027222
        ]
      },
      "properties": {
        "label": "Q106413891",
        "type": "power plant",
        "entity": "http://www.wikidata.org/entity/Q106413891",
        "country_qid": "Q218",
        "Wikidata Qid": "Q106413891"
      }
    },
    {
      "type": "Feature",
      "geometry": {
        "type": "Point",
        "coordinates": [
          25.95,
          44.23333333
        ]
      },
      "properties": {
        "label": "Singureni Solar Park",
        "type": "power plant",
        "entity": "http://www.wikidata.org/entity/Q7524292",
        "country_qid": "Q218",
        "Wikidata Qid": "Q7524292"
      }
    },
    {
      "type": "Feature",
      "geometry": {
        "type": "Point",
        "coordinates": [
          21.265,
          45.7581
        ]
      },
      "properties": {
        "label": "Hydroelectric plant in Timișoara",
        "type": "power plant",
        "entity": "http://www.wikidata.org/entity/Q26257383",
        "country_qid": "Q218",
        "Wikidata Qid": "Q26257383"
      }
    },
    {
      "type": "Feature",
      "geometry": {
        "type": "Point",
        "coordinates": [
          25.540241003,
          45.419012665
        ]
      },
      "properties": {
        "label": "Busteni Hydroelectric substation building (Electrica)",
        "type": "Electrical substation",
        "entity": "http://www.wikidata.org/entity/Q118467485",
        "country_qid": "Q218",
        "Wikidata Qid": "Q118467485"
      }
    },
    {
      "type": "Feature",
      "geometry": {
        "type": "Point",
        "coordinates": [
          25.793715119,
          45.026311573
        ]
      },
      "properties": {
        "label": "Florești electrical substation",
        "type": "Electrical substation",
        "entity": "http://www.wikidata.org/entity/Q113321706",
        "country_qid": "Q218",
        "Wikidata Qid": "Q113321706"
      }
    },
    {
      "type": "Feature",
      "geometry": {
        "type": "Point",
        "coordinates": [
          26.02527778,
          44.45555556
        ]
      },
      "properties": {
        "label": "Morii Lake",
        "type": "Reservoir",
        "entity": "http://www.wikidata.org/entity/Q1148231",
        "country_qid": "Q218",
        "Wikidata Qid": "Q1148231"
      }
    },
    {
      "type": "Feature",
      "geometry": {
        "type": "Point",
        "coordinates": [
          26.054080555,
          47.019588888
        ]
      },
      "properties": {
        "label": "Lake Izvorul Muntelui",
        "type": "Reservoir",
        "entity": "http://www.wikidata.org/entity/Q854060",
        "country_qid": "Q218",
        "Wikidata Qid": "Q854060"
      }
    },
    {
      "type": "Feature",
      "geometry": {
        "type": "Point",
        "coordinates": [
          22.143,
          45.214
        ]
      },
      "properties": {
        "label": "Trei Ape",
        "type": "Reservoir",
        "entity": "http://www.wikidata.org/entity/Q28726082",
        "country_qid": "Q218",
        "Wikidata Qid": "Q28726082"
      }
    },
    {
      "type": "Feature",
      "geometry": {
        "type": "Point",
        "coordinates": [
          24.62208,
          45.41797
        ]
      },
      "properties": {
        "label": "Lacul Vidraru",
        "type": "Reservoir",
        "entity": "http://www.wikidata.org/entity/Q34897195",
        "country_qid": "Q218",
        "Wikidata Qid": "Q34897195"
      }
    },
    {
      "type": "Feature",
      "geometry": {
        "type": "Point",
        "coordinates": [
          26.0719,
          44.4923
        ]
      },
      "properties": {
        "label": "Lake Băneasa",
        "type": "Reservoir",
        "entity": "http://www.wikidata.org/entity/Q3214777",
        "country_qid": "Q218",
        "Wikidata Qid": "Q3214777"
      }
    },
    {
      "type": "Feature",
      "geometry": {
        "type": "Point",
        "coordinates": [
          23.278055555,
          46.721111111
        ]
      },
      "properties": {
        "label": "Lake Tarnița",
        "type": "Reservoir",
        "entity": "http://www.wikidata.org/entity/Q13534398",
        "country_qid": "Q218",
        "Wikidata Qid": "Q13534398"
      }
    },
    {
      "type": "Feature",
      "geometry": {
        "type": "Point",
        "coordinates": [
          25.9375,
          45.8829
        ]
      },
      "properties": {
        "label": "Q793992",
        "type": "Reservoir",
        "entity": "http://www.wikidata.org/entity/Q793992",
        "country_qid": "Q218",
        "Wikidata Qid": "Q793992"
      }
    },
    {
      "type": "Feature",
      "geometry": {
        "type": "Point",
        "coordinates": [
          22.14583333,
          45.75777778
        ]
      },
      "properties": {
        "label": "Surduc Lake",
        "type": "Reservoir",
        "entity": "http://www.wikidata.org/entity/Q12731887",
        "country_qid": "Q218",
        "Wikidata Qid": "Q12731887"
      }
    },
    {
      "type": "Feature",
      "geometry": {
        "type": "Point",
        "coordinates": [
          26.25,
          45.5
        ]
      },
      "properties": {
        "label": "Lake Siriu",
        "type": "Reservoir",
        "entity": "http://www.wikidata.org/entity/Q6272651",
        "country_qid": "Q218",
        "Wikidata Qid": "Q6272651"
      }
    },
    {
      "type": "Feature",
      "geometry": {
        "type": "Point",
        "coordinates": [
          24.633333333,
          45.383333333
        ]
      },
      "properties": {
        "label": "Lake Vidraru",
        "type": "Reservoir",
        "entity": "http://www.wikidata.org/entity/Q511976",
        "country_qid": "Q218",
        "Wikidata Qid": "Q511976"
      }
    },
    {
      "type": "Feature",
      "geometry": {
        "type": "Point",
        "coordinates": [
          24.078349,
          45.353823
        ]
      },
      "properties": {
        "label": "Brădișor Reservoir",
        "type": "Reservoir",
        "entity": "http://www.wikidata.org/entity/Q61084992",
        "country_qid": "Q218",
        "Wikidata Qid": "Q61084992"
      }
    },
    {
      "type": "Feature",
      "geometry": {
        "type": "Point",
        "coordinates": [
          22.740037,
          45.16676
        ]
      },
      "properties": {
        "label": "Q98086394",
        "type": "Reservoir",
        "entity": "http://www.wikidata.org/entity/Q98086394",
        "country_qid": "Q218",
        "Wikidata Qid": "Q98086394"
      }
    },
    {
      "type": "Feature",
      "geometry": {
        "type": "Point",
        "coordinates": [
          26.07713,
          44.47281
        ]
      },
      "properties": {
        "label": "Q12735818",
        "type": "Industrial building",
        "entity": "http://www.wikidata.org/entity/Q12735818",
        "country_qid": "Q218",
        "Wikidata Qid": "Q12735818"
      }
    },
    {
      "type": "Feature",
      "geometry": {
        "type": "Point",
        "coordinates": [
          28.774722,
          44.5475
        ]
      },
      "properties": {
        "label": "Istrus",
        "type": "Industrial building",
        "entity": "http://www.wikidata.org/entity/Q127430471",
        "country_qid": "Q218",
        "Wikidata Qid": "Q127430471"
      }
    },
    {
      "type": "Feature",
      "geometry": {
        "type": "Point",
        "coordinates": [
          26.0603992,
          44.4490807
        ]
      },
      "properties": {
        "label": "\"Belvedere\" Cigarette Factory",
        "type": "Industrial building",
        "entity": "http://www.wikidata.org/entity/Q26257191",
        "country_qid": "Q218",
        "Wikidata Qid": "Q26257191"
      }
    },
    {
      "type": "Feature",
      "geometry": {
        "type": "Point",
        "coordinates": [
          24.108056,
          46.08666
        ]
      },
      "properties": {
        "label": "Micasasa (Samian Ware Productioncentre)",
        "type": "Industrial building",
        "entity": "http://www.wikidata.org/entity/Q103136239",
        "country_qid": "Q218",
        "Wikidata Qid": "Q103136239"
      }
    },
    {
      "type": "Feature",
      "geometry": {
        "type": "Point",
        "coordinates": [
          21.24919,
          45.754663
        ]
      },
      "properties": {
        "label": "Timișoara Brewery",
        "type": "Industrial building",
        "entity": "http://www.wikidata.org/entity/Q857829",
        "country_qid": "Q218",
        "Wikidata Qid": "Q857829"
      }
    },
    {
      "type": "Feature",
      "geometry": {
        "type": "Point",
        "coordinates": [
          26.442847222,
          46.360094444
        ]
      },
      "properties": {
        "label": "Dărmănești oil refinery",
        "type": "Industrial building",
        "entity": "http://www.wikidata.org/entity/Q18547291",
        "country_qid": "Q218",
        "Wikidata Qid": "Q18547291"
      }
    },
    {
      "type": "Feature",
      "geometry": {
        "type": "Point",
        "coordinates": [
          23.782346,
          46.878792
        ]
      },
      "properties": {
        "label": "Cluj Nokia plant",
        "type": "Industrial building",
        "entity": "http://www.wikidata.org/entity/Q1995582",
        "country_qid": "Q218",
        "Wikidata Qid": "Q1995582"
      }
    },
    {
      "type": "Feature",
      "geometry": {
        "type": "Point",
        "coordinates": [
          22.787654,
          45.517354
        ]
      },
      "properties": {
        "label": "Sarmizegetusa",
        "type": "Industrial building",
        "entity": "http://www.wikidata.org/entity/Q127431195",
        "country_qid": "Q218",
        "Wikidata Qid": "Q127431195"
      }
    },
    {
      "type": "Feature",
      "geometry": {
        "type": "Point",
        "coordinates": [
          25.49,
          43.85
        ]
      },
      "properties": {
        "label": "Geto-Dacian",
        "type": "Industrial building",
        "entity": "http://www.wikidata.org/entity/Q127430291",
        "country_qid": "Q218",
        "Wikidata Qid": "Q127430291"
      }
    },
    {
      "type": "Feature",
      "geometry": {
        "type": "Point",
        "coordinates": [
          26.12114306,
          44.45338889
        ]
      },
      "properties": {
        "label": "Assan's Mill, Bucharest",
        "type": "Industrial building",
        "entity": "http://www.wikidata.org/entity/Q18541951",
        "country_qid": "Q218",
        "Wikidata Qid": "Q18541951"
      }
    },
    {
      "type": "Feature",
      "geometry": {
        "type": "Point",
        "coordinates": [
          21.902888888,
          45.294694444
        ]
      },
      "properties": {
        "label": "Reșița works",
        "type": "Industrial building",
        "entity": "http://www.wikidata.org/entity/Q75337",
        "country_qid": "Q218",
        "Wikidata Qid": "Q75337"
      }
    },
    {
      "type": "Feature",
      "geometry": {
        "type": "Point",
        "coordinates": [
          24.9275,
          44.9475
        ]
      },
      "properties": {
        "label": "Q3552582",
        "type": "Industrial building",
        "entity": "http://www.wikidata.org/entity/Q3552582",
        "country_qid": "Q218",
        "Wikidata Qid": "Q3552582"
      }
    },
    {
      "type": "Feature",
      "geometry": {
        "type": "Point",
        "coordinates": [
          28.638299,
          44.173224
        ]
      },
      "properties": {
        "label": "Tomis",
        "type": "Industrial building",
        "entity": "http://www.wikidata.org/entity/Q127431449",
        "country_qid": "Q218",
        "Wikidata Qid": "Q127431449"
      }
    },
    {
      "type": "Feature",
      "geometry": {
        "type": "Point",
        "coordinates": [
          24.93,
          44.8
        ]
      },
      "properties": {
        "label": "Arpechim Refinery",
        "type": "Industrial building",
        "entity": "http://www.wikidata.org/entity/Q4795740",
        "country_qid": "Q218",
        "Wikidata Qid": "Q4795740"
      }
    },
    {
      "type": "Feature",
      "geometry": {
        "type": "Point",
        "coordinates": [
          26.91353,
          46.562791
        ]
      },
      "properties": {
        "label": "Palatul Municipal",
        "type": "Industrial building",
        "entity": "http://www.wikidata.org/entity/Q81840544",
        "country_qid": "Q218",
        "Wikidata Qid": "Q81840544"
      }
    },
    {
      "type": "Feature",
      "geometry": {
        "type": "Point",
        "coordinates": [
          23.60538889,
          47.65291667
        ]
      },
      "properties": {
        "label": "Phoenix Copper Smelter",
        "type": "Industrial building",
        "entity": "http://www.wikidata.org/entity/Q626726",
        "country_qid": "Q218",
        "Wikidata Qid": "Q626726"
      }
    },
    {
      "type": "Feature",
      "geometry": {
        "type": "Point",
        "coordinates": [
          28.085805555,
          45.44375
        ]
      },
      "properties": {
        "label": "Damen Shipyards Galați",
        "type": "Industrial building",
        "entity": "http://www.wikidata.org/entity/Q4686063",
        "country_qid": "Q218",
        "Wikidata Qid": "Q4686063"
      }
    },
    {
      "type": "Feature",
      "geometry": {
        "type": "Point",
        "coordinates": [
          21.61806,
          44.72528
        ]
      },
      "properties": {
        "label": "Modava Nouă",
        "type": "Industrial building",
        "entity": "http://www.wikidata.org/entity/Q127430756",
        "country_qid": "Q218",
        "Wikidata Qid": "Q127430756"
      }
    },
    {
      "type": "Feature",
      "geometry": {
        "type": "Point",
        "coordinates": [
          27.961407,
          45.245637
        ]
      },
      "properties": {
        "label": "Vard Brăila",
        "type": "Industrial building",
        "entity": "http://www.wikidata.org/entity/Q55402501",
        "country_qid": "Q218",
        "Wikidata Qid": "Q55402501"
      }
    },
    {
      "type": "Feature",
      "geometry": {
        "type": "Point",
        "coordinates": [
          27.328781679,
          44.192458915
        ]
      },
      "properties": {
        "label": "Q42870702",
        "type": "Industrial building",
        "entity": "http://www.wikidata.org/entity/Q42870702",
        "country_qid": "Q218",
        "Wikidata Qid": "Q42870702"
      }
    },
    {
      "type": "Feature",
      "geometry": {
        "type": "Point",
        "coordinates": [
          28.58275,
          43.817152
        ]
      },
      "properties": {
        "label": "Callatis",
        "type": "Industrial building",
        "entity": "http://www.wikidata.org/entity/Q127429838",
        "country_qid": "Q218",
        "Wikidata Qid": "Q127429838"
      }
    },
    {
      "type": "Feature",
      "geometry": {
        "type": "Point",
        "coordinates": [
          21.2054,
          45.747
        ]
      },
      "properties": {
        "label": "Cigarette factory, Timișoara",
        "type": "Industrial building",
        "entity": "http://www.wikidata.org/entity/Q96074706",
        "country_qid": "Q218",
        "Wikidata Qid": "Q96074706"
      }
    },
    {
      "type": "Feature",
      "geometry": {
        "type": "Point",
        "coordinates": [
          27.2270182,
          47.839837
        ]
      },
      "properties": {
        "label": "Stânca-Costești Dam",
        "type": "Industrial building",
        "entity": "http://www.wikidata.org/entity/Q7629892",
        "country_qid": "Q218",
        "Wikidata Qid": "Q7629892"
      }
    },
    {
      "type": "Feature",
      "geometry": {
        "type": "Point",
        "coordinates": [
          22.8425,
          44.67806
        ]
      },
      "properties": {
        "label": "Husnicioara Coal Mine",
        "type": "Mine",
        "entity": "http://www.wikidata.org/entity/Q5949447",
        "country_qid": "Q218",
        "Wikidata Qid": "Q5949447"
      }
    },
    {
      "type": "Feature",
      "geometry": {
        "type": "Point",
        "coordinates": [
          23.261666666,
          45.368055555
        ]
      },
      "properties": {
        "label": "Paroșeni Coal Mine",
        "type": "Mine",
        "entity": "http://www.wikidata.org/entity/Q7139598",
        "country_qid": "Q218",
        "Wikidata Qid": "Q7139598"
      }
    },
    {
      "type": "Feature",
      "geometry": {
        "type": "Point",
        "coordinates": [
          23.08,
          46.18
        ]
      },
      "properties": {
        "label": "Țarina mine",
        "type": "Mine",
        "entity": "http://www.wikidata.org/entity/Q16901247",
        "country_qid": "Q218",
        "Wikidata Qid": "Q16901247"
      }
    },
    {
      "type": "Feature",
      "geometry": {
        "type": "Point",
        "coordinates": [
          25.1204234,
          46.5508052
        ]
      },
      "properties": {
        "label": "Salt Mine Praid",
        "type": "Mine",
        "entity": "http://www.wikidata.org/entity/Q12740346",
        "country_qid": "Q218",
        "Wikidata Qid": "Q12740346"
      }
    },
    {
      "type": "Feature",
      "geometry": {
        "type": "Point",
        "coordinates": [
          24.3093897,
          45.0850778
        ]
      },
      "properties": {
        "label": "Ocnele Mari mine",
        "type": "Mine",
        "entity": "http://www.wikidata.org/entity/Q16979483",
        "country_qid": "Q218",
        "Wikidata Qid": "Q16979483"
      }
    },
    {
      "type": "Feature",
      "geometry": {
        "type": "Point",
        "coordinates": [
          22.52,
          46.07
        ]
      },
      "properties": {
        "label": "Cireșata mine",
        "type": "Mine",
        "entity": "http://www.wikidata.org/entity/Q5121882",
        "country_qid": "Q218",
        "Wikidata Qid": "Q5121882"
      }
    },
    {
      "type": "Feature",
      "geometry": {
        "type": "Point",
        "coordinates": [
          23.7874,
          46.5877
        ]
      },
      "properties": {
        "label": "Salina Turda",
        "type": "Mine",
        "entity": "http://www.wikidata.org/entity/Q1855800",
        "country_qid": "Q218",
        "Wikidata Qid": "Q1855800"
      }
    },
    {
      "type": "Feature",
      "geometry": {
        "type": "Point",
        "coordinates": [
          25.9425,
          45.23555556
        ]
      },
      "properties": {
        "label": "Slănic mine",
        "type": "Mine",
        "entity": "http://www.wikidata.org/entity/Q7404638",
        "country_qid": "Q218",
        "Wikidata Qid": "Q7404638"
      }
    },
    {
      "type": "Feature",
      "geometry": {
        "type": "Point",
        "coordinates": [
          23.11,
          45.47
        ]
      },
      "properties": {
        "label": "Colnic mine",
        "type": "Mine",
        "entity": "http://www.wikidata.org/entity/Q5147792",
        "country_qid": "Q218",
        "Wikidata Qid": "Q5147792"
      }
    },
    {
      "type": "Feature",
      "geometry": {
        "type": "Point",
        "coordinates": [
          22.85,
          46.09
        ]
      },
      "properties": {
        "label": "Rovina mine",
        "type": "Mine",
        "entity": "http://www.wikidata.org/entity/Q7371721",
        "country_qid": "Q218",
        "Wikidata Qid": "Q7371721"
      }
    },
    {
      "type": "Feature",
      "geometry": {
        "type": "Point",
        "coordinates": [
          23.30986,
          45.40827
        ]
      },
      "properties": {
        "label": "Aninoasa coal mine",
        "type": "Mine",
        "entity": "http://www.wikidata.org/entity/Q16251326",
        "country_qid": "Q218",
        "Wikidata Qid": "Q16251326"
      }
    },
    {
      "type": "Feature",
      "geometry": {
        "type": "Point",
        "coordinates": [
          22.62833333,
          46.48
        ]
      },
      "properties": {
        "label": "Băița mine",
        "type": "Mine",
        "entity": "http://www.wikidata.org/entity/Q5005372",
        "country_qid": "Q218",
        "Wikidata Qid": "Q5005372"
      }
    },
    {
      "type": "Feature",
      "geometry": {
        "type": "Point",
        "coordinates": [
          23.8738124,
          47.6425779
        ]
      },
      "properties": {
        "label": "Cavnic mine",
        "type": "Mine",
        "entity": "http://www.wikidata.org/entity/Q5055190",
        "country_qid": "Q218",
        "Wikidata Qid": "Q5055190"
      }
    },
    {
      "type": "Feature",
      "geometry": {
        "type": "Point",
        "coordinates": [
          27.902111111,
          44.094694444
        ]
      },
      "properties": {
        "label": "Urluia (Quarry)",
        "type": "Mine",
        "entity": "http://www.wikidata.org/entity/Q130547772",
        "country_qid": "Q218",
        "Wikidata Qid": "Q130547772"
      }
    },
    {
      "type": "Feature",
      "geometry": {
        "type": "Point",
        "coordinates": [
          23.176,
          46.264
        ]
      },
      "properties": {
        "label": "Rodu mine",
        "type": "Mine",
        "entity": "http://www.wikidata.org/entity/Q7357489",
        "country_qid": "Q218",
        "Wikidata Qid": "Q7357489"
      }
    },
    {
      "type": "Feature",
      "geometry": {
        "type": "Point",
        "coordinates": [
          25.8980849,
          47.6351073
        ]
      },
      "properties": {
        "label": "Cacica mine",
        "type": "Mine",
        "entity": "http://www.wikidata.org/entity/Q16256030",
        "country_qid": "Q218",
        "Wikidata Qid": "Q16256030"
      }
    },
    {
      "type": "Feature",
      "geometry": {
        "type": "Point",
        "coordinates": [
          23.176,
          46.264
        ]
      },
      "properties": {
        "label": "Frasin mine",
        "type": "Mine",
        "entity": "http://www.wikidata.org/entity/Q5493761",
        "country_qid": "Q218",
        "Wikidata Qid": "Q5493761"
      }
    },
    {
      "type": "Feature",
      "geometry": {
        "type": "Point",
        "coordinates": [
          24.17885,
          46.76062
        ]
      },
      "properties": {
        "label": "Sărmășel mine",
        "type": "Mine",
        "entity": "http://www.wikidata.org/entity/Q16984874",
        "country_qid": "Q218",
        "Wikidata Qid": "Q16984874"
      }
    },
    {
      "type": "Feature",
      "geometry": {
        "type": "Point",
        "coordinates": [
          25.612006625,
          47.351249527
        ]
      },
      "properties": {
        "label": "Crucea – Botușana mine",
        "type": "Mine",
        "entity": "http://www.wikidata.org/entity/Q5189760",
        "country_qid": "Q218",
        "Wikidata Qid": "Q5189760"
      }
    },
    {
      "type": "Feature",
      "geometry": {
        "type": "Point",
        "coordinates": [
          25.2362,
          47.1153
        ]
      },
      "properties": {
        "label": "Q76402870",
        "type": "Mine",
        "entity": "http://www.wikidata.org/entity/Q76402870",
        "country_qid": "Q218",
        "Wikidata Qid": "Q76402870"
      }
    },
    {
      "type": "Feature",
      "geometry": {
        "type": "Point",
        "coordinates": [
          23.171388888,
          46.314722222
        ]
      },
      "properties": {
        "label": "Roșia Poieni copper mine",
        "type": "Mine",
        "entity": "http://www.wikidata.org/entity/Q14457709",
        "country_qid": "Q218",
        "Wikidata Qid": "Q14457709"
      }
    },
    {
      "type": "Feature",
      "geometry": {
        "type": "Point",
        "coordinates": [
          25.9415576,
          45.2355862
        ]
      },
      "properties": {
        "label": "Gura Slănic mine",
        "type": "Mine",
        "entity": "http://www.wikidata.org/entity/Q16982954",
        "country_qid": "Q218",
        "Wikidata Qid": "Q16982954"
      }
    },
    {
      "type": "Feature",
      "geometry": {
        "type": "Point",
        "coordinates": [
          25.773639,
          45.141833
        ]
      },
      "properties": {
        "label": "Doftana salt mine",
        "type": "Mine",
        "entity": "http://www.wikidata.org/entity/Q51369610",
        "country_qid": "Q218",
        "Wikidata Qid": "Q51369610"
      }
    },
    {
      "type": "Feature",
      "geometry": {
        "type": "Point",
        "coordinates": [
          22.52,
          46.07
        ]
      },
      "properties": {
        "label": "Săcărâmb mine",
        "type": "Mine",
        "entity": "http://www.wikidata.org/entity/Q7666820",
        "country_qid": "Q218",
        "Wikidata Qid": "Q7666820"
      }
    },
    {
      "type": "Feature",
      "geometry": {
        "type": "Point",
        "coordinates": [
          22.9,
          45.87
        ]
      },
      "properties": {
        "label": "Certej Mine",
        "type": "Mine",
        "entity": "http://www.wikidata.org/entity/Q5065061",
        "country_qid": "Q218",
        "Wikidata Qid": "Q5065061"
      }
    },
    {
      "type": "Feature",
      "geometry": {
        "type": "Point",
        "coordinates": [
          26.6032927,
          46.2875935
        ]
      },
      "properties": {
        "label": "Târgu Ocna mine",
        "type": "Mine",
        "entity": "http://www.wikidata.org/entity/Q28726305",
        "country_qid": "Q218",
        "Wikidata Qid": "Q28726305"
      }
    },
    {
      "type": "Feature",
      "geometry": {
        "type": "Point",
        "coordinates": [
          26.1094667,
          44.4291253
        ]
      },
      "properties": {
        "label": "Transelectrica",
        "type": "transmission system operator (TSO)",
        "entity": "http://www.wikidata.org/entity/Q750324",
        "country_qid": "Q218",
        "Wikidata Qid": "Q750324"
      }
    },
    {
      "type": "Feature",
      "geometry": {
        "type": "Point",
        "coordinates": [
          28.623611111,
          44.036666666
        ]
      },
      "properties": {
        "label": "Techirghiol TV Tower",
        "type": "Communication tower",
        "entity": "http://www.wikidata.org/entity/Q7692206",
        "country_qid": "Q218",
        "Wikidata Qid": "Q7692206"
      }
    }
  ]
}