{
  "type": "FeatureCollection",
  "features": [
    {
      "type": "Feature",
      "geometry": {
        "type": "Point",
        "coordinates": [
          -60.961027777,
          13.737527777
        ]
      },
      "properties": {
        "label": "Vieux Fort Solar Farm",
        "type": "power plant",
        "entity": "http://www.wikidata.org/entity/Q118418687",
        "country_qid": "Q760"
      }
    },
    {
      "type": "Feature",
      "geometry": {
        "type": "Point",
        "coordinates": [
          -61.007472222,
          13.976638888
        ]
      },
      "properties": {
        "label": "Cul De Sac Power Station",
        "type": "power plant",
        "entity": "http://www.wikidata.org/entity/Q118414948",
        "country_qid": "Q760"
      }
    },
    {
      "type": "Feature",
      "geometry": {
        "type": "Point",
        "coordinates": [
          -60.98796111,
          13.90034722
        ]
      },
      "properties": {
        "label": "Roseau Dam",
        "type": "Hydraulic structure",
        "entity": "http://www.wikidata.org/entity/Q27439089",
        "country_qid": "Q760"
      }
    },
    {
      "type": "Feature",
      "geometry": {
        "type": "Point",
        "coordinates": [
          -61.016666666,
          13.983333333
        ]
      },
      "properties": {
        "label": "Grand Cul de Sac Bay",
        "type": "Hydraulic structure",
        "entity": "http://www.wikidata.org/entity/Q27439192",
        "country_qid": "Q760"
      }
    },
    {
      "type": "Feature",
      "geometry": {
        "type": "Point",
        "coordinates": [
          -61.0,
          14.016666666
        ]
      },
      "properties": {
        "label": "Castries",
        "type": "Hydraulic structure",
        "entity": "http://www.wikidata.org/entity/Q111386474",
        "country_qid": "Q760"
      }
    },
    {
      "type": "Feature",
      "geometry": {
        "type": "Point",
        "coordinates": [
          -60.966666666,
          13.716666666
        ]
      },
      "properties": {
        "label": "Vieux Fort",
        "type": "Hydraulic structure",
        "entity": "http://www.wikidata.org/entity/Q111386473",
        "country_qid": "Q760"
      }
    }
  ]
}