{
  "type": "FeatureCollection",
  "features": [
    {
      "type": "Feature",
      "geometry": {
        "type": "Point",
        "coordinates": [
          -12.196666666,
          12.399166666
        ]
      },
      "properties": {
        "label": "Sambangalou Hydroelectric Power Station",
        "type": "power plant",
        "entity": "http://www.wikidata.org/entity/Q104880424",
        "country_qid": "Q1041"
      }
    },
    {
      "type": "Feature",
      "geometry": {
        "type": "Point",
        "coordinates": [
          -16.676306,
          15.129667
        ]
      },
      "properties": {
        "label": "Senergy 1",
        "type": "power plant",
        "entity": "http://www.wikidata.org/entity/Q53618155",
        "country_qid": "Q1041"
      }
    },
    {
      "type": "Feature",
      "geometry": {
        "type": "Point",
        "coordinates": [
          -17.21762778,
          14.68906389
        ]
      },
      "properties": {
        "label": "Sendou power station",
        "type": "power plant",
        "entity": "http://www.wikidata.org/entity/Q7450246",
        "country_qid": "Q1041"
      }
    },
    {
      "type": "Feature",
      "geometry": {
        "type": "Point",
        "coordinates": [
          -15.466388888,
          16.516666666
        ]
      },
      "properties": {
        "label": "Senergy 2",
        "type": "power plant",
        "entity": "http://www.wikidata.org/entity/Q52430750",
        "country_qid": "Q1041"
      }
    },
    {
      "type": "Feature",
      "geometry": {
        "type": "Point",
        "coordinates": [
          -16.8617687,
          15.0070025
        ]
      },
      "properties": {
        "label": "Q56372845",
        "type": "power plant",
        "entity": "http://www.wikidata.org/entity/Q56372845",
        "country_qid": "Q1041"
      }
    },
    {
      "type": "Feature",
      "geometry": {
        "type": "Point",
        "coordinates": [
          -17.301694444,
          14.719805555
        ]
      },
      "properties": {
        "label": "Q56372881",
        "type": "power plant",
        "entity": "http://www.wikidata.org/entity/Q56372881",
        "country_qid": "Q1041"
      }
    },
    {
      "type": "Feature",
      "geometry": {
        "type": "Point",
        "coordinates": [
          -17.299472222,
          14.7195
        ]
      },
      "properties": {
        "label": "Q56372858",
        "type": "power plant",
        "entity": "http://www.wikidata.org/entity/Q56372858",
        "country_qid": "Q1041"
      }
    },
    {
      "type": "Feature",
      "geometry": {
        "type": "Point",
        "coordinates": [
          -17.103055555,
          14.652777777
        ]
      },
      "properties": {
        "label": "Diass Solar Power Station",
        "type": "power plant",
        "entity": "http://www.wikidata.org/entity/Q112427424",
        "country_qid": "Q1041"
      }
    },
    {
      "type": "Feature",
      "geometry": {
        "type": "Point",
        "coordinates": [
          -16.881111111,
          15.049444444
        ]
      },
      "properties": {
        "label": "Taiba N'Diaye Wind Power Station",
        "type": "power plant",
        "entity": "http://www.wikidata.org/entity/Q96407595",
        "country_qid": "Q1041"
      }
    },
    {
      "type": "Feature",
      "geometry": {
        "type": "Point",
        "coordinates": [
          -16.032861111,
          14.167527777
        ]
      },
      "properties": {
        "label": "Q56372890",
        "type": "power plant",
        "entity": "http://www.wikidata.org/entity/Q56372890",
        "country_qid": "Q1041"
      }
    },
    {
      "type": "Feature",
      "geometry": {
        "type": "Point",
        "coordinates": [
          -17.435694444,
          14.690027777
        ]
      },
      "properties": {
        "label": "Q56372883",
        "type": "power plant",
        "entity": "http://www.wikidata.org/entity/Q56372883",
        "country_qid": "Q1041"
      }
    },
    {
      "type": "Feature",
      "geometry": {
        "type": "Point",
        "coordinates": [
          -17.2663125,
          14.7436491
        ]
      },
      "properties": {
        "label": "Kounoune power station",
        "type": "power plant",
        "entity": "http://www.wikidata.org/entity/Q6434653",
        "country_qid": "Q1041"
      }
    },
    {
      "type": "Feature",
      "geometry": {
        "type": "Point",
        "coordinates": [
          -16.935833333,
          14.473611111
        ]
      },
      "properties": {
        "label": "Q30744138",
        "type": "power plant",
        "entity": "http://www.wikidata.org/entity/Q30744138",
        "country_qid": "Q1041"
      }
    },
    {
      "type": "Feature",
      "geometry": {
        "type": "Point",
        "coordinates": [
          -16.336111111,
          14.486944444
        ]
      },
      "properties": {
        "label": "Niakhar Solar Power Station",
        "type": "power plant",
        "entity": "http://www.wikidata.org/entity/Q112578164",
        "country_qid": "Q1041"
      }
    },
    {
      "type": "Feature",
      "geometry": {
        "type": "Point",
        "coordinates": [
          -17.2,
          14.8
        ]
      },
      "properties": {
        "label": "Thiaroye Aquifer",
        "type": "Reservoir",
        "entity": "http://www.wikidata.org/entity/Q134314382",
        "country_qid": "Q1041"
      }
    },
    {
      "type": "Feature",
      "geometry": {
        "type": "Point",
        "coordinates": [
          -15.683333333,
          16.466666666
        ]
      },
      "properties": {
        "label": "Q49244289",
        "type": "Hydraulic structure",
        "entity": "http://www.wikidata.org/entity/Q49244289",
        "country_qid": "Q1041"
      }
    },
    {
      "type": "Feature",
      "geometry": {
        "type": "Point",
        "coordinates": [
          -17.39852,
          14.66928
        ]
      },
      "properties": {
        "label": "Ȋle de Gorée Port",
        "type": "Hydraulic structure",
        "entity": "http://www.wikidata.org/entity/Q34967123",
        "country_qid": "Q1041"
      }
    },
    {
      "type": "Feature",
      "geometry": {
        "type": "Point",
        "coordinates": [
          -16.698333333,
          12.561083333
        ]
      },
      "properties": {
        "label": "Karabane",
        "type": "Hydraulic structure",
        "entity": "http://www.wikidata.org/entity/Q111387411",
        "country_qid": "Q1041"
      }
    },
    {
      "type": "Feature",
      "geometry": {
        "type": "Point",
        "coordinates": [
          -16.074722222,
          16.3975
        ]
      },
      "properties": {
        "label": "Barrage Boundoum",
        "type": "Hydraulic structure",
        "entity": "http://www.wikidata.org/entity/Q31911507",
        "country_qid": "Q1041"
      }
    },
    {
      "type": "Feature",
      "geometry": {
        "type": "Point",
        "coordinates": [
          -16.516666666,
          16.016666666
        ]
      },
      "properties": {
        "label": "St Louis",
        "type": "Hydraulic structure",
        "entity": "http://www.wikidata.org/entity/Q111387298",
        "country_qid": "Q1041"
      }
    },
    {
      "type": "Feature",
      "geometry": {
        "type": "Point",
        "coordinates": [
          -16.291824076,
          12.559341179
        ]
      },
      "properties": {
        "label": "Lyndiane",
        "type": "Hydraulic structure",
        "entity": "http://www.wikidata.org/entity/Q111386361",
        "country_qid": "Q1041"
      }
    },
    {
      "type": "Feature",
      "geometry": {
        "type": "Point",
        "coordinates": [
          -17.283333333,
          14.7
        ]
      },
      "properties": {
        "label": "Rufisque",
        "type": "Hydraulic structure",
        "entity": "http://www.wikidata.org/entity/Q111387413",
        "country_qid": "Q1041"
      }
    },
    {
      "type": "Feature",
      "geometry": {
        "type": "Point",
        "coordinates": [
          -16.472972,
          14.140556
        ]
      },
      "properties": {
        "label": "Ndakhonga",
        "type": "Hydraulic structure",
        "entity": "http://www.wikidata.org/entity/Q134883240",
        "country_qid": "Q1041"
      }
    },
    {
      "type": "Feature",
      "geometry": {
        "type": "Point",
        "coordinates": [
          -17.4278,
          14.6806
        ]
      },
      "properties": {
        "label": "Autonomous Port of Dakar",
        "type": "Hydraulic structure",
        "entity": "http://www.wikidata.org/entity/Q3398424",
        "country_qid": "Q1041"
      }
    },
    {
      "type": "Feature",
      "geometry": {
        "type": "Point",
        "coordinates": [
          -16.698722222,
          12.558972222
        ]
      },
      "properties": {
        "label": "Carabane",
        "type": "Hydraulic structure",
        "entity": "http://www.wikidata.org/entity/Q948468",
        "country_qid": "Q1041"
      }
    },
    {
      "type": "Feature",
      "geometry": {
        "type": "Point",
        "coordinates": [
          -17.459427,
          14.746341
        ]
      },
      "properties": {
        "label": "Village des Arts de Dakar",
        "type": "Industrial building",
        "entity": "http://www.wikidata.org/entity/Q3558979",
        "country_qid": "Q1041"
      }
    },
    {
      "type": "Feature",
      "geometry": {
        "type": "Point",
        "coordinates": [
          -17.503055555,
          14.724444444
        ]
      },
      "properties": {
        "label": "Mamelles Desalination Plant",
        "type": "Industrial building",
        "entity": "http://www.wikidata.org/entity/Q112659542",
        "country_qid": "Q1041"
      }
    },
    {
      "type": "Feature",
      "geometry": {
        "type": "Point",
        "coordinates": [
          -17.234444444,
          14.838888888
        ]
      },
      "properties": {
        "label": "Lake Retba",
        "type": "Mine",
        "entity": "http://www.wikidata.org/entity/Q1522557",
        "country_qid": "Q1041"
      }
    }
  ]
}