{
  "type": "FeatureCollection",
  "features": [
    {
      "type": "Feature",
      "geometry": {
        "type": "Point",
        "coordinates": [
          15.381388888,
          45.990555555
        ]
      },
      "properties": {
        "label": "Blanca Hydroelectric Power Plant",
        "type": "power plant",
        "entity": "http://www.wikidata.org/entity/Q20088141",
        "country_qid": "Q215",
        "Wikidata Qid": "Q20088141"
      }
    },
    {
      "type": "Feature",
      "geometry": {
        "type": "Point",
        "coordinates": [
          14.5454448,
          46.0576188
        ]
      },
      "properties": {
        "label": "Ljubljana Thermal Power Station",
        "type": "power plant",
        "entity": "http://www.wikidata.org/entity/Q1601480",
        "country_qid": "Q215",
        "Wikidata Qid": "Q1601480"
      }
    },
    {
      "type": "Feature",
      "geometry": {
        "type": "Point",
        "coordinates": [
          15.2239793,
          46.0447268
        ]
      },
      "properties": {
        "label": "Vrhovo Hydroelectric Power Plant",
        "type": "power plant",
        "entity": "http://www.wikidata.org/entity/Q12790972",
        "country_qid": "Q215",
        "Wikidata Qid": "Q12790972"
      }
    },
    {
      "type": "Feature",
      "geometry": {
        "type": "Point",
        "coordinates": [
          14.3624,
          46.248011111
        ]
      },
      "properties": {
        "label": "Kokra hydroelectric power station",
        "type": "power plant",
        "entity": "http://www.wikidata.org/entity/Q12790966",
        "country_qid": "Q215",
        "Wikidata Qid": "Q12790966"
      }
    },
    {
      "type": "Feature",
      "geometry": {
        "type": "Point",
        "coordinates": [
          15.4046638,
          46.5768309
        ]
      },
      "properties": {
        "label": "Ožbalt Hydroelectric Power Plant",
        "type": "power plant",
        "entity": "http://www.wikidata.org/entity/Q19933921",
        "country_qid": "Q215",
        "Wikidata Qid": "Q19933921"
      }
    },
    {
      "type": "Feature",
      "geometry": {
        "type": "Point",
        "coordinates": [
          13.66666667,
          46.08388889
        ]
      },
      "properties": {
        "label": "Avče Pumped Storage Plant",
        "type": "power plant",
        "entity": "http://www.wikidata.org/entity/Q1354486",
        "country_qid": "Q215",
        "Wikidata Qid": "Q1354486"
      }
    },
    {
      "type": "Feature",
      "geometry": {
        "type": "Point",
        "coordinates": [
          16.0337234,
          46.4026673
        ]
      },
      "properties": {
        "label": "Q12790963",
        "type": "power plant",
        "entity": "http://www.wikidata.org/entity/Q12790963",
        "country_qid": "Q215",
        "Wikidata Qid": "Q12790963"
      }
    },
    {
      "type": "Feature",
      "geometry": {
        "type": "Point",
        "coordinates": [
          14.334411111,
          45.944236111
        ]
      },
      "properties": {
        "label": "Q25941498",
        "type": "power plant",
        "entity": "http://www.wikidata.org/entity/Q25941498",
        "country_qid": "Q215",
        "Wikidata Qid": "Q25941498"
      }
    },
    {
      "type": "Feature",
      "geometry": {
        "type": "Point",
        "coordinates": [
          15.673521,
          46.560137
        ]
      },
      "properties": {
        "label": "Melje Hydroelectric Power Plant",
        "type": "power plant",
        "entity": "http://www.wikidata.org/entity/Q12795549",
        "country_qid": "Q215",
        "Wikidata Qid": "Q12795549"
      }
    },
    {
      "type": "Feature",
      "geometry": {
        "type": "Point",
        "coordinates": [
          14.564327211,
          46.049385779
        ]
      },
      "properties": {
        "label": "Fužine Hydroelectric Power Plant",
        "type": "power plant",
        "entity": "http://www.wikidata.org/entity/Q20521404",
        "country_qid": "Q215",
        "Wikidata Qid": "Q20521404"
      }
    },
    {
      "type": "Feature",
      "geometry": {
        "type": "Point",
        "coordinates": [
          15.786660555,
          46.447916388
        ]
      },
      "properties": {
        "label": "Zlatoličje Hydroelectric Power Plant",
        "type": "power plant",
        "entity": "http://www.wikidata.org/entity/Q12790976",
        "country_qid": "Q215",
        "Wikidata Qid": "Q12790976"
      }
    },
    {
      "type": "Feature",
      "geometry": {
        "type": "Point",
        "coordinates": [
          13.642658333,
          46.099261111
        ]
      },
      "properties": {
        "label": "Q19933911",
        "type": "power plant",
        "entity": "http://www.wikidata.org/entity/Q19933911",
        "country_qid": "Q215",
        "Wikidata Qid": "Q19933911"
      }
    },
    {
      "type": "Feature",
      "geometry": {
        "type": "Point",
        "coordinates": [
          15.60433333,
          46.56916667
        ]
      },
      "properties": {
        "label": "Maribor Island Hydroelectric Power Plant",
        "type": "power plant",
        "entity": "http://www.wikidata.org/entity/Q19933918",
        "country_qid": "Q215",
        "Wikidata Qid": "Q19933918"
      }
    },
    {
      "type": "Feature",
      "geometry": {
        "type": "Point",
        "coordinates": [
          15.588257205,
          45.89916046
        ]
      },
      "properties": {
        "label": "Brežice Hydroelectric Power Plant",
        "type": "power plant",
        "entity": "http://www.wikidata.org/entity/Q106413646",
        "country_qid": "Q215",
        "Wikidata Qid": "Q106413646"
      }
    },
    {
      "type": "Feature",
      "geometry": {
        "type": "Point",
        "coordinates": [
          15.456169287,
          46.558782284
        ]
      },
      "properties": {
        "label": "Fala Hydro Power Plant",
        "type": "power plant",
        "entity": "http://www.wikidata.org/entity/Q12790961",
        "country_qid": "Q215",
        "Wikidata Qid": "Q12790961"
      }
    },
    {
      "type": "Feature",
      "geometry": {
        "type": "Point",
        "coordinates": [
          13.68819444,
          46.11419444
        ]
      },
      "properties": {
        "label": "Q65194792",
        "type": "power plant",
        "entity": "http://www.wikidata.org/entity/Q65194792",
        "country_qid": "Q215",
        "Wikidata Qid": "Q65194792"
      }
    },
    {
      "type": "Feature",
      "geometry": {
        "type": "Point",
        "coordinates": [
          15.667067,
          46.705845
        ]
      },
      "properties": {
        "label": "Q12795548",
        "type": "power plant",
        "entity": "http://www.wikidata.org/entity/Q12795548",
        "country_qid": "Q215",
        "Wikidata Qid": "Q12795548"
      }
    },
    {
      "type": "Feature",
      "geometry": {
        "type": "Point",
        "coordinates": [
          15.0614,
          46.1258
        ]
      },
      "properties": {
        "label": "Trbovlje Power Station",
        "type": "power plant",
        "entity": "http://www.wikidata.org/entity/Q12804020",
        "country_qid": "Q215",
        "Wikidata Qid": "Q12804020"
      }
    },
    {
      "type": "Feature",
      "geometry": {
        "type": "Point",
        "coordinates": [
          14.126313888,
          46.410713888
        ]
      },
      "properties": {
        "label": "Moste Hydroelectric Power Station",
        "type": "power plant",
        "entity": "http://www.wikidata.org/entity/Q20522311",
        "country_qid": "Q215",
        "Wikidata Qid": "Q20522311"
      }
    },
    {
      "type": "Feature",
      "geometry": {
        "type": "Point",
        "coordinates": [
          13.67069444,
          46.10258333
        ]
      },
      "properties": {
        "label": "Q65194772",
        "type": "power plant",
        "entity": "http://www.wikidata.org/entity/Q65194772",
        "country_qid": "Q215",
        "Wikidata Qid": "Q65194772"
      }
    },
    {
      "type": "Feature",
      "geometry": {
        "type": "Point",
        "coordinates": [
          14.414047,
          46.145895
        ]
      },
      "properties": {
        "label": "Medvode Hydroelectric Power Plant",
        "type": "power plant",
        "entity": "http://www.wikidata.org/entity/Q64062510",
        "country_qid": "Q215",
        "Wikidata Qid": "Q64062510"
      }
    },
    {
      "type": "Feature",
      "geometry": {
        "type": "Point",
        "coordinates": [
          13.838267697,
          46.019485518
        ]
      },
      "properties": {
        "label": "Q134866184",
        "type": "power plant",
        "entity": "http://www.wikidata.org/entity/Q134866184",
        "country_qid": "Q215",
        "Wikidata Qid": "Q134866184"
      }
    },
    {
      "type": "Feature",
      "geometry": {
        "type": "Point",
        "coordinates": [
          15.15227778,
          46.59325
        ]
      },
      "properties": {
        "label": "Q12790980",
        "type": "power plant",
        "entity": "http://www.wikidata.org/entity/Q12790980",
        "country_qid": "Q215",
        "Wikidata Qid": "Q12790980"
      }
    },
    {
      "type": "Feature",
      "geometry": {
        "type": "Point",
        "coordinates": [
          14.408565,
          46.183933
        ]
      },
      "properties": {
        "label": "Mavčiče Hydroelectric Power Plant",
        "type": "power plant",
        "entity": "http://www.wikidata.org/entity/Q19933919",
        "country_qid": "Q215",
        "Wikidata Qid": "Q19933919"
      }
    },
    {
      "type": "Feature",
      "geometry": {
        "type": "Point",
        "coordinates": [
          14.460728,
          46.116456
        ]
      },
      "properties": {
        "label": "Česenj Hydroelectric Power Plant",
        "type": "power plant",
        "entity": "http://www.wikidata.org/entity/Q12790979",
        "country_qid": "Q215",
        "Wikidata Qid": "Q12790979"
      }
    },
    {
      "type": "Feature",
      "geometry": {
        "type": "Point",
        "coordinates": [
          15.478493833,
          45.997687833
        ]
      },
      "properties": {
        "label": "Brestanica Thermal Power Plant",
        "type": "power plant",
        "entity": "http://www.wikidata.org/entity/Q106706627",
        "country_qid": "Q215",
        "Wikidata Qid": "Q106706627"
      }
    },
    {
      "type": "Feature",
      "geometry": {
        "type": "Point",
        "coordinates": [
          15.51546944,
          45.93841389
        ]
      },
      "properties": {
        "label": "Krško Nuclear Power Plant",
        "type": "power plant",
        "entity": "http://www.wikidata.org/entity/Q474478",
        "country_qid": "Q215",
        "Wikidata Qid": "Q474478"
      }
    },
    {
      "type": "Feature",
      "geometry": {
        "type": "Point",
        "coordinates": [
          15.479722222,
          45.997222222
        ]
      },
      "properties": {
        "label": "Brestanica Thermoelectric Power Plant",
        "type": "power plant",
        "entity": "http://www.wikidata.org/entity/Q12804023",
        "country_qid": "Q215",
        "Wikidata Qid": "Q12804023"
      }
    },
    {
      "type": "Feature",
      "geometry": {
        "type": "Point",
        "coordinates": [
          15.281388888,
          46.017777777
        ]
      },
      "properties": {
        "label": "Boštanj Hydroelectric Power Plant",
        "type": "power plant",
        "entity": "http://www.wikidata.org/entity/Q12790958",
        "country_qid": "Q215",
        "Wikidata Qid": "Q12790958"
      }
    },
    {
      "type": "Feature",
      "geometry": {
        "type": "Point",
        "coordinates": [
          15.0168223,
          46.5863457
        ]
      },
      "properties": {
        "label": "Dravograd Hydroelectric Power Plant",
        "type": "power plant",
        "entity": "http://www.wikidata.org/entity/Q19933913",
        "country_qid": "Q215",
        "Wikidata Qid": "Q19933913"
      }
    },
    {
      "type": "Feature",
      "geometry": {
        "type": "Point",
        "coordinates": [
          14.51276228,
          46.055139837
        ]
      },
      "properties": {
        "label": "Ljubljana City power plant",
        "type": "power plant",
        "entity": "http://www.wikidata.org/entity/Q18755613",
        "country_qid": "Q215",
        "Wikidata Qid": "Q18755613"
      }
    },
    {
      "type": "Feature",
      "geometry": {
        "type": "Point",
        "coordinates": [
          13.654638888,
          45.984205555
        ]
      },
      "properties": {
        "label": "Solkan Hydroelectric Power Plant",
        "type": "power plant",
        "entity": "http://www.wikidata.org/entity/Q12790969",
        "country_qid": "Q215",
        "Wikidata Qid": "Q12790969"
      }
    },
    {
      "type": "Feature",
      "geometry": {
        "type": "Point",
        "coordinates": [
          15.053243615,
          46.372798094
        ]
      },
      "properties": {
        "label": "Šoštanj Power Plant",
        "type": "power plant",
        "entity": "http://www.wikidata.org/entity/Q19389753",
        "country_qid": "Q215",
        "Wikidata Qid": "Q19389753"
      }
    },
    {
      "type": "Feature",
      "geometry": {
        "type": "Point",
        "coordinates": [
          13.595436111,
          46.050888888
        ]
      },
      "properties": {
        "label": "Q19933924",
        "type": "power plant",
        "entity": "http://www.wikidata.org/entity/Q19933924",
        "country_qid": "Q215",
        "Wikidata Qid": "Q19933924"
      }
    },
    {
      "type": "Feature",
      "geometry": {
        "type": "Point",
        "coordinates": [
          15.27552778,
          46.5875
        ]
      },
      "properties": {
        "label": "Vuhred Hydroelectric Power Plant",
        "type": "power plant",
        "entity": "http://www.wikidata.org/entity/Q12790971",
        "country_qid": "Q215",
        "Wikidata Qid": "Q12790971"
      }
    },
    {
      "type": "Feature",
      "geometry": {
        "type": "Point",
        "coordinates": [
          15.4812807,
          45.974836
        ]
      },
      "properties": {
        "label": "Krško Hydroelectric Power Plant",
        "type": "power plant",
        "entity": "http://www.wikidata.org/entity/Q117244433",
        "country_qid": "Q215",
        "Wikidata Qid": "Q117244433"
      }
    },
    {
      "type": "Feature",
      "geometry": {
        "type": "Point",
        "coordinates": [
          14.505570545,
          46.04360555
        ]
      },
      "properties": {
        "label": "Q60357063",
        "type": "Electrical substation",
        "entity": "http://www.wikidata.org/entity/Q60357063",
        "country_qid": "Q215",
        "Wikidata Qid": "Q60357063"
      }
    },
    {
      "type": "Feature",
      "geometry": {
        "type": "Point",
        "coordinates": [
          14.523995002,
          46.048737666
        ]
      },
      "properties": {
        "label": "Q60357048",
        "type": "Electrical substation",
        "entity": "http://www.wikidata.org/entity/Q60357048",
        "country_qid": "Q215",
        "Wikidata Qid": "Q60357048"
      }
    },
    {
      "type": "Feature",
      "geometry": {
        "type": "Point",
        "coordinates": [
          14.515833333,
          45.785972222
        ]
      },
      "properties": {
        "label": "Lake Bloke",
        "type": "Reservoir",
        "entity": "http://www.wikidata.org/entity/Q19932854",
        "country_qid": "Q215",
        "Wikidata Qid": "Q19932854"
      }
    },
    {
      "type": "Feature",
      "geometry": {
        "type": "Point",
        "coordinates": [
          15.07665,
          46.605
        ]
      },
      "properties": {
        "label": "Lake Dravograd",
        "type": "Reservoir",
        "entity": "http://www.wikidata.org/entity/Q12787880",
        "country_qid": "Q215",
        "Wikidata Qid": "Q12787880"
      }
    },
    {
      "type": "Feature",
      "geometry": {
        "type": "Point",
        "coordinates": [
          15.446666666,
          46.188055555
        ]
      },
      "properties": {
        "label": "Lake Slivnica",
        "type": "Reservoir",
        "entity": "http://www.wikidata.org/entity/Q26912046",
        "country_qid": "Q215",
        "Wikidata Qid": "Q26912046"
      }
    },
    {
      "type": "Feature",
      "geometry": {
        "type": "Point",
        "coordinates": [
          16.172777777,
          46.390555555
        ]
      },
      "properties": {
        "label": "Lake Ormož",
        "type": "Reservoir",
        "entity": "http://www.wikidata.org/entity/Q26224786",
        "country_qid": "Q215",
        "Wikidata Qid": "Q26224786"
      }
    },
    {
      "type": "Feature",
      "geometry": {
        "type": "Point",
        "coordinates": [
          16.33635,
          46.67401
        ]
      },
      "properties": {
        "label": "Lake Bukovniško",
        "type": "Reservoir",
        "entity": "http://www.wikidata.org/entity/Q12786592",
        "country_qid": "Q215",
        "Wikidata Qid": "Q12786592"
      }
    },
    {
      "type": "Feature",
      "geometry": {
        "type": "Point",
        "coordinates": [
          15.728333333,
          46.587222222
        ]
      },
      "properties": {
        "label": "Lake Pernica",
        "type": "Reservoir",
        "entity": "http://www.wikidata.org/entity/Q57271582",
        "country_qid": "Q215",
        "Wikidata Qid": "Q57271582"
      }
    },
    {
      "type": "Feature",
      "geometry": {
        "type": "Point",
        "coordinates": [
          13.93944,
          46.01778
        ]
      },
      "properties": {
        "label": "Idrija water tank",
        "type": "Reservoir",
        "entity": "http://www.wikidata.org/entity/Q64485229",
        "country_qid": "Q215",
        "Wikidata Qid": "Q64485229"
      }
    },
    {
      "type": "Feature",
      "geometry": {
        "type": "Point",
        "coordinates": [
          13.971485596,
          45.68075016
        ]
      },
      "properties": {
        "label": "Q60360454",
        "type": "Reservoir",
        "entity": "http://www.wikidata.org/entity/Q60360454",
        "country_qid": "Q215",
        "Wikidata Qid": "Q60360454"
      }
    },
    {
      "type": "Feature",
      "geometry": {
        "type": "Point",
        "coordinates": [
          14.136640469,
          46.40710628
        ]
      },
      "properties": {
        "label": "Q60357146",
        "type": "Reservoir",
        "entity": "http://www.wikidata.org/entity/Q60357146",
        "country_qid": "Q215",
        "Wikidata Qid": "Q60357146"
      }
    },
    {
      "type": "Feature",
      "geometry": {
        "type": "Point",
        "coordinates": [
          14.414722222,
          46.154166666
        ]
      },
      "properties": {
        "label": "Lake Zbilje",
        "type": "Reservoir",
        "entity": "http://www.wikidata.org/entity/Q12806542",
        "country_qid": "Q215",
        "Wikidata Qid": "Q12806542"
      }
    },
    {
      "type": "Feature",
      "geometry": {
        "type": "Point",
        "coordinates": [
          15.99555556,
          46.56527778
        ]
      },
      "properties": {
        "label": "Lake Blaguš",
        "type": "Reservoir",
        "entity": "http://www.wikidata.org/entity/Q14698052",
        "country_qid": "Q215",
        "Wikidata Qid": "Q14698052"
      }
    },
    {
      "type": "Feature",
      "geometry": {
        "type": "Point",
        "coordinates": [
          15.595833333,
          46.566666666
        ]
      },
      "properties": {
        "label": "Lake Maribor",
        "type": "Reservoir",
        "entity": "http://www.wikidata.org/entity/Q12795690",
        "country_qid": "Q215",
        "Wikidata Qid": "Q12795690"
      }
    },
    {
      "type": "Feature",
      "geometry": {
        "type": "Point",
        "coordinates": [
          13.729475,
          45.904308333
        ]
      },
      "properties": {
        "label": "Lake Vogrsko",
        "type": "Reservoir",
        "entity": "http://www.wikidata.org/entity/Q12806014",
        "country_qid": "Q215",
        "Wikidata Qid": "Q12806014"
      }
    },
    {
      "type": "Feature",
      "geometry": {
        "type": "Point",
        "coordinates": [
          14.14793333,
          46.40675
        ]
      },
      "properties": {
        "label": "Lake Završnica",
        "type": "Reservoir",
        "entity": "http://www.wikidata.org/entity/Q19937895",
        "country_qid": "Q215",
        "Wikidata Qid": "Q19937895"
      }
    },
    {
      "type": "Feature",
      "geometry": {
        "type": "Point",
        "coordinates": [
          14.7634259,
          46.1344762
        ]
      },
      "properties": {
        "label": "Q28771836",
        "type": "Reservoir",
        "entity": "http://www.wikidata.org/entity/Q28771836",
        "country_qid": "Q215",
        "Wikidata Qid": "Q28771836"
      }
    },
    {
      "type": "Feature",
      "geometry": {
        "type": "Point",
        "coordinates": [
          15.61481944,
          46.17133611
        ]
      },
      "properties": {
        "label": "Q19937749",
        "type": "Reservoir",
        "entity": "http://www.wikidata.org/entity/Q19937749",
        "country_qid": "Q215",
        "Wikidata Qid": "Q19937749"
      }
    },
    {
      "type": "Feature",
      "geometry": {
        "type": "Point",
        "coordinates": [
          15.837777777,
          46.563055555
        ]
      },
      "properties": {
        "label": "Radehova",
        "type": "Reservoir",
        "entity": "http://www.wikidata.org/entity/Q12792442",
        "country_qid": "Q215",
        "Wikidata Qid": "Q12792442"
      }
    },
    {
      "type": "Feature",
      "geometry": {
        "type": "Point",
        "coordinates": [
          14.166890112,
          45.668922978
        ]
      },
      "properties": {
        "label": "Q60358882",
        "type": "Reservoir",
        "entity": "http://www.wikidata.org/entity/Q60358882",
        "country_qid": "Q215",
        "Wikidata Qid": "Q60358882"
      }
    },
    {
      "type": "Feature",
      "geometry": {
        "type": "Point",
        "coordinates": [
          16.116755555,
          46.535358333
        ]
      },
      "properties": {
        "label": "Gajševsko jezero",
        "type": "Reservoir",
        "entity": "http://www.wikidata.org/entity/Q38276803",
        "country_qid": "Q215",
        "Wikidata Qid": "Q38276803"
      }
    },
    {
      "type": "Feature",
      "geometry": {
        "type": "Point",
        "coordinates": [
          13.95222,
          45.97028
        ]
      },
      "properties": {
        "label": "Brus Reservoir on the Belca River",
        "type": "Reservoir",
        "entity": "http://www.wikidata.org/entity/Q64485232",
        "country_qid": "Q215",
        "Wikidata Qid": "Q64485232"
      }
    },
    {
      "type": "Feature",
      "geometry": {
        "type": "Point",
        "coordinates": [
          13.93361,
          45.97611
        ]
      },
      "properties": {
        "label": "Putrih Reservoir on the Belca River",
        "type": "Reservoir",
        "entity": "http://www.wikidata.org/entity/Q64485231",
        "country_qid": "Q215",
        "Wikidata Qid": "Q64485231"
      }
    },
    {
      "type": "Feature",
      "geometry": {
        "type": "Point",
        "coordinates": [
          14.40445,
          46.19480556
        ]
      },
      "properties": {
        "label": "Lake Trboje",
        "type": "Reservoir",
        "entity": "http://www.wikidata.org/entity/Q15241352",
        "country_qid": "Q215",
        "Wikidata Qid": "Q15241352"
      }
    },
    {
      "type": "Feature",
      "geometry": {
        "type": "Point",
        "coordinates": [
          14.103341435,
          46.04221523
        ]
      },
      "properties": {
        "label": "Q60359782",
        "type": "Reservoir",
        "entity": "http://www.wikidata.org/entity/Q60359782",
        "country_qid": "Q215",
        "Wikidata Qid": "Q60359782"
      }
    },
    {
      "type": "Feature",
      "geometry": {
        "type": "Point",
        "coordinates": [
          13.78029444,
          45.50977778
        ]
      },
      "properties": {
        "label": "Vanganelsko jezero",
        "type": "Reservoir",
        "entity": "http://www.wikidata.org/entity/Q12805246",
        "country_qid": "Q215",
        "Wikidata Qid": "Q12805246"
      }
    },
    {
      "type": "Feature",
      "geometry": {
        "type": "Point",
        "coordinates": [
          14.16188056,
          45.5568
        ]
      },
      "properties": {
        "label": "Lake Klivnik",
        "type": "Reservoir",
        "entity": "http://www.wikidata.org/entity/Q19932508",
        "country_qid": "Q215",
        "Wikidata Qid": "Q19932508"
      }
    },
    {
      "type": "Feature",
      "geometry": {
        "type": "Point",
        "coordinates": [
          14.194313888,
          45.542188888
        ]
      },
      "properties": {
        "label": "Mola",
        "type": "Reservoir",
        "entity": "http://www.wikidata.org/entity/Q12796983",
        "country_qid": "Q215",
        "Wikidata Qid": "Q12796983"
      }
    },
    {
      "type": "Feature",
      "geometry": {
        "type": "Point",
        "coordinates": [
          13.932887998,
          46.017171505
        ]
      },
      "properties": {
        "label": "Q54196698",
        "type": "Hydraulic structure",
        "entity": "http://www.wikidata.org/entity/Q54196698",
        "country_qid": "Q215",
        "Wikidata Qid": "Q54196698"
      }
    },
    {
      "type": "Feature",
      "geometry": {
        "type": "Point",
        "coordinates": [
          14.307907851,
          46.365112157
        ]
      },
      "properties": {
        "label": "Q60357511",
        "type": "Hydraulic structure",
        "entity": "http://www.wikidata.org/entity/Q60357511",
        "country_qid": "Q215",
        "Wikidata Qid": "Q60357511"
      }
    },
    {
      "type": "Feature",
      "geometry": {
        "type": "Point",
        "coordinates": [
          13.945623173,
          45.969780997
        ]
      },
      "properties": {
        "label": "Brusove klavže",
        "type": "Hydraulic structure",
        "entity": "http://www.wikidata.org/entity/Q15716131",
        "country_qid": "Q215",
        "Wikidata Qid": "Q15716131"
      }
    },
    {
      "type": "Feature",
      "geometry": {
        "type": "Point",
        "coordinates": [
          14.4577,
          46.1169
        ]
      },
      "properties": {
        "label": "Tacen Whitewater Course",
        "type": "Hydraulic structure",
        "entity": "http://www.wikidata.org/entity/Q7673684",
        "country_qid": "Q215",
        "Wikidata Qid": "Q7673684"
      }
    },
    {
      "type": "Feature",
      "geometry": {
        "type": "Point",
        "coordinates": [
          14.519066666,
          46.044166666
        ]
      },
      "properties": {
        "label": "Gruber Canal",
        "type": "Hydraulic structure",
        "entity": "http://www.wikidata.org/entity/Q12790474",
        "country_qid": "Q215",
        "Wikidata Qid": "Q12790474"
      }
    },
    {
      "type": "Feature",
      "geometry": {
        "type": "Point",
        "coordinates": [
          14.507818766,
          45.921021018
        ]
      },
      "properties": {
        "label": "Q60357129",
        "type": "Hydraulic structure",
        "entity": "http://www.wikidata.org/entity/Q60357129",
        "country_qid": "Q215",
        "Wikidata Qid": "Q60357129"
      }
    },
    {
      "type": "Feature",
      "geometry": {
        "type": "Point",
        "coordinates": [
          13.73333,
          45.55
        ]
      },
      "properties": {
        "label": "Port of Koper",
        "type": "Hydraulic structure",
        "entity": "http://www.wikidata.org/entity/Q478048",
        "country_qid": "Q215",
        "Wikidata Qid": "Q478048"
      }
    },
    {
      "type": "Feature",
      "geometry": {
        "type": "Point",
        "coordinates": [
          13.915222222,
          46.002416666
        ]
      },
      "properties": {
        "label": "Idrijca Klavže",
        "type": "Hydraulic structure",
        "entity": "http://www.wikidata.org/entity/Q60360038",
        "country_qid": "Q215",
        "Wikidata Qid": "Q60360038"
      }
    },
    {
      "type": "Feature",
      "geometry": {
        "type": "Point",
        "coordinates": [
          14.518072118,
          46.050263682
        ]
      },
      "properties": {
        "label": "Ljubljanica Sluice Gate",
        "type": "Hydraulic structure",
        "entity": "http://www.wikidata.org/entity/Q6660951",
        "country_qid": "Q215",
        "Wikidata Qid": "Q6660951"
      }
    },
    {
      "type": "Feature",
      "geometry": {
        "type": "Point",
        "coordinates": [
          13.927716337,
          45.975343903
        ]
      },
      "properties": {
        "label": "Putrihove klavže",
        "type": "Hydraulic structure",
        "entity": "http://www.wikidata.org/entity/Q15719225",
        "country_qid": "Q215",
        "Wikidata Qid": "Q15719225"
      }
    },
    {
      "type": "Feature",
      "geometry": {
        "type": "Point",
        "coordinates": [
          15.225328284,
          46.455408948
        ]
      },
      "properties": {
        "label": "Q60353702",
        "type": "Industrial building",
        "entity": "http://www.wikidata.org/entity/Q60353702",
        "country_qid": "Q215",
        "Wikidata Qid": "Q60353702"
      }
    },
    {
      "type": "Feature",
      "geometry": {
        "type": "Point",
        "coordinates": [
          14.307702247,
          46.363341667
        ]
      },
      "properties": {
        "label": "Q12789827",
        "type": "Industrial building",
        "entity": "http://www.wikidata.org/entity/Q12789827",
        "country_qid": "Q215",
        "Wikidata Qid": "Q12789827"
      }
    },
    {
      "type": "Feature",
      "geometry": {
        "type": "Point",
        "coordinates": [
          15.355022315,
          46.405092886
        ]
      },
      "properties": {
        "label": "Q60350933",
        "type": "Industrial building",
        "entity": "http://www.wikidata.org/entity/Q60350933",
        "country_qid": "Q215",
        "Wikidata Qid": "Q60350933"
      }
    },
    {
      "type": "Feature",
      "geometry": {
        "type": "Point",
        "coordinates": [
          15.514518324,
          46.557069709
        ]
      },
      "properties": {
        "label": "Q60350657",
        "type": "Industrial building",
        "entity": "http://www.wikidata.org/entity/Q60350657",
        "country_qid": "Q215",
        "Wikidata Qid": "Q60350657"
      }
    },
    {
      "type": "Feature",
      "geometry": {
        "type": "Point",
        "coordinates": [
          14.846186405,
          46.393036114
        ]
      },
      "properties": {
        "label": "Q60352525",
        "type": "Industrial building",
        "entity": "http://www.wikidata.org/entity/Q60352525",
        "country_qid": "Q215",
        "Wikidata Qid": "Q60352525"
      }
    },
    {
      "type": "Feature",
      "geometry": {
        "type": "Point",
        "coordinates": [
          14.136705831,
          45.929288508
        ]
      },
      "properties": {
        "label": "Tomažin Mill",
        "type": "Industrial building",
        "entity": "http://www.wikidata.org/entity/Q60359375",
        "country_qid": "Q215",
        "Wikidata Qid": "Q60359375"
      }
    },
    {
      "type": "Feature",
      "geometry": {
        "type": "Point",
        "coordinates": [
          14.201166666,
          46.289333333
        ]
      },
      "properties": {
        "label": "Vigenjc Vice",
        "type": "Industrial building",
        "entity": "http://www.wikidata.org/entity/Q16869118",
        "country_qid": "Q215",
        "Wikidata Qid": "Q16869118"
      }
    },
    {
      "type": "Feature",
      "geometry": {
        "type": "Point",
        "coordinates": [
          16.276698397,
          46.584508617
        ]
      },
      "properties": {
        "label": "Q60345114",
        "type": "Industrial building",
        "entity": "http://www.wikidata.org/entity/Q60345114",
        "country_qid": "Q215",
        "Wikidata Qid": "Q60345114"
      }
    },
    {
      "type": "Feature",
      "geometry": {
        "type": "Point",
        "coordinates": [
          15.518573679,
          46.199616626
        ]
      },
      "properties": {
        "label": "Q60349905",
        "type": "Industrial building",
        "entity": "http://www.wikidata.org/entity/Q60349905",
        "country_qid": "Q215",
        "Wikidata Qid": "Q60349905"
      }
    },
    {
      "type": "Feature",
      "geometry": {
        "type": "Point",
        "coordinates": [
          13.929970475,
          46.193670275
        ]
      },
      "properties": {
        "label": "Q60361453",
        "type": "Industrial building",
        "entity": "http://www.wikidata.org/entity/Q60361453",
        "country_qid": "Q215",
        "Wikidata Qid": "Q60361453"
      }
    },
    {
      "type": "Feature",
      "geometry": {
        "type": "Point",
        "coordinates": [
          13.613441618,
          46.05392457
        ]
      },
      "properties": {
        "label": "Salonit Anhovo",
        "type": "Industrial building",
        "entity": "http://www.wikidata.org/entity/Q17053970",
        "country_qid": "Q215",
        "Wikidata Qid": "Q17053970"
      }
    },
    {
      "type": "Feature",
      "geometry": {
        "type": "Point",
        "coordinates": [
          15.36486274,
          46.184861424
        ]
      },
      "properties": {
        "label": "Q60351507",
        "type": "Industrial building",
        "entity": "http://www.wikidata.org/entity/Q60351507",
        "country_qid": "Q215",
        "Wikidata Qid": "Q60351507"
      }
    },
    {
      "type": "Feature",
      "geometry": {
        "type": "Point",
        "coordinates": [
          13.75144931,
          46.382275783
        ]
      },
      "properties": {
        "label": "Q60361774",
        "type": "Industrial building",
        "entity": "http://www.wikidata.org/entity/Q60361774",
        "country_qid": "Q215",
        "Wikidata Qid": "Q60361774"
      }
    },
    {
      "type": "Feature",
      "geometry": {
        "type": "Point",
        "coordinates": [
          14.864224722,
          46.510980589
        ]
      },
      "properties": {
        "label": "Q60353614",
        "type": "Industrial building",
        "entity": "http://www.wikidata.org/entity/Q60353614",
        "country_qid": "Q215",
        "Wikidata Qid": "Q60353614"
      }
    },
    {
      "type": "Feature",
      "geometry": {
        "type": "Point",
        "coordinates": [
          13.904261471,
          46.03895572
        ]
      },
      "properties": {
        "label": "Slovenija",
        "type": "Industrial building",
        "entity": "http://www.wikidata.org/entity/Q12798342",
        "country_qid": "Q215",
        "Wikidata Qid": "Q12798342"
      }
    },
    {
      "type": "Feature",
      "geometry": {
        "type": "Point",
        "coordinates": [
          14.914067525,
          46.544469356
        ]
      },
      "properties": {
        "label": "Q60353336",
        "type": "Industrial building",
        "entity": "http://www.wikidata.org/entity/Q60353336",
        "country_qid": "Q215",
        "Wikidata Qid": "Q60353336"
      }
    },
    {
      "type": "Feature",
      "geometry": {
        "type": "Point",
        "coordinates": [
          15.06726168,
          45.959274285
        ]
      },
      "properties": {
        "label": "Q60354688",
        "type": "Industrial building",
        "entity": "http://www.wikidata.org/entity/Q60354688",
        "country_qid": "Q215",
        "Wikidata Qid": "Q60354688"
      }
    },
    {
      "type": "Feature",
      "geometry": {
        "type": "Point",
        "coordinates": [
          13.63922,
          45.95926
        ]
      },
      "properties": {
        "label": "Nova Gorica railway workshops",
        "type": "Industrial building",
        "entity": "http://www.wikidata.org/entity/Q64486575",
        "country_qid": "Q215",
        "Wikidata Qid": "Q64486575"
      }
    },
    {
      "type": "Feature",
      "geometry": {
        "type": "Point",
        "coordinates": [
          15.839055609,
          46.65707062
        ]
      },
      "properties": {
        "label": "Q60346917",
        "type": "Industrial building",
        "entity": "http://www.wikidata.org/entity/Q60346917",
        "country_qid": "Q215",
        "Wikidata Qid": "Q60346917"
      }
    },
    {
      "type": "Feature",
      "geometry": {
        "type": "Point",
        "coordinates": [
          14.205045916,
          45.7815491
        ]
      },
      "properties": {
        "label": "Modrijan Homestead",
        "type": "Industrial building",
        "entity": "http://www.wikidata.org/entity/Q60358845",
        "country_qid": "Q215",
        "Wikidata Qid": "Q60358845"
      }
    },
    {
      "type": "Feature",
      "geometry": {
        "type": "Point",
        "coordinates": [
          15.316469504,
          46.007189792
        ]
      },
      "properties": {
        "label": "Q60351192",
        "type": "Industrial building",
        "entity": "http://www.wikidata.org/entity/Q60351192",
        "country_qid": "Q215",
        "Wikidata Qid": "Q60351192"
      }
    },
    {
      "type": "Feature",
      "geometry": {
        "type": "Point",
        "coordinates": [
          14.622696974,
          45.851484285
        ]
      },
      "properties": {
        "label": "Trubarjeva domačija",
        "type": "Industrial building",
        "entity": "http://www.wikidata.org/entity/Q18606001",
        "country_qid": "Q215",
        "Wikidata Qid": "Q18606001"
      }
    },
    {
      "type": "Feature",
      "geometry": {
        "type": "Point",
        "coordinates": [
          15.231796491,
          46.552290767
        ]
      },
      "properties": {
        "label": "Q110120570",
        "type": "Industrial building",
        "entity": "http://www.wikidata.org/entity/Q110120570",
        "country_qid": "Q215",
        "Wikidata Qid": "Q110120570"
      }
    },
    {
      "type": "Feature",
      "geometry": {
        "type": "Point",
        "coordinates": [
          15.590717722,
          46.037013263
        ]
      },
      "properties": {
        "label": "Levstik's Mill",
        "type": "Industrial building",
        "entity": "http://www.wikidata.org/entity/Q60351113",
        "country_qid": "Q215",
        "Wikidata Qid": "Q60351113"
      }
    },
    {
      "type": "Feature",
      "geometry": {
        "type": "Point",
        "coordinates": [
          15.268844444,
          46.234902777
        ]
      },
      "properties": {
        "label": "Rakusch mill",
        "type": "Industrial building",
        "entity": "http://www.wikidata.org/entity/Q18604440",
        "country_qid": "Q215",
        "Wikidata Qid": "Q18604440"
      }
    },
    {
      "type": "Feature",
      "geometry": {
        "type": "Point",
        "coordinates": [
          14.507909084,
          45.921611838
        ]
      },
      "properties": {
        "label": "Q60357132",
        "type": "Industrial building",
        "entity": "http://www.wikidata.org/entity/Q60357132",
        "country_qid": "Q215",
        "Wikidata Qid": "Q60357132"
      }
    },
    {
      "type": "Feature",
      "geometry": {
        "type": "Point",
        "coordinates": [
          15.237429,
          46.15065
        ]
      },
      "properties": {
        "label": "Laško Brewery",
        "type": "Industrial building",
        "entity": "http://www.wikidata.org/entity/Q2448461",
        "country_qid": "Q215",
        "Wikidata Qid": "Q2448461"
      }
    },
    {
      "type": "Feature",
      "geometry": {
        "type": "Point",
        "coordinates": [
          14.870084685,
          46.482870651
        ]
      },
      "properties": {
        "label": "Q60353617",
        "type": "Industrial building",
        "entity": "http://www.wikidata.org/entity/Q60353617",
        "country_qid": "Q215",
        "Wikidata Qid": "Q60353617"
      }
    },
    {
      "type": "Feature",
      "geometry": {
        "type": "Point",
        "coordinates": [
          14.954025182,
          46.621212435
        ]
      },
      "properties": {
        "label": "Q60353075",
        "type": "Industrial building",
        "entity": "http://www.wikidata.org/entity/Q60353075",
        "country_qid": "Q215",
        "Wikidata Qid": "Q60353075"
      }
    },
    {
      "type": "Feature",
      "geometry": {
        "type": "Point",
        "coordinates": [
          15.268364363,
          46.230090234
        ]
      },
      "properties": {
        "label": "Q60351629",
        "type": "Industrial building",
        "entity": "http://www.wikidata.org/entity/Q60351629",
        "country_qid": "Q215",
        "Wikidata Qid": "Q60351629"
      }
    },
    {
      "type": "Feature",
      "geometry": {
        "type": "Point",
        "coordinates": [
          16.184494683,
          46.835776909
        ]
      },
      "properties": {
        "label": "Q60339120",
        "type": "Industrial building",
        "entity": "http://www.wikidata.org/entity/Q60339120",
        "country_qid": "Q215",
        "Wikidata Qid": "Q60339120"
      }
    },
    {
      "type": "Feature",
      "geometry": {
        "type": "Point",
        "coordinates": [
          15.747256123,
          46.38113155
        ]
      },
      "properties": {
        "label": "Q60349372",
        "type": "Industrial building",
        "entity": "http://www.wikidata.org/entity/Q60349372",
        "country_qid": "Q215",
        "Wikidata Qid": "Q60349372"
      }
    },
    {
      "type": "Feature",
      "geometry": {
        "type": "Point",
        "coordinates": [
          14.502014129,
          46.062490665
        ]
      },
      "properties": {
        "label": "Q12807561",
        "type": "Industrial building",
        "entity": "http://www.wikidata.org/entity/Q12807561",
        "country_qid": "Q215",
        "Wikidata Qid": "Q12807561"
      }
    },
    {
      "type": "Feature",
      "geometry": {
        "type": "Point",
        "coordinates": [
          16.166569666,
          46.592297576
        ]
      },
      "properties": {
        "label": "Babič Mill",
        "type": "Industrial building",
        "entity": "http://www.wikidata.org/entity/Q20521557",
        "country_qid": "Q215",
        "Wikidata Qid": "Q20521557"
      }
    },
    {
      "type": "Feature",
      "geometry": {
        "type": "Point",
        "coordinates": [
          15.141607271,
          46.499764331
        ]
      },
      "properties": {
        "label": "Q60353513",
        "type": "Industrial building",
        "entity": "http://www.wikidata.org/entity/Q60353513",
        "country_qid": "Q215",
        "Wikidata Qid": "Q60353513"
      }
    },
    {
      "type": "Feature",
      "geometry": {
        "type": "Point",
        "coordinates": [
          15.882748988,
          46.630458608
        ]
      },
      "properties": {
        "label": "Q60347063",
        "type": "Industrial building",
        "entity": "http://www.wikidata.org/entity/Q60347063",
        "country_qid": "Q215",
        "Wikidata Qid": "Q60347063"
      }
    },
    {
      "type": "Feature",
      "geometry": {
        "type": "Point",
        "coordinates": [
          14.353690163,
          46.238180929
        ]
      },
      "properties": {
        "label": "Q60358093",
        "type": "Industrial building",
        "entity": "http://www.wikidata.org/entity/Q60358093",
        "country_qid": "Q215",
        "Wikidata Qid": "Q60358093"
      }
    },
    {
      "type": "Feature",
      "geometry": {
        "type": "Point",
        "coordinates": [
          15.191741221,
          46.443507303
        ]
      },
      "properties": {
        "label": "Q60353651",
        "type": "Industrial building",
        "entity": "http://www.wikidata.org/entity/Q60353651",
        "country_qid": "Q215",
        "Wikidata Qid": "Q60353651"
      }
    },
    {
      "type": "Feature",
      "geometry": {
        "type": "Point",
        "coordinates": [
          14.060163186,
          46.38072254
        ]
      },
      "properties": {
        "label": "Q60359639",
        "type": "Industrial building",
        "entity": "http://www.wikidata.org/entity/Q60359639",
        "country_qid": "Q215",
        "Wikidata Qid": "Q60359639"
      }
    },
    {
      "type": "Feature",
      "geometry": {
        "type": "Point",
        "coordinates": [
          15.471937642,
          46.250649339
        ]
      },
      "properties": {
        "label": "Q60350033",
        "type": "Industrial building",
        "entity": "http://www.wikidata.org/entity/Q60350033",
        "country_qid": "Q215",
        "Wikidata Qid": "Q60350033"
      }
    },
    {
      "type": "Feature",
      "geometry": {
        "type": "Point",
        "coordinates": [
          14.285548811,
          46.172241026
        ]
      },
      "properties": {
        "label": "Vešterski mlin",
        "type": "Industrial building",
        "entity": "http://www.wikidata.org/entity/Q15912095",
        "country_qid": "Q215",
        "Wikidata Qid": "Q15912095"
      }
    },
    {
      "type": "Feature",
      "geometry": {
        "type": "Point",
        "coordinates": [
          16.240606759,
          46.606084071
        ]
      },
      "properties": {
        "label": "Q60345124",
        "type": "Industrial building",
        "entity": "http://www.wikidata.org/entity/Q60345124",
        "country_qid": "Q215",
        "Wikidata Qid": "Q60345124"
      }
    },
    {
      "type": "Feature",
      "geometry": {
        "type": "Point",
        "coordinates": [
          14.96052615,
          46.544261736
        ]
      },
      "properties": {
        "label": "Former Ravne Ironworks",
        "type": "Industrial building",
        "entity": "http://www.wikidata.org/entity/Q60353277",
        "country_qid": "Q215",
        "Wikidata Qid": "Q60353277"
      }
    },
    {
      "type": "Feature",
      "geometry": {
        "type": "Point",
        "coordinates": [
          15.387812463,
          46.134557573
        ]
      },
      "properties": {
        "label": "Q60351407",
        "type": "Industrial building",
        "entity": "http://www.wikidata.org/entity/Q60351407",
        "country_qid": "Q215",
        "Wikidata Qid": "Q60351407"
      }
    },
    {
      "type": "Feature",
      "geometry": {
        "type": "Point",
        "coordinates": [
          14.494269027,
          46.0463025
        ]
      },
      "properties": {
        "label": "Q60356995",
        "type": "Industrial building",
        "entity": "http://www.wikidata.org/entity/Q60356995",
        "country_qid": "Q215",
        "Wikidata Qid": "Q60356995"
      }
    },
    {
      "type": "Feature",
      "geometry": {
        "type": "Point",
        "coordinates": [
          15.059398352,
          46.478865157
        ]
      },
      "properties": {
        "label": "Q60353688",
        "type": "Industrial building",
        "entity": "http://www.wikidata.org/entity/Q60353688",
        "country_qid": "Q215",
        "Wikidata Qid": "Q60353688"
      }
    },
    {
      "type": "Feature",
      "geometry": {
        "type": "Point",
        "coordinates": [
          14.03111,
          46.00694
        ]
      },
      "properties": {
        "label": "Idrija Smelting Plant",
        "type": "Industrial building",
        "entity": "http://www.wikidata.org/entity/Q64485227",
        "country_qid": "Q215",
        "Wikidata Qid": "Q64485227"
      }
    },
    {
      "type": "Feature",
      "geometry": {
        "type": "Point",
        "coordinates": [
          13.760722239,
          45.880957739
        ]
      },
      "properties": {
        "label": "Q60361060",
        "type": "Industrial building",
        "entity": "http://www.wikidata.org/entity/Q60361060",
        "country_qid": "Q215",
        "Wikidata Qid": "Q60361060"
      }
    },
    {
      "type": "Feature",
      "geometry": {
        "type": "Point",
        "coordinates": [
          15.400126987,
          46.363808395
        ]
      },
      "properties": {
        "label": "Q60350918",
        "type": "Industrial building",
        "entity": "http://www.wikidata.org/entity/Q60350918",
        "country_qid": "Q215",
        "Wikidata Qid": "Q60350918"
      }
    },
    {
      "type": "Feature",
      "geometry": {
        "type": "Point",
        "coordinates": [
          16.277030675,
          46.521699618
        ]
      },
      "properties": {
        "label": "Q60346158",
        "type": "Industrial building",
        "entity": "http://www.wikidata.org/entity/Q60346158",
        "country_qid": "Q215",
        "Wikidata Qid": "Q60346158"
      }
    },
    {
      "type": "Feature",
      "geometry": {
        "type": "Point",
        "coordinates": [
          15.657351324,
          46.052562614
        ]
      },
      "properties": {
        "label": "Q60351062",
        "type": "Industrial building",
        "entity": "http://www.wikidata.org/entity/Q60351062",
        "country_qid": "Q215",
        "Wikidata Qid": "Q60351062"
      }
    },
    {
      "type": "Feature",
      "geometry": {
        "type": "Point",
        "coordinates": [
          14.698852835,
          46.393911516
        ]
      },
      "properties": {
        "label": "Q60355026",
        "type": "Industrial building",
        "entity": "http://www.wikidata.org/entity/Q60355026",
        "country_qid": "Q215",
        "Wikidata Qid": "Q60355026"
      }
    },
    {
      "type": "Feature",
      "geometry": {
        "type": "Point",
        "coordinates": [
          13.92397713,
          45.452387741
        ]
      },
      "properties": {
        "label": "Q60360754",
        "type": "Industrial building",
        "entity": "http://www.wikidata.org/entity/Q60360754",
        "country_qid": "Q215",
        "Wikidata Qid": "Q60360754"
      }
    },
    {
      "type": "Feature",
      "geometry": {
        "type": "Point",
        "coordinates": [
          15.233802257,
          46.350583368
        ]
      },
      "properties": {
        "label": "Q60352543",
        "type": "Industrial building",
        "entity": "http://www.wikidata.org/entity/Q60352543",
        "country_qid": "Q215",
        "Wikidata Qid": "Q60352543"
      }
    },
    {
      "type": "Feature",
      "geometry": {
        "type": "Point",
        "coordinates": [
          16.025928133,
          46.825287962
        ]
      },
      "properties": {
        "label": "Q60344047",
        "type": "Industrial building",
        "entity": "http://www.wikidata.org/entity/Q60344047",
        "country_qid": "Q215",
        "Wikidata Qid": "Q60344047"
      }
    },
    {
      "type": "Feature",
      "geometry": {
        "type": "Point",
        "coordinates": [
          15.131913314,
          45.445710532
        ]
      },
      "properties": {
        "label": "Q60354250",
        "type": "Industrial building",
        "entity": "http://www.wikidata.org/entity/Q60354250",
        "country_qid": "Q215",
        "Wikidata Qid": "Q60354250"
      }
    },
    {
      "type": "Feature",
      "geometry": {
        "type": "Point",
        "coordinates": [
          16.290601068,
          46.750570214
        ]
      },
      "properties": {
        "label": "Q60344082",
        "type": "Industrial building",
        "entity": "http://www.wikidata.org/entity/Q60344082",
        "country_qid": "Q215",
        "Wikidata Qid": "Q60344082"
      }
    },
    {
      "type": "Feature",
      "geometry": {
        "type": "Point",
        "coordinates": [
          15.601401169,
          46.096120149
        ]
      },
      "properties": {
        "label": "Q60349643",
        "type": "Industrial building",
        "entity": "http://www.wikidata.org/entity/Q60349643",
        "country_qid": "Q215",
        "Wikidata Qid": "Q60349643"
      }
    },
    {
      "type": "Feature",
      "geometry": {
        "type": "Point",
        "coordinates": [
          13.978600111,
          46.152147241
        ]
      },
      "properties": {
        "label": "Q60359926",
        "type": "Industrial building",
        "entity": "http://www.wikidata.org/entity/Q60359926",
        "country_qid": "Q215",
        "Wikidata Qid": "Q60359926"
      }
    },
    {
      "type": "Feature",
      "geometry": {
        "type": "Point",
        "coordinates": [
          13.743937894,
          45.934086481
        ]
      },
      "properties": {
        "label": "Q60361151",
        "type": "Industrial building",
        "entity": "http://www.wikidata.org/entity/Q60361151",
        "country_qid": "Q215",
        "Wikidata Qid": "Q60361151"
      }
    },
    {
      "type": "Feature",
      "geometry": {
        "type": "Point",
        "coordinates": [
          15.511234969,
          46.43724348
        ]
      },
      "properties": {
        "label": "Q60350547",
        "type": "Industrial building",
        "entity": "http://www.wikidata.org/entity/Q60350547",
        "country_qid": "Q215",
        "Wikidata Qid": "Q60350547"
      }
    },
    {
      "type": "Feature",
      "geometry": {
        "type": "Point",
        "coordinates": [
          16.071020746,
          46.819657088
        ]
      },
      "properties": {
        "label": "Q60343877",
        "type": "Industrial building",
        "entity": "http://www.wikidata.org/entity/Q60343877",
        "country_qid": "Q215",
        "Wikidata Qid": "Q60343877"
      }
    },
    {
      "type": "Feature",
      "geometry": {
        "type": "Point",
        "coordinates": [
          16.225978219,
          46.84017069
        ]
      },
      "properties": {
        "label": "Q60339132",
        "type": "Industrial building",
        "entity": "http://www.wikidata.org/entity/Q60339132",
        "country_qid": "Q215",
        "Wikidata Qid": "Q60339132"
      }
    },
    {
      "type": "Feature",
      "geometry": {
        "type": "Point",
        "coordinates": [
          15.205287445,
          46.34229023
        ]
      },
      "properties": {
        "label": "Q60352627",
        "type": "Industrial building",
        "entity": "http://www.wikidata.org/entity/Q60352627",
        "country_qid": "Q215",
        "Wikidata Qid": "Q60352627"
      }
    },
    {
      "type": "Feature",
      "geometry": {
        "type": "Point",
        "coordinates": [
          14.044908388,
          46.147007204
        ]
      },
      "properties": {
        "label": "Q60359816",
        "type": "Industrial building",
        "entity": "http://www.wikidata.org/entity/Q60359816",
        "country_qid": "Q215",
        "Wikidata Qid": "Q60359816"
      }
    },
    {
      "type": "Feature",
      "geometry": {
        "type": "Point",
        "coordinates": [
          15.259088051,
          46.608760131
        ]
      },
      "properties": {
        "label": "Q60353154",
        "type": "Industrial building",
        "entity": "http://www.wikidata.org/entity/Q60353154",
        "country_qid": "Q215",
        "Wikidata Qid": "Q60353154"
      }
    },
    {
      "type": "Feature",
      "geometry": {
        "type": "Point",
        "coordinates": [
          14.840109068,
          46.290152252
        ]
      },
      "properties": {
        "label": "Q60354500",
        "type": "Industrial building",
        "entity": "http://www.wikidata.org/entity/Q60354500",
        "country_qid": "Q215",
        "Wikidata Qid": "Q60354500"
      }
    },
    {
      "type": "Feature",
      "geometry": {
        "type": "Point",
        "coordinates": [
          15.187425881,
          46.473429014
        ]
      },
      "properties": {
        "label": "Q60353532",
        "type": "Industrial building",
        "entity": "http://www.wikidata.org/entity/Q60353532",
        "country_qid": "Q215",
        "Wikidata Qid": "Q60353532"
      }
    },
    {
      "type": "Feature",
      "geometry": {
        "type": "Point",
        "coordinates": [
          13.834831573,
          45.477194017
        ]
      },
      "properties": {
        "label": "Q60361878",
        "type": "Industrial building",
        "entity": "http://www.wikidata.org/entity/Q60361878",
        "country_qid": "Q215",
        "Wikidata Qid": "Q60361878"
      }
    },
    {
      "type": "Feature",
      "geometry": {
        "type": "Point",
        "coordinates": [
          16.063217369,
          46.784239287
        ]
      },
      "properties": {
        "label": "Q60343868",
        "type": "Industrial building",
        "entity": "http://www.wikidata.org/entity/Q60343868",
        "country_qid": "Q215",
        "Wikidata Qid": "Q60343868"
      }
    },
    {
      "type": "Feature",
      "geometry": {
        "type": "Point",
        "coordinates": [
          14.748816701,
          46.282054866
        ]
      },
      "properties": {
        "label": "Q60354888",
        "type": "Industrial building",
        "entity": "http://www.wikidata.org/entity/Q60354888",
        "country_qid": "Q215",
        "Wikidata Qid": "Q60354888"
      }
    },
    {
      "type": "Feature",
      "geometry": {
        "type": "Point",
        "coordinates": [
          15.55445095,
          46.070216634
        ]
      },
      "properties": {
        "label": "Krofl Mill",
        "type": "Industrial building",
        "entity": "http://www.wikidata.org/entity/Q60351078",
        "country_qid": "Q215",
        "Wikidata Qid": "Q60351078"
      }
    },
    {
      "type": "Feature",
      "geometry": {
        "type": "Point",
        "coordinates": [
          14.988780062,
          46.60961453
        ]
      },
      "properties": {
        "label": "Q60353081",
        "type": "Industrial building",
        "entity": "http://www.wikidata.org/entity/Q60353081",
        "country_qid": "Q215",
        "Wikidata Qid": "Q60353081"
      }
    },
    {
      "type": "Feature",
      "geometry": {
        "type": "Point",
        "coordinates": [
          14.657262862,
          45.960450904
        ]
      },
      "properties": {
        "label": "Q60354846",
        "type": "Industrial building",
        "entity": "http://www.wikidata.org/entity/Q60354846",
        "country_qid": "Q215",
        "Wikidata Qid": "Q60354846"
      }
    },
    {
      "type": "Feature",
      "geometry": {
        "type": "Point",
        "coordinates": [
          14.867461385,
          45.856151377
        ]
      },
      "properties": {
        "label": "Q60353759",
        "type": "Industrial building",
        "entity": "http://www.wikidata.org/entity/Q60353759",
        "country_qid": "Q215",
        "Wikidata Qid": "Q60353759"
      }
    },
    {
      "type": "Feature",
      "geometry": {
        "type": "Point",
        "coordinates": [
          15.678603824,
          45.859198973
        ]
      },
      "properties": {
        "label": "Q60351733",
        "type": "Industrial building",
        "entity": "http://www.wikidata.org/entity/Q60351733",
        "country_qid": "Q215",
        "Wikidata Qid": "Q60351733"
      }
    },
    {
      "type": "Feature",
      "geometry": {
        "type": "Point",
        "coordinates": [
          14.907518518,
          45.841243115
        ]
      },
      "properties": {
        "label": "Q60353767",
        "type": "Industrial building",
        "entity": "http://www.wikidata.org/entity/Q60353767",
        "country_qid": "Q215",
        "Wikidata Qid": "Q60353767"
      }
    },
    {
      "type": "Feature",
      "geometry": {
        "type": "Point",
        "coordinates": [
          15.4057387,
          46.355245617
        ]
      },
      "properties": {
        "label": "Q60350720",
        "type": "Industrial building",
        "entity": "http://www.wikidata.org/entity/Q60350720",
        "country_qid": "Q215",
        "Wikidata Qid": "Q60350720"
      }
    },
    {
      "type": "Feature",
      "geometry": {
        "type": "Point",
        "coordinates": [
          15.12249997,
          46.651251423
        ]
      },
      "properties": {
        "label": "Q60352884",
        "type": "Industrial building",
        "entity": "http://www.wikidata.org/entity/Q60352884",
        "country_qid": "Q215",
        "Wikidata Qid": "Q60352884"
      }
    },
    {
      "type": "Feature",
      "geometry": {
        "type": "Point",
        "coordinates": [
          14.196456175,
          45.723889862
        ]
      },
      "properties": {
        "label": "Q60358816",
        "type": "Industrial building",
        "entity": "http://www.wikidata.org/entity/Q60358816",
        "country_qid": "Q215",
        "Wikidata Qid": "Q60358816"
      }
    },
    {
      "type": "Feature",
      "geometry": {
        "type": "Point",
        "coordinates": [
          15.607677281,
          46.084279604
        ]
      },
      "properties": {
        "label": "Q60350963",
        "type": "Industrial building",
        "entity": "http://www.wikidata.org/entity/Q60350963",
        "country_qid": "Q215",
        "Wikidata Qid": "Q60350963"
      }
    },
    {
      "type": "Feature",
      "geometry": {
        "type": "Point",
        "coordinates": [
          15.205294593,
          46.341889896
        ]
      },
      "properties": {
        "label": "Q60352631",
        "type": "Industrial building",
        "entity": "http://www.wikidata.org/entity/Q60352631",
        "country_qid": "Q215",
        "Wikidata Qid": "Q60352631"
      }
    },
    {
      "type": "Feature",
      "geometry": {
        "type": "Point",
        "coordinates": [
          15.240993804,
          45.781004534
        ]
      },
      "properties": {
        "label": "Q60354023",
        "type": "Industrial building",
        "entity": "http://www.wikidata.org/entity/Q60354023",
        "country_qid": "Q215",
        "Wikidata Qid": "Q60354023"
      }
    },
    {
      "type": "Feature",
      "geometry": {
        "type": "Point",
        "coordinates": [
          14.156460254,
          45.81963033
        ]
      },
      "properties": {
        "label": "Q60358993",
        "type": "Industrial building",
        "entity": "http://www.wikidata.org/entity/Q60358993",
        "country_qid": "Q215",
        "Wikidata Qid": "Q60358993"
      }
    },
    {
      "type": "Feature",
      "geometry": {
        "type": "Point",
        "coordinates": [
          14.139605242,
          45.635402619
        ]
      },
      "properties": {
        "label": "Q60359109",
        "type": "Industrial building",
        "entity": "http://www.wikidata.org/entity/Q60359109",
        "country_qid": "Q215",
        "Wikidata Qid": "Q60359109"
      }
    },
    {
      "type": "Feature",
      "geometry": {
        "type": "Point",
        "coordinates": [
          15.990628926,
          46.588227294
        ]
      },
      "properties": {
        "label": "Q60346046",
        "type": "Industrial building",
        "entity": "http://www.wikidata.org/entity/Q60346046",
        "country_qid": "Q215",
        "Wikidata Qid": "Q60346046"
      }
    },
    {
      "type": "Feature",
      "geometry": {
        "type": "Point",
        "coordinates": [
          15.114849707,
          46.580921543
        ]
      },
      "properties": {
        "label": "Q60353178",
        "type": "Industrial building",
        "entity": "http://www.wikidata.org/entity/Q60353178",
        "country_qid": "Q215",
        "Wikidata Qid": "Q60353178"
      }
    },
    {
      "type": "Feature",
      "geometry": {
        "type": "Point",
        "coordinates": [
          15.392991892,
          46.202187241
        ]
      },
      "properties": {
        "label": "Q60351429",
        "type": "Industrial building",
        "entity": "http://www.wikidata.org/entity/Q60351429",
        "country_qid": "Q215",
        "Wikidata Qid": "Q60351429"
      }
    },
    {
      "type": "Feature",
      "geometry": {
        "type": "Point",
        "coordinates": [
          13.929687237,
          46.19355868
        ]
      },
      "properties": {
        "label": "Q60361451",
        "type": "Industrial building",
        "entity": "http://www.wikidata.org/entity/Q60361451",
        "country_qid": "Q215",
        "Wikidata Qid": "Q60361451"
      }
    },
    {
      "type": "Feature",
      "geometry": {
        "type": "Point",
        "coordinates": [
          14.04106438,
          46.158896529
        ]
      },
      "properties": {
        "label": "Q60359815",
        "type": "Industrial building",
        "entity": "http://www.wikidata.org/entity/Q60359815",
        "country_qid": "Q215",
        "Wikidata Qid": "Q60359815"
      }
    },
    {
      "type": "Feature",
      "geometry": {
        "type": "Point",
        "coordinates": [
          16.287895463,
          46.78019696
        ]
      },
      "properties": {
        "label": "Q60344145",
        "type": "Industrial building",
        "entity": "http://www.wikidata.org/entity/Q60344145",
        "country_qid": "Q215",
        "Wikidata Qid": "Q60344145"
      }
    },
    {
      "type": "Feature",
      "geometry": {
        "type": "Point",
        "coordinates": [
          14.864960447,
          46.568480195
        ]
      },
      "properties": {
        "label": "Q60353382",
        "type": "Industrial building",
        "entity": "http://www.wikidata.org/entity/Q60353382",
        "country_qid": "Q215",
        "Wikidata Qid": "Q60353382"
      }
    },
    {
      "type": "Feature",
      "geometry": {
        "type": "Point",
        "coordinates": [
          16.174371038,
          46.409831738
        ]
      },
      "properties": {
        "label": "Q60346667",
        "type": "Industrial building",
        "entity": "http://www.wikidata.org/entity/Q60346667",
        "country_qid": "Q215",
        "Wikidata Qid": "Q60346667"
      }
    },
    {
      "type": "Feature",
      "geometry": {
        "type": "Point",
        "coordinates": [
          14.195605912,
          46.116483058
        ]
      },
      "properties": {
        "label": "Q60359450",
        "type": "Industrial building",
        "entity": "http://www.wikidata.org/entity/Q60359450",
        "country_qid": "Q215",
        "Wikidata Qid": "Q60359450"
      }
    },
    {
      "type": "Feature",
      "geometry": {
        "type": "Point",
        "coordinates": [
          14.026247954,
          45.655662429
        ]
      },
      "properties": {
        "label": "Q60360335",
        "type": "Industrial building",
        "entity": "http://www.wikidata.org/entity/Q60360335",
        "country_qid": "Q215",
        "Wikidata Qid": "Q60360335"
      }
    },
    {
      "type": "Feature",
      "geometry": {
        "type": "Point",
        "coordinates": [
          13.616915348,
          46.061580883
        ]
      },
      "properties": {
        "label": "Q60361288",
        "type": "Industrial building",
        "entity": "http://www.wikidata.org/entity/Q60361288",
        "country_qid": "Q215",
        "Wikidata Qid": "Q60361288"
      }
    },
    {
      "type": "Feature",
      "geometry": {
        "type": "Point",
        "coordinates": [
          14.051961627,
          46.146607429
        ]
      },
      "properties": {
        "label": "Q60359821",
        "type": "Industrial building",
        "entity": "http://www.wikidata.org/entity/Q60359821",
        "country_qid": "Q215",
        "Wikidata Qid": "Q60359821"
      }
    },
    {
      "type": "Feature",
      "geometry": {
        "type": "Point",
        "coordinates": [
          15.134103872,
          45.972828407
        ]
      },
      "properties": {
        "label": "Q60354750",
        "type": "Industrial building",
        "entity": "http://www.wikidata.org/entity/Q60354750",
        "country_qid": "Q215",
        "Wikidata Qid": "Q60354750"
      }
    },
    {
      "type": "Feature",
      "geometry": {
        "type": "Point",
        "coordinates": [
          14.158775292,
          46.066891823
        ]
      },
      "properties": {
        "label": "Q60359427",
        "type": "Industrial building",
        "entity": "http://www.wikidata.org/entity/Q60359427",
        "country_qid": "Q215",
        "Wikidata Qid": "Q60359427"
      }
    },
    {
      "type": "Feature",
      "geometry": {
        "type": "Point",
        "coordinates": [
          15.210974871,
          46.058847213
        ]
      },
      "properties": {
        "label": "Q60354589",
        "type": "Industrial building",
        "entity": "http://www.wikidata.org/entity/Q60354589",
        "country_qid": "Q215",
        "Wikidata Qid": "Q60354589"
      }
    },
    {
      "type": "Feature",
      "geometry": {
        "type": "Point",
        "coordinates": [
          16.043637821,
          46.774482393
        ]
      },
      "properties": {
        "label": "Q60343995",
        "type": "Industrial building",
        "entity": "http://www.wikidata.org/entity/Q60343995",
        "country_qid": "Q215",
        "Wikidata Qid": "Q60343995"
      }
    },
    {
      "type": "Feature",
      "geometry": {
        "type": "Point",
        "coordinates": [
          15.211475011,
          46.058979981
        ]
      },
      "properties": {
        "label": "Q60354591",
        "type": "Industrial building",
        "entity": "http://www.wikidata.org/entity/Q60354591",
        "country_qid": "Q215",
        "Wikidata Qid": "Q60354591"
      }
    },
    {
      "type": "Feature",
      "geometry": {
        "type": "Point",
        "coordinates": [
          15.030717082,
          46.495702622
        ]
      },
      "properties": {
        "label": "Q60353546",
        "type": "Industrial building",
        "entity": "http://www.wikidata.org/entity/Q60353546",
        "country_qid": "Q215",
        "Wikidata Qid": "Q60353546"
      }
    },
    {
      "type": "Feature",
      "geometry": {
        "type": "Point",
        "coordinates": [
          15.45799719,
          46.41219517
        ]
      },
      "properties": {
        "label": "Q60350739",
        "type": "Industrial building",
        "entity": "http://www.wikidata.org/entity/Q60350739",
        "country_qid": "Q215",
        "Wikidata Qid": "Q60350739"
      }
    },
    {
      "type": "Feature",
      "geometry": {
        "type": "Point",
        "coordinates": [
          13.654588318,
          46.014131589
        ]
      },
      "properties": {
        "label": "Q60361337",
        "type": "Industrial building",
        "entity": "http://www.wikidata.org/entity/Q60361337",
        "country_qid": "Q215",
        "Wikidata Qid": "Q60361337"
      }
    },
    {
      "type": "Feature",
      "geometry": {
        "type": "Point",
        "coordinates": [
          15.603199296,
          46.4347786
        ]
      },
      "properties": {
        "label": "Q60350219",
        "type": "Industrial building",
        "entity": "http://www.wikidata.org/entity/Q60350219",
        "country_qid": "Q215",
        "Wikidata Qid": "Q60350219"
      }
    },
    {
      "type": "Feature",
      "geometry": {
        "type": "Point",
        "coordinates": [
          16.266082489,
          46.787510817
        ]
      },
      "properties": {
        "label": "Q60344165",
        "type": "Industrial building",
        "entity": "http://www.wikidata.org/entity/Q60344165",
        "country_qid": "Q215",
        "Wikidata Qid": "Q60344165"
      }
    },
    {
      "type": "Feature",
      "geometry": {
        "type": "Point",
        "coordinates": [
          15.118627184,
          46.584406503
        ]
      },
      "properties": {
        "label": "Q60352950",
        "type": "Industrial building",
        "entity": "http://www.wikidata.org/entity/Q60352950",
        "country_qid": "Q215",
        "Wikidata Qid": "Q60352950"
      }
    },
    {
      "type": "Feature",
      "geometry": {
        "type": "Point",
        "coordinates": [
          14.135809386,
          46.084535253
        ]
      },
      "properties": {
        "label": "Q60359434",
        "type": "Industrial building",
        "entity": "http://www.wikidata.org/entity/Q60359434",
        "country_qid": "Q215",
        "Wikidata Qid": "Q60359434"
      }
    },
    {
      "type": "Feature",
      "geometry": {
        "type": "Point",
        "coordinates": [
          16.023092165,
          46.818172956
        ]
      },
      "properties": {
        "label": "Q60344037",
        "type": "Industrial building",
        "entity": "http://www.wikidata.org/entity/Q60344037",
        "country_qid": "Q215",
        "Wikidata Qid": "Q60344037"
      }
    },
    {
      "type": "Feature",
      "geometry": {
        "type": "Point",
        "coordinates": [
          14.199046785,
          45.716351244
        ]
      },
      "properties": {
        "label": "Q60358824",
        "type": "Industrial building",
        "entity": "http://www.wikidata.org/entity/Q60358824",
        "country_qid": "Q215",
        "Wikidata Qid": "Q60358824"
      }
    },
    {
      "type": "Feature",
      "geometry": {
        "type": "Point",
        "coordinates": [
          15.28233662,
          46.624657129
        ]
      },
      "properties": {
        "label": "Q60352839",
        "type": "Industrial building",
        "entity": "http://www.wikidata.org/entity/Q60352839",
        "country_qid": "Q215",
        "Wikidata Qid": "Q60352839"
      }
    },
    {
      "type": "Feature",
      "geometry": {
        "type": "Point",
        "coordinates": [
          15.233033279,
          46.239116801
        ]
      },
      "properties": {
        "label": "Q60352034",
        "type": "Industrial building",
        "entity": "http://www.wikidata.org/entity/Q60352034",
        "country_qid": "Q215",
        "Wikidata Qid": "Q60352034"
      }
    },
    {
      "type": "Feature",
      "geometry": {
        "type": "Point",
        "coordinates": [
          15.787281104,
          46.697443515
        ]
      },
      "properties": {
        "label": "Q60346871",
        "type": "Industrial building",
        "entity": "http://www.wikidata.org/entity/Q60346871",
        "country_qid": "Q215",
        "Wikidata Qid": "Q60346871"
      }
    },
    {
      "type": "Feature",
      "geometry": {
        "type": "Point",
        "coordinates": [
          15.313914168,
          45.531185417
        ]
      },
      "properties": {
        "label": "Q60351919",
        "type": "Industrial building",
        "entity": "http://www.wikidata.org/entity/Q60351919",
        "country_qid": "Q215",
        "Wikidata Qid": "Q60351919"
      }
    },
    {
      "type": "Feature",
      "geometry": {
        "type": "Point",
        "coordinates": [
          15.604794339,
          46.465524376
        ]
      },
      "properties": {
        "label": "Q60350453",
        "type": "Industrial building",
        "entity": "http://www.wikidata.org/entity/Q60350453",
        "country_qid": "Q215",
        "Wikidata Qid": "Q60350453"
      }
    },
    {
      "type": "Feature",
      "geometry": {
        "type": "Point",
        "coordinates": [
          15.031696696,
          46.627179266
        ]
      },
      "properties": {
        "label": "Q60352905",
        "type": "Industrial building",
        "entity": "http://www.wikidata.org/entity/Q60352905",
        "country_qid": "Q215",
        "Wikidata Qid": "Q60352905"
      }
    },
    {
      "type": "Feature",
      "geometry": {
        "type": "Point",
        "coordinates": [
          14.830267581,
          46.517213575
        ]
      },
      "properties": {
        "label": "Q60353354",
        "type": "Industrial building",
        "entity": "http://www.wikidata.org/entity/Q60353354",
        "country_qid": "Q215",
        "Wikidata Qid": "Q60353354"
      }
    },
    {
      "type": "Feature",
      "geometry": {
        "type": "Point",
        "coordinates": [
          15.627131357,
          46.308799915
        ]
      },
      "properties": {
        "label": "Q60349783",
        "type": "Industrial building",
        "entity": "http://www.wikidata.org/entity/Q60349783",
        "country_qid": "Q215",
        "Wikidata Qid": "Q60349783"
      }
    },
    {
      "type": "Feature",
      "geometry": {
        "type": "Point",
        "coordinates": [
          16.049993279,
          46.712572699
        ]
      },
      "properties": {
        "label": "Q60344412",
        "type": "Industrial building",
        "entity": "http://www.wikidata.org/entity/Q60344412",
        "country_qid": "Q215",
        "Wikidata Qid": "Q60344412"
      }
    },
    {
      "type": "Feature",
      "geometry": {
        "type": "Point",
        "coordinates": [
          15.126170877,
          46.484261661
        ]
      },
      "properties": {
        "label": "Q60353500",
        "type": "Industrial building",
        "entity": "http://www.wikidata.org/entity/Q60353500",
        "country_qid": "Q215",
        "Wikidata Qid": "Q60353500"
      }
    },
    {
      "type": "Feature",
      "geometry": {
        "type": "Point",
        "coordinates": [
          15.603359968,
          46.012918504
        ]
      },
      "properties": {
        "label": "Q60351218",
        "type": "Industrial building",
        "entity": "http://www.wikidata.org/entity/Q60351218",
        "country_qid": "Q215",
        "Wikidata Qid": "Q60351218"
      }
    },
    {
      "type": "Feature",
      "geometry": {
        "type": "Point",
        "coordinates": [
          15.196102557,
          46.475917454
        ]
      },
      "properties": {
        "label": "Q60353539",
        "type": "Industrial building",
        "entity": "http://www.wikidata.org/entity/Q60353539",
        "country_qid": "Q215",
        "Wikidata Qid": "Q60353539"
      }
    },
    {
      "type": "Feature",
      "geometry": {
        "type": "Point",
        "coordinates": [
          14.570440475,
          46.167407334
        ]
      },
      "properties": {
        "label": "Q60355302",
        "type": "Industrial building",
        "entity": "http://www.wikidata.org/entity/Q60355302",
        "country_qid": "Q215",
        "Wikidata Qid": "Q60355302"
      }
    },
    {
      "type": "Feature",
      "geometry": {
        "type": "Point",
        "coordinates": [
          14.7686797,
          46.39107668
        ]
      },
      "properties": {
        "label": "Q60354870",
        "type": "Industrial building",
        "entity": "http://www.wikidata.org/entity/Q60354870",
        "country_qid": "Q215",
        "Wikidata Qid": "Q60354870"
      }
    },
    {
      "type": "Feature",
      "geometry": {
        "type": "Point",
        "coordinates": [
          15.076214171,
          45.78213872
        ]
      },
      "properties": {
        "label": "Q60353982",
        "type": "Industrial building",
        "entity": "http://www.wikidata.org/entity/Q60353982",
        "country_qid": "Q215",
        "Wikidata Qid": "Q60353982"
      }
    },
    {
      "type": "Feature",
      "geometry": {
        "type": "Point",
        "coordinates": [
          15.198516874,
          45.518127935
        ]
      },
      "properties": {
        "label": "Q60354217",
        "type": "Industrial building",
        "entity": "http://www.wikidata.org/entity/Q60354217",
        "country_qid": "Q215",
        "Wikidata Qid": "Q60354217"
      }
    },
    {
      "type": "Feature",
      "geometry": {
        "type": "Point",
        "coordinates": [
          15.964949791,
          46.594501436
        ]
      },
      "properties": {
        "label": "Q60345079",
        "type": "Industrial building",
        "entity": "http://www.wikidata.org/entity/Q60345079",
        "country_qid": "Q215",
        "Wikidata Qid": "Q60345079"
      }
    },
    {
      "type": "Feature",
      "geometry": {
        "type": "Point",
        "coordinates": [
          14.056479537,
          46.432862384
        ]
      },
      "properties": {
        "label": "Q60359575",
        "type": "Industrial building",
        "entity": "http://www.wikidata.org/entity/Q60359575",
        "country_qid": "Q215",
        "Wikidata Qid": "Q60359575"
      }
    },
    {
      "type": "Feature",
      "geometry": {
        "type": "Point",
        "coordinates": [
          15.047946952,
          46.332771604
        ]
      },
      "properties": {
        "label": "Q60352603",
        "type": "Industrial building",
        "entity": "http://www.wikidata.org/entity/Q60352603",
        "country_qid": "Q215",
        "Wikidata Qid": "Q60352603"
      }
    },
    {
      "type": "Feature",
      "geometry": {
        "type": "Point",
        "coordinates": [
          16.178587512,
          46.849574366
        ]
      },
      "properties": {
        "label": "Q60339116",
        "type": "Industrial building",
        "entity": "http://www.wikidata.org/entity/Q60339116",
        "country_qid": "Q215",
        "Wikidata Qid": "Q60339116"
      }
    },
    {
      "type": "Feature",
      "geometry": {
        "type": "Point",
        "coordinates": [
          16.041473499,
          46.465060844
        ]
      },
      "properties": {
        "label": "Q60346360",
        "type": "Industrial building",
        "entity": "http://www.wikidata.org/entity/Q60346360",
        "country_qid": "Q215",
        "Wikidata Qid": "Q60346360"
      }
    },
    {
      "type": "Feature",
      "geometry": {
        "type": "Point",
        "coordinates": [
          16.378021417,
          46.575308459
        ]
      },
      "properties": {
        "label": "Q60346036",
        "type": "Industrial building",
        "entity": "http://www.wikidata.org/entity/Q60346036",
        "country_qid": "Q215",
        "Wikidata Qid": "Q60346036"
      }
    },
    {
      "type": "Feature",
      "geometry": {
        "type": "Point",
        "coordinates": [
          14.85528,
          46.51306
        ]
      },
      "properties": {
        "label": "Mežica Mine",
        "type": "Mine",
        "entity": "http://www.wikidata.org/entity/Q12800524",
        "country_qid": "Q215",
        "Wikidata Qid": "Q12800524"
      }
    },
    {
      "type": "Feature",
      "geometry": {
        "type": "Point",
        "coordinates": [
          15.18618889,
          46.15873889
        ]
      },
      "properties": {
        "label": "Barbara Pit",
        "type": "Mine",
        "entity": "http://www.wikidata.org/entity/Q807324",
        "country_qid": "Q215",
        "Wikidata Qid": "Q807324"
      }
    },
    {
      "type": "Feature",
      "geometry": {
        "type": "Point",
        "coordinates": [
          14.9900689,
          46.1391389
        ]
      },
      "properties": {
        "label": "Mine in Zagorje ob Savi",
        "type": "Mine",
        "entity": "http://www.wikidata.org/entity/Q50285610",
        "country_qid": "Q215",
        "Wikidata Qid": "Q50285610"
      }
    },
    {
      "type": "Feature",
      "geometry": {
        "type": "Point",
        "coordinates": [
          15.064867412,
          46.369690423
        ]
      },
      "properties": {
        "label": "Premogovnik Velenje",
        "type": "Mine",
        "entity": "http://www.wikidata.org/entity/Q12799436",
        "country_qid": "Q215",
        "Wikidata Qid": "Q12799436"
      }
    },
    {
      "type": "Feature",
      "geometry": {
        "type": "Point",
        "coordinates": [
          14.26557778,
          46.41136667
        ]
      },
      "properties": {
        "label": "St. Anna Mine",
        "type": "Mine",
        "entity": "http://www.wikidata.org/entity/Q12807134",
        "country_qid": "Q215",
        "Wikidata Qid": "Q12807134"
      }
    },
    {
      "type": "Feature",
      "geometry": {
        "type": "Point",
        "coordinates": [
          14.856656862,
          46.512089375
        ]
      },
      "properties": {
        "label": "Q60353376",
        "type": "Mine",
        "entity": "http://www.wikidata.org/entity/Q60353376",
        "country_qid": "Q215",
        "Wikidata Qid": "Q60353376"
      }
    },
    {
      "type": "Feature",
      "geometry": {
        "type": "Point",
        "coordinates": [
          14.02252769,
          45.99968338
        ]
      },
      "properties": {
        "label": "Idrija mine",
        "type": "Mine",
        "entity": "http://www.wikidata.org/entity/Q12073970",
        "country_qid": "Q215",
        "Wikidata Qid": "Q12073970"
      }
    },
    {
      "type": "Feature",
      "geometry": {
        "type": "Point",
        "coordinates": [
          14.862783887,
          46.513207534
        ]
      },
      "properties": {
        "label": "Q60353381",
        "type": "Mine",
        "entity": "http://www.wikidata.org/entity/Q60353381",
        "country_qid": "Q215",
        "Wikidata Qid": "Q60353381"
      }
    },
    {
      "type": "Feature",
      "geometry": {
        "type": "Point",
        "coordinates": [
          14.3367273,
          46.0072997
        ]
      },
      "properties": {
        "label": "Kucler quarry",
        "type": "Mine",
        "entity": "http://www.wikidata.org/entity/Q20522740",
        "country_qid": "Q215",
        "Wikidata Qid": "Q20522740"
      }
    }
  ]
}