{
  "type": "FeatureCollection",
  "features": [
    {
      "type": "Feature",
      "geometry": {
        "type": "Point",
        "coordinates": [
          1.237666666,
          42.673638888
        ]
      },
      "properties": {
        "label": "Montamara hydro power plant",
        "type": "power plant",
        "entity": "http://www.wikidata.org/entity/Q56371762",
        "country_qid": "Q29",
        "Wikidata Qid": "Q56371762"
      }
    },
    {
      "type": "Feature",
      "geometry": {
        "type": "Point",
        "coordinates": [
          -5.69694444,
          39.80805556
        ]
      },
      "properties": {
        "label": "Almaraz Nuclear Power Plant",
        "type": "power plant",
        "entity": "http://www.wikidata.org/entity/Q1431041",
        "country_qid": "Q29",
        "Wikidata Qid": "Q1431041"
      }
    },
    {
      "type": "Feature",
      "geometry": {
        "type": "Point",
        "coordinates": [
          -3.0525,
          43.33916667
        ]
      },
      "properties": {
        "label": "Santurtzi Power Plant",
        "type": "power plant",
        "entity": "http://www.wikidata.org/entity/Q8343552",
        "country_qid": "Q29",
        "Wikidata Qid": "Q8343552"
      }
    },
    {
      "type": "Feature",
      "geometry": {
        "type": "Point",
        "coordinates": [
          -3.20833333,
          42.775
        ]
      },
      "properties": {
        "label": "Santa María de Garoña Nuclear Power Plant",
        "type": "power plant",
        "entity": "http://www.wikidata.org/entity/Q1695264",
        "country_qid": "Q29",
        "Wikidata Qid": "Q1695264"
      }
    },
    {
      "type": "Feature",
      "geometry": {
        "type": "Point",
        "coordinates": [
          4.25905,
          39.9181
        ]
      },
      "properties": {
        "label": "Parc eòlic Milà",
        "type": "power plant",
        "entity": "http://www.wikidata.org/entity/Q9055950",
        "country_qid": "Q29",
        "Wikidata Qid": "Q9055950"
      }
    },
    {
      "type": "Feature",
      "geometry": {
        "type": "Point",
        "coordinates": [
          -0.67805556,
          40.68611111
        ]
      },
      "properties": {
        "label": "Central Térmica de Aliaga",
        "type": "power plant",
        "entity": "http://www.wikidata.org/entity/Q5760850",
        "country_qid": "Q29",
        "Wikidata Qid": "Q5760850"
      }
    },
    {
      "type": "Feature",
      "geometry": {
        "type": "Point",
        "coordinates": [
          -4.216024006,
          38.02260737
        ]
      },
      "properties": {
        "label": "Central Hidroeléctrica Casas Nuevas",
        "type": "power plant",
        "entity": "http://www.wikidata.org/entity/Q97630805",
        "country_qid": "Q29",
        "Wikidata Qid": "Q97630805"
      }
    },
    {
      "type": "Feature",
      "geometry": {
        "type": "Point",
        "coordinates": [
          -6.849750948,
          37.712211057
        ]
      },
      "properties": {
        "label": "Q98060808",
        "type": "power plant",
        "entity": "http://www.wikidata.org/entity/Q98060808",
        "country_qid": "Q29",
        "Wikidata Qid": "Q98060808"
      }
    },
    {
      "type": "Feature",
      "geometry": {
        "type": "Point",
        "coordinates": [
          1.190833333,
          41.108055555
        ]
      },
      "properties": {
        "label": "Tarragona Power Plant",
        "type": "power plant",
        "entity": "http://www.wikidata.org/entity/Q5760920",
        "country_qid": "Q29",
        "Wikidata Qid": "Q5760920"
      }
    },
    {
      "type": "Feature",
      "geometry": {
        "type": "Point",
        "coordinates": [
          0.86666667,
          40.95138889
        ]
      },
      "properties": {
        "label": "Vandellòs Nuclear Power Plant",
        "type": "power plant",
        "entity": "http://www.wikidata.org/entity/Q507704",
        "country_qid": "Q29",
        "Wikidata Qid": "Q507704"
      }
    },
    {
      "type": "Feature",
      "geometry": {
        "type": "Point",
        "coordinates": [
          -5.971410052,
          36.263689455
        ]
      },
      "properties": {
        "label": "Molino Harinero Hidraúlico de Santa Lucía I",
        "type": "power plant",
        "entity": "http://www.wikidata.org/entity/Q97620749",
        "country_qid": "Q29",
        "Wikidata Qid": "Q97620749"
      }
    },
    {
      "type": "Feature",
      "geometry": {
        "type": "Point",
        "coordinates": [
          2.181666666,
          41.392222222
        ]
      },
      "properties": {
        "label": "Central Vilanova",
        "type": "power plant",
        "entity": "http://www.wikidata.org/entity/Q47171081",
        "country_qid": "Q29",
        "Wikidata Qid": "Q47171081"
      }
    },
    {
      "type": "Feature",
      "geometry": {
        "type": "Point",
        "coordinates": [
          -3.670636164,
          38.30902621
        ]
      },
      "properties": {
        "label": "Inmueble Minero Industrial Casa de Central en La Urbana (Carolina (La))",
        "type": "power plant",
        "entity": "http://www.wikidata.org/entity/Q97630873",
        "country_qid": "Q29",
        "Wikidata Qid": "Q97630873"
      }
    },
    {
      "type": "Feature",
      "geometry": {
        "type": "Point",
        "coordinates": [
          -8.953333333,
          42.828611111
        ]
      },
      "properties": {
        "label": "Q31281944",
        "type": "power plant",
        "entity": "http://www.wikidata.org/entity/Q31281944",
        "country_qid": "Q29",
        "Wikidata Qid": "Q31281944"
      }
    },
    {
      "type": "Feature",
      "geometry": {
        "type": "Point",
        "coordinates": [
          2.689469,
          39.5678
        ]
      },
      "properties": {
        "label": "Cas Tresorer Power Station",
        "type": "power plant",
        "entity": "http://www.wikidata.org/entity/Q5760873",
        "country_qid": "Q29",
        "Wikidata Qid": "Q5760873"
      }
    },
    {
      "type": "Feature",
      "geometry": {
        "type": "Point",
        "coordinates": [
          -16.4932895,
          28.0849678
        ]
      },
      "properties": {
        "label": "Granadilla Power Station",
        "type": "power plant",
        "entity": "http://www.wikidata.org/entity/Q5760893",
        "country_qid": "Q29",
        "Wikidata Qid": "Q5760893"
      }
    },
    {
      "type": "Feature",
      "geometry": {
        "type": "Point",
        "coordinates": [
          0.756111111,
          42.569472222
        ]
      },
      "properties": {
        "label": "Moralets hydro power plant",
        "type": "power plant",
        "entity": "http://www.wikidata.org/entity/Q11989928",
        "country_qid": "Q29",
        "Wikidata Qid": "Q11989928"
      }
    },
    {
      "type": "Feature",
      "geometry": {
        "type": "Point",
        "coordinates": [
          -6.726388958,
          37.931296064
        ]
      },
      "properties": {
        "label": "Central Hidroeléctrica y Presa de Los Batanes",
        "type": "power plant",
        "entity": "http://www.wikidata.org/entity/Q126206862",
        "country_qid": "Q29",
        "Wikidata Qid": "Q126206862"
      }
    },
    {
      "type": "Feature",
      "geometry": {
        "type": "Point",
        "coordinates": [
          -4.717493271,
          37.0340336
        ]
      },
      "properties": {
        "label": "La Fábrica",
        "type": "power plant",
        "entity": "http://www.wikidata.org/entity/Q97634653",
        "country_qid": "Q29",
        "Wikidata Qid": "Q97634653"
      }
    },
    {
      "type": "Feature",
      "geometry": {
        "type": "Point",
        "coordinates": [
          -2.8725,
          43.43333
        ]
      },
      "properties": {
        "label": "Lemoniz Nuclear Power Plant",
        "type": "power plant",
        "entity": "http://www.wikidata.org/entity/Q1520384",
        "country_qid": "Q29",
        "Wikidata Qid": "Q1520384"
      }
    },
    {
      "type": "Feature",
      "geometry": {
        "type": "Point",
        "coordinates": [
          -0.394222222,
          39.4715
        ]
      },
      "properties": {
        "label": "Nou Moles power station",
        "type": "power plant",
        "entity": "http://www.wikidata.org/entity/Q50890155",
        "country_qid": "Q29",
        "Wikidata Qid": "Q50890155"
      }
    },
    {
      "type": "Feature",
      "geometry": {
        "type": "Point",
        "coordinates": [
          -4.35666,
          38.02142
        ]
      },
      "properties": {
        "label": "Q98060426",
        "type": "power plant",
        "entity": "http://www.wikidata.org/entity/Q98060426",
        "country_qid": "Q29",
        "Wikidata Qid": "Q98060426"
      }
    },
    {
      "type": "Feature",
      "geometry": {
        "type": "Point",
        "coordinates": [
          1.1809224,
          41.1097971
        ]
      },
      "properties": {
        "label": "Tarragona Power",
        "type": "power plant",
        "entity": "http://www.wikidata.org/entity/Q12005253",
        "country_qid": "Q29",
        "Wikidata Qid": "Q12005253"
      }
    },
    {
      "type": "Feature",
      "geometry": {
        "type": "Point",
        "coordinates": [
          -0.931638888,
          39.243861111
        ]
      },
      "properties": {
        "label": "La Muela-Cortes I hydro power plant",
        "type": "power plant",
        "entity": "http://www.wikidata.org/entity/Q56371914",
        "country_qid": "Q29",
        "Wikidata Qid": "Q56371914"
      }
    },
    {
      "type": "Feature",
      "geometry": {
        "type": "Point",
        "coordinates": [
          -0.931638888,
          39.243861111
        ]
      },
      "properties": {
        "label": "La Muela-Cortes II hydro power plant",
        "type": "power plant",
        "entity": "http://www.wikidata.org/entity/Q56371916",
        "country_qid": "Q29",
        "Wikidata Qid": "Q56371916"
      }
    },
    {
      "type": "Feature",
      "geometry": {
        "type": "Point",
        "coordinates": [
          -8.5,
          43.33194444
        ]
      },
      "properties": {
        "label": "Sabón Power Plant",
        "type": "power plant",
        "entity": "http://www.wikidata.org/entity/Q5760915",
        "country_qid": "Q29",
        "Wikidata Qid": "Q5760915"
      }
    },
    {
      "type": "Feature",
      "geometry": {
        "type": "Point",
        "coordinates": [
          -5.762655008,
          36.790666787
        ]
      },
      "properties": {
        "label": "Edificio Central Eléctrica",
        "type": "power plant",
        "entity": "http://www.wikidata.org/entity/Q97619585",
        "country_qid": "Q29",
        "Wikidata Qid": "Q97619585"
      }
    },
    {
      "type": "Feature",
      "geometry": {
        "type": "Point",
        "coordinates": [
          -1.252736896,
          42.959767257
        ]
      },
      "properties": {
        "label": "Q126192462",
        "type": "power plant",
        "entity": "http://www.wikidata.org/entity/Q126192462",
        "country_qid": "Q29",
        "Wikidata Qid": "Q126192462"
      }
    },
    {
      "type": "Feature",
      "geometry": {
        "type": "Point",
        "coordinates": [
          -3.7425,
          37.531111111
        ]
      },
      "properties": {
        "label": "Sierra del Trigo",
        "type": "power plant",
        "entity": "http://www.wikidata.org/entity/Q23978994",
        "country_qid": "Q29",
        "Wikidata Qid": "Q23978994"
      }
    },
    {
      "type": "Feature",
      "geometry": {
        "type": "Point",
        "coordinates": [
          -7.174194444,
          42.167888888
        ]
      },
      "properties": {
        "label": "Soutelo hydro power plant",
        "type": "power plant",
        "entity": "http://www.wikidata.org/entity/Q19389774",
        "country_qid": "Q29",
        "Wikidata Qid": "Q19389774"
      }
    },
    {
      "type": "Feature",
      "geometry": {
        "type": "Point",
        "coordinates": [
          1.43111111,
          38.91888889
        ]
      },
      "properties": {
        "label": "Ibiza power plant",
        "type": "power plant",
        "entity": "http://www.wikidata.org/entity/Q5760895",
        "country_qid": "Q29",
        "Wikidata Qid": "Q5760895"
      }
    },
    {
      "type": "Feature",
      "geometry": {
        "type": "Point",
        "coordinates": [
          -0.931638888,
          39.243861111
        ]
      },
      "properties": {
        "label": "La Muela-Cortes hydro power plant",
        "type": "power plant",
        "entity": "http://www.wikidata.org/entity/Q106149455",
        "country_qid": "Q29",
        "Wikidata Qid": "Q106149455"
      }
    },
    {
      "type": "Feature",
      "geometry": {
        "type": "Point",
        "coordinates": [
          -2.628597222,
          36.910211111
        ]
      },
      "properties": {
        "label": "Q16616348",
        "type": "power plant",
        "entity": "http://www.wikidata.org/entity/Q16616348",
        "country_qid": "Q29",
        "Wikidata Qid": "Q16616348"
      }
    },
    {
      "type": "Feature",
      "geometry": {
        "type": "Point",
        "coordinates": [
          -5.342215,
          35.896065
        ]
      },
      "properties": {
        "label": "Ceuta Power Plant",
        "type": "power plant",
        "entity": "http://www.wikidata.org/entity/Q5760776",
        "country_qid": "Q29",
        "Wikidata Qid": "Q5760776"
      }
    },
    {
      "type": "Feature",
      "geometry": {
        "type": "Point",
        "coordinates": [
          3.0921595,
          39.8104782
        ]
      },
      "properties": {
        "label": "Es Murterar Power Station",
        "type": "power plant",
        "entity": "http://www.wikidata.org/entity/Q5760879",
        "country_qid": "Q29",
        "Wikidata Qid": "Q5760879"
      }
    },
    {
      "type": "Feature",
      "geometry": {
        "type": "Point",
        "coordinates": [
          2.62361,
          41.97624
        ]
      },
      "properties": {
        "label": "Central d'en Ribes",
        "type": "power plant",
        "entity": "http://www.wikidata.org/entity/Q47196934",
        "country_qid": "Q29",
        "Wikidata Qid": "Q47196934"
      }
    },
    {
      "type": "Feature",
      "geometry": {
        "type": "Point",
        "coordinates": [
          -2.62222222,
          40.70138889
        ]
      },
      "properties": {
        "label": "Trillo Nuclear Power Plant",
        "type": "power plant",
        "entity": "http://www.wikidata.org/entity/Q1739484",
        "country_qid": "Q29",
        "Wikidata Qid": "Q1739484"
      }
    },
    {
      "type": "Feature",
      "geometry": {
        "type": "Point",
        "coordinates": [
          -3.626026489,
          38.14191602
        ]
      },
      "properties": {
        "label": "Central Eléctrica",
        "type": "power plant",
        "entity": "http://www.wikidata.org/entity/Q97630346",
        "country_qid": "Q29",
        "Wikidata Qid": "Q97630346"
      }
    },
    {
      "type": "Feature",
      "geometry": {
        "type": "Point",
        "coordinates": [
          -5.445888888,
          43.222166666
        ]
      },
      "properties": {
        "label": "Tanes Pumped Storage Power Plant",
        "type": "power plant",
        "entity": "http://www.wikidata.org/entity/Q12005170",
        "country_qid": "Q29",
        "Wikidata Qid": "Q12005170"
      }
    },
    {
      "type": "Feature",
      "geometry": {
        "type": "Point",
        "coordinates": [
          -9.201492801,
          43.148349926
        ]
      },
      "properties": {
        "label": "Q65276244",
        "type": "power plant",
        "entity": "http://www.wikidata.org/entity/Q65276244",
        "country_qid": "Q29",
        "Wikidata Qid": "Q65276244"
      }
    },
    {
      "type": "Feature",
      "geometry": {
        "type": "Point",
        "coordinates": [
          -0.23277778,
          39.64277778
        ]
      },
      "properties": {
        "label": "Sagunto Power Station",
        "type": "power plant",
        "entity": "http://www.wikidata.org/entity/Q7399391",
        "country_qid": "Q29",
        "Wikidata Qid": "Q7399391"
      }
    },
    {
      "type": "Feature",
      "geometry": {
        "type": "Point",
        "coordinates": [
          2.22861111,
          41.41833333
        ]
      },
      "properties": {
        "label": "Besós V power station",
        "type": "power plant",
        "entity": "http://www.wikidata.org/entity/Q5760829",
        "country_qid": "Q29",
        "Wikidata Qid": "Q5760829"
      }
    },
    {
      "type": "Feature",
      "geometry": {
        "type": "Point",
        "coordinates": [
          -5.930944444,
          37.916333333
        ]
      },
      "properties": {
        "label": "El Pintado hydro power plant",
        "type": "power plant",
        "entity": "http://www.wikidata.org/entity/Q56371934",
        "country_qid": "Q29",
        "Wikidata Qid": "Q56371934"
      }
    },
    {
      "type": "Feature",
      "geometry": {
        "type": "Point",
        "coordinates": [
          -6.94416667,
          37.21583333
        ]
      },
      "properties": {
        "label": "Christopher Columbus Power Plant",
        "type": "power plant",
        "entity": "http://www.wikidata.org/entity/Q8343547",
        "country_qid": "Q29",
        "Wikidata Qid": "Q8343547"
      }
    },
    {
      "type": "Feature",
      "geometry": {
        "type": "Point",
        "coordinates": [
          -2.44266,
          36.82251
        ]
      },
      "properties": {
        "label": "Almería power plant",
        "type": "power plant",
        "entity": "http://www.wikidata.org/entity/Q5760852",
        "country_qid": "Q29",
        "Wikidata Qid": "Q5760852"
      }
    },
    {
      "type": "Feature",
      "geometry": {
        "type": "Point",
        "coordinates": [
          -4.00025,
          43.09525
        ]
      },
      "properties": {
        "label": "Aguayo hydro power station",
        "type": "power plant",
        "entity": "http://www.wikidata.org/entity/Q11957057",
        "country_qid": "Q29",
        "Wikidata Qid": "Q11957057"
      }
    },
    {
      "type": "Feature",
      "geometry": {
        "type": "Point",
        "coordinates": [
          -1.292102101,
          42.916964422
        ]
      },
      "properties": {
        "label": "Q126192475",
        "type": "power plant",
        "entity": "http://www.wikidata.org/entity/Q126192475",
        "country_qid": "Q29",
        "Wikidata Qid": "Q126192475"
      }
    },
    {
      "type": "Feature",
      "geometry": {
        "type": "Point",
        "coordinates": [
          -17.910694444,
          27.794722222
        ]
      },
      "properties": {
        "label": "Gorona del Viento Wind Farm",
        "type": "power plant",
        "entity": "http://www.wikidata.org/entity/Q61939594",
        "country_qid": "Q29",
        "Wikidata Qid": "Q61939594"
      }
    },
    {
      "type": "Feature",
      "geometry": {
        "type": "Point",
        "coordinates": [
          2.6107,
          41.95097
        ]
      },
      "properties": {
        "label": "Central d'en Faria",
        "type": "power plant",
        "entity": "http://www.wikidata.org/entity/Q47185446",
        "country_qid": "Q29",
        "Wikidata Qid": "Q47185446"
      }
    },
    {
      "type": "Feature",
      "geometry": {
        "type": "Point",
        "coordinates": [
          -13.5167644,
          28.9788362
        ]
      },
      "properties": {
        "label": "Punta Grande Power Plant",
        "type": "power plant",
        "entity": "http://www.wikidata.org/entity/Q5760913",
        "country_qid": "Q29",
        "Wikidata Qid": "Q5760913"
      }
    },
    {
      "type": "Feature",
      "geometry": {
        "type": "Point",
        "coordinates": [
          -1.05,
          39.21666667
        ]
      },
      "properties": {
        "label": "Cofrentes Nuclear Power Plant",
        "type": "power plant",
        "entity": "http://www.wikidata.org/entity/Q1715858",
        "country_qid": "Q29",
        "Wikidata Qid": "Q1715858"
      }
    },
    {
      "type": "Feature",
      "geometry": {
        "type": "Point",
        "coordinates": [
          -2.938456,
          35.290598
        ]
      },
      "properties": {
        "label": "Central eléctrica de Melilla",
        "type": "power plant",
        "entity": "http://www.wikidata.org/entity/Q5760777",
        "country_qid": "Q29",
        "Wikidata Qid": "Q5760777"
      }
    },
    {
      "type": "Feature",
      "geometry": {
        "type": "Point",
        "coordinates": [
          -6.559063556,
          37.72478316
        ]
      },
      "properties": {
        "label": "Q98060340",
        "type": "power plant",
        "entity": "http://www.wikidata.org/entity/Q98060340",
        "country_qid": "Q29",
        "Wikidata Qid": "Q98060340"
      }
    },
    {
      "type": "Feature",
      "geometry": {
        "type": "Point",
        "coordinates": [
          -5.976434666,
          37.51858699
        ]
      },
      "properties": {
        "label": "Presa y central hidroeléctrica",
        "type": "power plant",
        "entity": "http://www.wikidata.org/entity/Q97642529",
        "country_qid": "Q29",
        "Wikidata Qid": "Q97642529"
      }
    },
    {
      "type": "Feature",
      "geometry": {
        "type": "Point",
        "coordinates": [
          -6.578086872,
          37.719949555
        ]
      },
      "properties": {
        "label": "Central Eléctrica",
        "type": "power plant",
        "entity": "http://www.wikidata.org/entity/Q97628401",
        "country_qid": "Q29",
        "Wikidata Qid": "Q97628401"
      }
    },
    {
      "type": "Feature",
      "geometry": {
        "type": "Point",
        "coordinates": [
          -4.32986,
          38.01336
        ]
      },
      "properties": {
        "label": "Q98060430",
        "type": "power plant",
        "entity": "http://www.wikidata.org/entity/Q98060430",
        "country_qid": "Q29",
        "Wikidata Qid": "Q98060430"
      }
    },
    {
      "type": "Feature",
      "geometry": {
        "type": "Point",
        "coordinates": [
          -2.78333333,
          38.13333333
        ]
      },
      "properties": {
        "label": "El Tranco de Beas Dam",
        "type": "power plant",
        "entity": "http://www.wikidata.org/entity/Q46670911",
        "country_qid": "Q29",
        "Wikidata Qid": "Q46670911"
      }
    },
    {
      "type": "Feature",
      "geometry": {
        "type": "Point",
        "coordinates": [
          0.56944444,
          41.2
        ]
      },
      "properties": {
        "label": "Ascó Nuclear Power Plant",
        "type": "power plant",
        "entity": "http://www.wikidata.org/entity/Q1640098",
        "country_qid": "Q29",
        "Wikidata Qid": "Q1640098"
      }
    },
    {
      "type": "Feature",
      "geometry": {
        "type": "Point",
        "coordinates": [
          -1.301168174,
          42.894730887
        ]
      },
      "properties": {
        "label": "Q126192466",
        "type": "power plant",
        "entity": "http://www.wikidata.org/entity/Q126192466",
        "country_qid": "Q29",
        "Wikidata Qid": "Q126192466"
      }
    },
    {
      "type": "Feature",
      "geometry": {
        "type": "Point",
        "coordinates": [
          -0.516305555,
          42.743361111
        ]
      },
      "properties": {
        "label": "Ip hydro power plant",
        "type": "power plant",
        "entity": "http://www.wikidata.org/entity/Q56371783",
        "country_qid": "Q29",
        "Wikidata Qid": "Q56371783"
      }
    },
    {
      "type": "Feature",
      "geometry": {
        "type": "Point",
        "coordinates": [
          -7.86169,
          43.3419
        ]
      },
      "properties": {
        "label": "Q12397174",
        "type": "power plant",
        "entity": "http://www.wikidata.org/entity/Q12397174",
        "country_qid": "Q29",
        "Wikidata Qid": "Q12397174"
      }
    },
    {
      "type": "Feature",
      "geometry": {
        "type": "Point",
        "coordinates": [
          -17.768047222,
          28.665313888
        ]
      },
      "properties": {
        "label": "Los Guinchos power station",
        "type": "power plant",
        "entity": "http://www.wikidata.org/entity/Q5760838",
        "country_qid": "Q29",
        "Wikidata Qid": "Q5760838"
      }
    },
    {
      "type": "Feature",
      "geometry": {
        "type": "Point",
        "coordinates": [
          0.920856,
          41.183
        ]
      },
      "properties": {
        "label": "Parc eòlic del Collet dels Feixos",
        "type": "power plant",
        "entity": "http://www.wikidata.org/entity/Q19368137",
        "country_qid": "Q29",
        "Wikidata Qid": "Q19368137"
      }
    },
    {
      "type": "Feature",
      "geometry": {
        "type": "Point",
        "coordinates": [
          -4.804780001,
          37.848681963
        ]
      },
      "properties": {
        "label": "Molino de Casillas",
        "type": "power plant",
        "entity": "http://www.wikidata.org/entity/Q97623842",
        "country_qid": "Q29",
        "Wikidata Qid": "Q97623842"
      }
    },
    {
      "type": "Feature",
      "geometry": {
        "type": "Point",
        "coordinates": [
          -2.23333333,
          41.05
        ]
      },
      "properties": {
        "label": "Maranchon Wind Farm",
        "type": "power plant",
        "entity": "http://www.wikidata.org/entity/Q932799",
        "country_qid": "Q29",
        "Wikidata Qid": "Q932799"
      }
    },
    {
      "type": "Feature",
      "geometry": {
        "type": "Point",
        "coordinates": [
          -7.097901014,
          37.596193404
        ]
      },
      "properties": {
        "label": "Central térmica de Tharsis",
        "type": "power plant",
        "entity": "http://www.wikidata.org/entity/Q98059184",
        "country_qid": "Q29",
        "Wikidata Qid": "Q98059184"
      }
    },
    {
      "type": "Feature",
      "geometry": {
        "type": "Point",
        "coordinates": [
          -15.437787,
          27.804234
        ]
      },
      "properties": {
        "label": "Barranco de Tirajana Power Station",
        "type": "power plant",
        "entity": "http://www.wikidata.org/entity/Q5760866",
        "country_qid": "Q29",
        "Wikidata Qid": "Q5760866"
      }
    },
    {
      "type": "Feature",
      "geometry": {
        "type": "Point",
        "coordinates": [
          1.396084,
          42.324122
        ]
      },
      "properties": {
        "label": "Central Tèrmica d'Adrall",
        "type": "power plant",
        "entity": "http://www.wikidata.org/entity/Q11913429",
        "country_qid": "Q29",
        "Wikidata Qid": "Q11913429"
      }
    },
    {
      "type": "Feature",
      "geometry": {
        "type": "Point",
        "coordinates": [
          1.13673889,
          41.50343333
        ]
      },
      "properties": {
        "label": "Parc eòlic Serra del Tallat",
        "type": "power plant",
        "entity": "http://www.wikidata.org/entity/Q11940190",
        "country_qid": "Q29",
        "Wikidata Qid": "Q11940190"
      }
    },
    {
      "type": "Feature",
      "geometry": {
        "type": "Point",
        "coordinates": [
          -6.14225,
          40.180027777
        ]
      },
      "properties": {
        "label": "Guijo de Granadilla hydro power plant",
        "type": "power plant",
        "entity": "http://www.wikidata.org/entity/Q56371962",
        "country_qid": "Q29",
        "Wikidata Qid": "Q56371962"
      }
    },
    {
      "type": "Feature",
      "geometry": {
        "type": "Point",
        "coordinates": [
          1.85857,
          42.173451
        ]
      },
      "properties": {
        "label": "Cercs power plant",
        "type": "power plant",
        "entity": "http://www.wikidata.org/entity/Q23503687",
        "country_qid": "Q29",
        "Wikidata Qid": "Q23503687"
      }
    },
    {
      "type": "Feature",
      "geometry": {
        "type": "Point",
        "coordinates": [
          -1.9122997,
          43.3239579
        ]
      },
      "properties": {
        "label": "Central Térmica de Pasajes",
        "type": "power plant",
        "entity": "http://www.wikidata.org/entity/Q5494590",
        "country_qid": "Q29",
        "Wikidata Qid": "Q5494590"
      }
    },
    {
      "type": "Feature",
      "geometry": {
        "type": "Point",
        "coordinates": [
          -4.732354,
          41.650325
        ]
      },
      "properties": {
        "label": "Electra Popular Vallisoletana",
        "type": "power plant",
        "entity": "http://www.wikidata.org/entity/Q67912791",
        "country_qid": "Q29",
        "Wikidata Qid": "Q67912791"
      }
    },
    {
      "type": "Feature",
      "geometry": {
        "type": "Point",
        "coordinates": [
          -6.1072451,
          37.6492591
        ]
      },
      "properties": {
        "label": "Q5760789",
        "type": "power plant",
        "entity": "http://www.wikidata.org/entity/Q5760789",
        "country_qid": "Q29",
        "Wikidata Qid": "Q5760789"
      }
    },
    {
      "type": "Feature",
      "geometry": {
        "type": "Point",
        "coordinates": [
          -5.408117777,
          36.85175365
        ]
      },
      "properties": {
        "label": "Fábrica de Electricidad de Bocaleones (Zahara)",
        "type": "power plant",
        "entity": "http://www.wikidata.org/entity/Q97620720",
        "country_qid": "Q29",
        "Wikidata Qid": "Q97620720"
      }
    },
    {
      "type": "Feature",
      "geometry": {
        "type": "Point",
        "coordinates": [
          -6.08054722,
          41.49045
        ]
      },
      "properties": {
        "label": "Central Nuclear de Moral de Sayago",
        "type": "power plant",
        "entity": "http://www.wikidata.org/entity/Q5760816",
        "country_qid": "Q29",
        "Wikidata Qid": "Q5760816"
      }
    },
    {
      "type": "Feature",
      "geometry": {
        "type": "Point",
        "coordinates": [
          -5.989027777,
          39.835611111
        ]
      },
      "properties": {
        "label": "Torrejón hydro power plant",
        "type": "power plant",
        "entity": "http://www.wikidata.org/entity/Q56371983",
        "country_qid": "Q29",
        "Wikidata Qid": "Q56371983"
      }
    },
    {
      "type": "Feature",
      "geometry": {
        "type": "Point",
        "coordinates": [
          -16.515777777,
          28.071555555
        ]
      },
      "properties": {
        "label": "5.5MW Enercon wind park",
        "type": "power plant",
        "entity": "http://www.wikidata.org/entity/Q94647378",
        "country_qid": "Q29",
        "Wikidata Qid": "Q94647378"
      }
    },
    {
      "type": "Feature",
      "geometry": {
        "type": "Point",
        "coordinates": [
          -1.15828522,
          42.98486718
        ]
      },
      "properties": {
        "label": "Q126192457",
        "type": "power plant",
        "entity": "http://www.wikidata.org/entity/Q126192457",
        "country_qid": "Q29",
        "Wikidata Qid": "Q126192457"
      }
    },
    {
      "type": "Feature",
      "geometry": {
        "type": "Point",
        "coordinates": [
          -2.4289,
          42.9576
        ]
      },
      "properties": {
        "label": "Elgea-Urkilla eolic park",
        "type": "power plant",
        "entity": "http://www.wikidata.org/entity/Q5359977",
        "country_qid": "Q29",
        "Wikidata Qid": "Q5359977"
      }
    },
    {
      "type": "Feature",
      "geometry": {
        "type": "Point",
        "coordinates": [
          -5.532275472,
          36.93627804
        ]
      },
      "properties": {
        "label": "Fábrica de Luz del Indiano",
        "type": "power plant",
        "entity": "http://www.wikidata.org/entity/Q97620791",
        "country_qid": "Q29",
        "Wikidata Qid": "Q97620791"
      }
    },
    {
      "type": "Feature",
      "geometry": {
        "type": "Point",
        "coordinates": [
          -7.549451002,
          43.724286325
        ]
      },
      "properties": {
        "label": "Q121162350",
        "type": "power plant",
        "entity": "http://www.wikidata.org/entity/Q121162350",
        "country_qid": "Q29",
        "Wikidata Qid": "Q121162350"
      }
    },
    {
      "type": "Feature",
      "geometry": {
        "type": "Point",
        "coordinates": [
          -5.491485347,
          36.771548945
        ]
      },
      "properties": {
        "label": "Fábrica de Luz del Bosque",
        "type": "power plant",
        "entity": "http://www.wikidata.org/entity/Q97620929",
        "country_qid": "Q29",
        "Wikidata Qid": "Q97620929"
      }
    },
    {
      "type": "Feature",
      "geometry": {
        "type": "Point",
        "coordinates": [
          -2.884444,
          40.349167
        ]
      },
      "properties": {
        "label": "José Cabrera Nuclear Power Station",
        "type": "power plant",
        "entity": "http://www.wikidata.org/entity/Q1561460",
        "country_qid": "Q29",
        "Wikidata Qid": "Q1561460"
      }
    },
    {
      "type": "Feature",
      "geometry": {
        "type": "Point",
        "coordinates": [
          -6.4889102,
          41.2548278
        ]
      },
      "properties": {
        "label": "Villarino hydro power plant",
        "type": "power plant",
        "entity": "http://www.wikidata.org/entity/Q12009828",
        "country_qid": "Q29",
        "Wikidata Qid": "Q12009828"
      }
    },
    {
      "type": "Feature",
      "geometry": {
        "type": "Point",
        "coordinates": [
          -6.861274556,
          37.307228994
        ]
      },
      "properties": {
        "label": "Q53844972",
        "type": "power plant",
        "entity": "http://www.wikidata.org/entity/Q53844972",
        "country_qid": "Q29",
        "Wikidata Qid": "Q53844972"
      }
    },
    {
      "type": "Feature",
      "geometry": {
        "type": "Point",
        "coordinates": [
          -6.685780555,
          41.211786111
        ]
      },
      "properties": {
        "label": "Aldeadávila Dam",
        "type": "power plant",
        "entity": "http://www.wikidata.org/entity/Q2885019",
        "country_qid": "Q29",
        "Wikidata Qid": "Q2885019"
      }
    },
    {
      "type": "Feature",
      "geometry": {
        "type": "Point",
        "coordinates": [
          -4.78075,
          37.389796
        ]
      },
      "properties": {
        "label": "Fábrica de electricidad La Aurora",
        "type": "power plant",
        "entity": "http://www.wikidata.org/entity/Q97625817",
        "country_qid": "Q29",
        "Wikidata Qid": "Q97625817"
      }
    },
    {
      "type": "Feature",
      "geometry": {
        "type": "Point",
        "coordinates": [
          -4.778313888,
          37.386844444
        ]
      },
      "properties": {
        "label": "Harinera e hidroeléctrica La Alianza, S.A.",
        "type": "power plant",
        "entity": "http://www.wikidata.org/entity/Q5390450",
        "country_qid": "Q29",
        "Wikidata Qid": "Q5390450"
      }
    },
    {
      "type": "Feature",
      "geometry": {
        "type": "Point",
        "coordinates": [
          -6.038482322,
          37.42531202
        ]
      },
      "properties": {
        "label": "Subestación para la Compañía Sevillana de Electricidad",
        "type": "power plant",
        "entity": "http://www.wikidata.org/entity/Q97642524",
        "country_qid": "Q29",
        "Wikidata Qid": "Q97642524"
      }
    },
    {
      "type": "Feature",
      "geometry": {
        "type": "Point",
        "coordinates": [
          -0.81563146,
          40.795394402
        ]
      },
      "properties": {
        "label": "Escucha power plant",
        "type": "power plant",
        "entity": "http://www.wikidata.org/entity/Q5760888",
        "country_qid": "Q29",
        "Wikidata Qid": "Q5760888"
      }
    },
    {
      "type": "Feature",
      "geometry": {
        "type": "Point",
        "coordinates": [
          -7.222444444,
          42.314444444
        ]
      },
      "properties": {
        "label": "Puente Bibey hydro power plant",
        "type": "power plant",
        "entity": "http://www.wikidata.org/entity/Q11996457",
        "country_qid": "Q29",
        "Wikidata Qid": "Q11996457"
      }
    },
    {
      "type": "Feature",
      "geometry": {
        "type": "Point",
        "coordinates": [
          2.68008,
          39.6486
        ]
      },
      "properties": {
        "label": "Son Reus power plant",
        "type": "power plant",
        "entity": "http://www.wikidata.org/entity/Q8343553",
        "country_qid": "Q29",
        "Wikidata Qid": "Q8343553"
      }
    },
    {
      "type": "Feature",
      "geometry": {
        "type": "Point",
        "coordinates": [
          -6.973644,
          37.264716
        ]
      },
      "properties": {
        "label": "Q98061088",
        "type": "power plant",
        "entity": "http://www.wikidata.org/entity/Q98061088",
        "country_qid": "Q29",
        "Wikidata Qid": "Q98061088"
      }
    },
    {
      "type": "Feature",
      "geometry": {
        "type": "Point",
        "coordinates": [
          -16.3575,
          28.381388888
        ]
      },
      "properties": {
        "label": "Caletillas Power Station",
        "type": "power plant",
        "entity": "http://www.wikidata.org/entity/Q5760868",
        "country_qid": "Q29",
        "Wikidata Qid": "Q5760868"
      }
    },
    {
      "type": "Feature",
      "geometry": {
        "type": "Point",
        "coordinates": [
          -16.642913,
          28.049556
        ]
      },
      "properties": {
        "label": "Arona power plant",
        "type": "power plant",
        "entity": "http://www.wikidata.org/entity/Q5760860",
        "country_qid": "Q29",
        "Wikidata Qid": "Q5760860"
      }
    },
    {
      "type": "Feature",
      "geometry": {
        "type": "Point",
        "coordinates": [
          -17.9075,
          27.778055555
        ]
      },
      "properties": {
        "label": "Llanos Blancos power plant",
        "type": "power plant",
        "entity": "http://www.wikidata.org/entity/Q6408498",
        "country_qid": "Q29",
        "Wikidata Qid": "Q6408498"
      }
    },
    {
      "type": "Feature",
      "geometry": {
        "type": "Point",
        "coordinates": [
          4.258656,
          39.896864
        ]
      },
      "properties": {
        "label": "Maó power plant",
        "type": "power plant",
        "entity": "http://www.wikidata.org/entity/Q5572789",
        "country_qid": "Q29",
        "Wikidata Qid": "Q5572789"
      }
    },
    {
      "type": "Feature",
      "geometry": {
        "type": "Point",
        "coordinates": [
          2.22972222,
          41.41944444
        ]
      },
      "properties": {
        "label": "Besós power station",
        "type": "power plant",
        "entity": "http://www.wikidata.org/entity/Q5760767",
        "country_qid": "Q29",
        "Wikidata Qid": "Q5760767"
      }
    },
    {
      "type": "Feature",
      "geometry": {
        "type": "Point",
        "coordinates": [
          -5.342791723,
          37.705980706
        ]
      },
      "properties": {
        "label": "Central eléctrica La Aceña De La Fábrica De Harinas",
        "type": "power plant",
        "entity": "http://www.wikidata.org/entity/Q126206606",
        "country_qid": "Q29",
        "Wikidata Qid": "Q126206606"
      }
    },
    {
      "type": "Feature",
      "geometry": {
        "type": "Point",
        "coordinates": [
          -6.774208115,
          37.92903115
        ]
      },
      "properties": {
        "label": "Fábrica de luz Santa Teresa en El Repilado",
        "type": "power plant",
        "entity": "http://www.wikidata.org/entity/Q97628467",
        "country_qid": "Q29",
        "Wikidata Qid": "Q97628467"
      }
    },
    {
      "type": "Feature",
      "geometry": {
        "type": "Point",
        "coordinates": [
          -4.763333333,
          36.908305555
        ]
      },
      "properties": {
        "label": "Tajo de la Encantada hydro power plant",
        "type": "power plant",
        "entity": "http://www.wikidata.org/entity/Q12005082",
        "country_qid": "Q29",
        "Wikidata Qid": "Q12005082"
      }
    },
    {
      "type": "Feature",
      "geometry": {
        "type": "Point",
        "coordinates": [
          -17.117777777,
          28.088055555
        ]
      },
      "properties": {
        "label": "El Palmar power plant",
        "type": "power plant",
        "entity": "http://www.wikidata.org/entity/Q5403438",
        "country_qid": "Q29",
        "Wikidata Qid": "Q5403438"
      }
    },
    {
      "type": "Feature",
      "geometry": {
        "type": "Point",
        "coordinates": [
          -3.369737,
          40.485611
        ]
      },
      "properties": {
        "label": "Central Eléctrica Complutense",
        "type": "power plant",
        "entity": "http://www.wikidata.org/entity/Q112081080",
        "country_qid": "Q29",
        "Wikidata Qid": "Q112081080"
      }
    },
    {
      "type": "Feature",
      "geometry": {
        "type": "Point",
        "coordinates": [
          -4.1232618,
          38.6479407
        ]
      },
      "properties": {
        "label": "Puertollano Power Plant",
        "type": "power plant",
        "entity": "http://www.wikidata.org/entity/Q5760911",
        "country_qid": "Q29",
        "Wikidata Qid": "Q5760911"
      }
    },
    {
      "type": "Feature",
      "geometry": {
        "type": "Point",
        "coordinates": [
          -5.18056,
          39.29083
        ]
      },
      "properties": {
        "label": "Valdecaballeros Nuclear Power Plant",
        "type": "power plant",
        "entity": "http://www.wikidata.org/entity/Q1739488",
        "country_qid": "Q29",
        "Wikidata Qid": "Q1739488"
      }
    },
    {
      "type": "Feature",
      "geometry": {
        "type": "Point",
        "coordinates": [
          -7.188666666,
          42.154166666
        ]
      },
      "properties": {
        "label": "Conso hydro power plant",
        "type": "power plant",
        "entity": "http://www.wikidata.org/entity/Q56371815",
        "country_qid": "Q29",
        "Wikidata Qid": "Q56371815"
      }
    },
    {
      "type": "Feature",
      "geometry": {
        "type": "Point",
        "coordinates": [
          -3.843550652,
          38.03579266
        ]
      },
      "properties": {
        "label": "Central Hidroeléctrica Aceñas de San Rafael",
        "type": "power plant",
        "entity": "http://www.wikidata.org/entity/Q97630798",
        "country_qid": "Q29",
        "Wikidata Qid": "Q97630798"
      }
    },
    {
      "type": "Feature",
      "geometry": {
        "type": "Point",
        "coordinates": [
          -6.59083333,
          42.5575
        ]
      },
      "properties": {
        "label": "Central térmica de la Minero Siderúrgica de Ponferrada",
        "type": "power plant",
        "entity": "http://www.wikidata.org/entity/Q5760923",
        "country_qid": "Q29",
        "Wikidata Qid": "Q5760923"
      }
    },
    {
      "type": "Feature",
      "geometry": {
        "type": "Point",
        "coordinates": [
          1.67361111,
          41.21
        ]
      },
      "properties": {
        "label": "Cubelles power station",
        "type": "power plant",
        "entity": "http://www.wikidata.org/entity/Q5643788",
        "country_qid": "Q29",
        "Wikidata Qid": "Q5643788"
      }
    },
    {
      "type": "Feature",
      "geometry": {
        "type": "Point",
        "coordinates": [
          -5.613,
          39.778
        ]
      },
      "properties": {
        "label": "Valdecañas Dam",
        "type": "power plant",
        "entity": "http://www.wikidata.org/entity/Q106171110",
        "country_qid": "Q29",
        "Wikidata Qid": "Q106171110"
      }
    },
    {
      "type": "Feature",
      "geometry": {
        "type": "Point",
        "coordinates": [
          -3.665068829,
          38.10098692
        ]
      },
      "properties": {
        "label": "Q98059574",
        "type": "power plant",
        "entity": "http://www.wikidata.org/entity/Q98059574",
        "country_qid": "Q29",
        "Wikidata Qid": "Q98059574"
      }
    },
    {
      "type": "Feature",
      "geometry": {
        "type": "Point",
        "coordinates": [
          -13.8446605,
          28.5041408
        ]
      },
      "properties": {
        "label": "Las Salinas power plant",
        "type": "power plant",
        "entity": "http://www.wikidata.org/entity/Q5760901",
        "country_qid": "Q29",
        "Wikidata Qid": "Q5760901"
      }
    },
    {
      "type": "Feature",
      "geometry": {
        "type": "Point",
        "coordinates": [
          -0.639916666,
          39.015916666
        ]
      },
      "properties": {
        "label": "Q117770910",
        "type": "power plant",
        "entity": "http://www.wikidata.org/entity/Q117770910",
        "country_qid": "Q29",
        "Wikidata Qid": "Q117770910"
      }
    },
    {
      "type": "Feature",
      "geometry": {
        "type": "Point",
        "coordinates": [
          -3.96666667,
          38.65
        ]
      },
      "properties": {
        "label": "Puertollano Solar Thermal Power Plant",
        "type": "power plant",
        "entity": "http://www.wikidata.org/entity/Q7258849",
        "country_qid": "Q29",
        "Wikidata Qid": "Q7258849"
      }
    },
    {
      "type": "Feature",
      "geometry": {
        "type": "Point",
        "coordinates": [
          -15.417176,
          27.86394
        ]
      },
      "properties": {
        "label": "Q18630843",
        "type": "power plant",
        "entity": "http://www.wikidata.org/entity/Q18630843",
        "country_qid": "Q29",
        "Wikidata Qid": "Q18630843"
      }
    },
    {
      "type": "Feature",
      "geometry": {
        "type": "Point",
        "coordinates": [
          -4.934213,
          38.110644
        ]
      },
      "properties": {
        "label": "Puente Nuevo Power Station",
        "type": "power plant",
        "entity": "http://www.wikidata.org/entity/Q11996454",
        "country_qid": "Q29",
        "Wikidata Qid": "Q11996454"
      }
    },
    {
      "type": "Feature",
      "geometry": {
        "type": "Point",
        "coordinates": [
          -0.391667,
          39.455278
        ]
      },
      "properties": {
        "label": "Patraix electrical substation",
        "type": "power plant",
        "entity": "http://www.wikidata.org/entity/Q94995280",
        "country_qid": "Q29",
        "Wikidata Qid": "Q94995280"
      }
    },
    {
      "type": "Feature",
      "geometry": {
        "type": "Point",
        "coordinates": [
          -5.779,
          39.226
        ]
      },
      "properties": {
        "label": "Abertura Photovoltaic Power Station",
        "type": "power plant",
        "entity": "http://www.wikidata.org/entity/Q4667209",
        "country_qid": "Q29",
        "Wikidata Qid": "Q4667209"
      }
    },
    {
      "type": "Feature",
      "geometry": {
        "type": "Point",
        "coordinates": [
          -2.8,
          39.65
        ]
      },
      "properties": {
        "label": "Osa de la Vega Solar Plant",
        "type": "power plant",
        "entity": "http://www.wikidata.org/entity/Q7105490",
        "country_qid": "Q29",
        "Wikidata Qid": "Q7105490"
      }
    },
    {
      "type": "Feature",
      "geometry": {
        "type": "Point",
        "coordinates": [
          3.178943,
          39.56703
        ]
      },
      "properties": {
        "label": "Parc Solar de Can verd",
        "type": "power plant",
        "entity": "http://www.wikidata.org/entity/Q18630839",
        "country_qid": "Q29",
        "Wikidata Qid": "Q18630839"
      }
    },
    {
      "type": "Feature",
      "geometry": {
        "type": "Point",
        "coordinates": [
          -1.60027778,
          38.27833333
        ]
      },
      "properties": {
        "label": "Puerto Errado 2",
        "type": "power plant",
        "entity": "http://www.wikidata.org/entity/Q7258554",
        "country_qid": "Q29",
        "Wikidata Qid": "Q7258554"
      }
    },
    {
      "type": "Feature",
      "geometry": {
        "type": "Point",
        "coordinates": [
          -2.178,
          37.014
        ]
      },
      "properties": {
        "label": "Q110270944",
        "type": "power plant",
        "entity": "http://www.wikidata.org/entity/Q110270944",
        "country_qid": "Q29",
        "Wikidata Qid": "Q110270944"
      }
    },
    {
      "type": "Feature",
      "geometry": {
        "type": "Point",
        "coordinates": [
          -2.35833333,
          37.09166667
        ]
      },
      "properties": {
        "label": "Plataforma Solar de Almería",
        "type": "power plant",
        "entity": "http://www.wikidata.org/entity/Q694376",
        "country_qid": "Q29",
        "Wikidata Qid": "Q694376"
      }
    },
    {
      "type": "Feature",
      "geometry": {
        "type": "Point",
        "coordinates": [
          -2.4087,
          39.2759
        ]
      },
      "properties": {
        "label": "Casas de Los Pinos Solar Power Plant",
        "type": "power plant",
        "entity": "http://www.wikidata.org/entity/Q5048052",
        "country_qid": "Q29",
        "Wikidata Qid": "Q5048052"
      }
    },
    {
      "type": "Feature",
      "geometry": {
        "type": "Point",
        "coordinates": [
          -0.382777777,
          40.997777777
        ]
      },
      "properties": {
        "label": "Teruel Power Plant",
        "type": "power plant",
        "entity": "http://www.wikidata.org/entity/Q1786223",
        "country_qid": "Q29",
        "Wikidata Qid": "Q1786223"
      }
    },
    {
      "type": "Feature",
      "geometry": {
        "type": "Point",
        "coordinates": [
          -3.855,
          39.94388889
        ]
      },
      "properties": {
        "label": "Aceca Power Plant",
        "type": "power plant",
        "entity": "http://www.wikidata.org/entity/Q5760847",
        "country_qid": "Q29",
        "Wikidata Qid": "Q5760847"
      }
    },
    {
      "type": "Feature",
      "geometry": {
        "type": "Point",
        "coordinates": [
          -2.975353,
          43.2822491
        ]
      },
      "properties": {
        "label": "Q110314362",
        "type": "power plant",
        "entity": "http://www.wikidata.org/entity/Q110314362",
        "country_qid": "Q29",
        "Wikidata Qid": "Q110314362"
      }
    },
    {
      "type": "Feature",
      "geometry": {
        "type": "Point",
        "coordinates": [
          -1.81722222,
          37.68666667
        ]
      },
      "properties": {
        "label": "Fuente Álamo Solar Power Plant",
        "type": "power plant",
        "entity": "http://www.wikidata.org/entity/Q3906290",
        "country_qid": "Q29",
        "Wikidata Qid": "Q3906290"
      }
    },
    {
      "type": "Feature",
      "geometry": {
        "type": "Point",
        "coordinates": [
          -5.42,
          36.18277778
        ]
      },
      "properties": {
        "label": "Los Barrios power plant",
        "type": "power plant",
        "entity": "http://www.wikidata.org/entity/Q5760908",
        "country_qid": "Q29",
        "Wikidata Qid": "Q5760908"
      }
    },
    {
      "type": "Feature",
      "geometry": {
        "type": "Point",
        "coordinates": [
          -1.405666666,
          37.956555555
        ]
      },
      "properties": {
        "label": "Mula Photovoltaic Power Plant",
        "type": "power plant",
        "entity": "http://www.wikidata.org/entity/Q80940643",
        "country_qid": "Q29",
        "Wikidata Qid": "Q80940643"
      }
    },
    {
      "type": "Feature",
      "geometry": {
        "type": "Point",
        "coordinates": [
          -2.37716667,
          43.31241667
        ]
      },
      "properties": {
        "label": "Central undimotriz de Mutriku",
        "type": "power plant",
        "entity": "http://www.wikidata.org/entity/Q5760928",
        "country_qid": "Q29",
        "Wikidata Qid": "Q5760928"
      }
    },
    {
      "type": "Feature",
      "geometry": {
        "type": "Point",
        "coordinates": [
          -5.41305556,
          36.19555556
        ]
      },
      "properties": {
        "label": "San Roque Power Plant",
        "type": "power plant",
        "entity": "http://www.wikidata.org/entity/Q5760766",
        "country_qid": "Q29",
        "Wikidata Qid": "Q5760766"
      }
    },
    {
      "type": "Feature",
      "geometry": {
        "type": "Point",
        "coordinates": [
          -2.7498904,
          43.2346604
        ]
      },
      "properties": {
        "label": "Central Térmica de Boroa",
        "type": "power plant",
        "entity": "http://www.wikidata.org/entity/Q8248378",
        "country_qid": "Q29",
        "Wikidata Qid": "Q8248378"
      }
    },
    {
      "type": "Feature",
      "geometry": {
        "type": "Point",
        "coordinates": [
          0.53508889,
          41.24727222
        ]
      },
      "properties": {
        "label": "Parc solar Ramon Escriche",
        "type": "power plant",
        "entity": "http://www.wikidata.org/entity/Q11940192",
        "country_qid": "Q29",
        "Wikidata Qid": "Q11940192"
      }
    },
    {
      "type": "Feature",
      "geometry": {
        "type": "Point",
        "coordinates": [
          -5.81611111,
          36.6725
        ]
      },
      "properties": {
        "label": "Arcos de la Frontera Power Plant",
        "type": "power plant",
        "entity": "http://www.wikidata.org/entity/Q5760857",
        "country_qid": "Q29",
        "Wikidata Qid": "Q5760857"
      }
    },
    {
      "type": "Feature",
      "geometry": {
        "type": "Point",
        "coordinates": [
          -1.695,
          42.177222222
        ]
      },
      "properties": {
        "label": "Castejón 1 and 3 Power Plant",
        "type": "power plant",
        "entity": "http://www.wikidata.org/entity/Q3441485",
        "country_qid": "Q29",
        "Wikidata Qid": "Q3441485"
      }
    },
    {
      "type": "Feature",
      "geometry": {
        "type": "Point",
        "coordinates": [
          -3.060277777,
          37.223055555
        ]
      },
      "properties": {
        "label": "Andasol solar power station",
        "type": "power plant",
        "entity": "http://www.wikidata.org/entity/Q490037",
        "country_qid": "Q29",
        "Wikidata Qid": "Q490037"
      }
    },
    {
      "type": "Feature",
      "geometry": {
        "type": "Point",
        "coordinates": [
          -6.74,
          38.65
        ]
      },
      "properties": {
        "label": "Extresol Solar Power Station",
        "type": "power plant",
        "entity": "http://www.wikidata.org/entity/Q2944631",
        "country_qid": "Q29",
        "Wikidata Qid": "Q2944631"
      }
    },
    {
      "type": "Feature",
      "geometry": {
        "type": "Point",
        "coordinates": [
          -6.22,
          38.44
        ]
      },
      "properties": {
        "label": "Núñez de Balboa photovoltaic plant",
        "type": "power plant",
        "entity": "http://www.wikidata.org/entity/Q135016815",
        "country_qid": "Q29",
        "Wikidata Qid": "Q135016815"
      }
    },
    {
      "type": "Feature",
      "geometry": {
        "type": "Point",
        "coordinates": [
          -7.8625,
          43.44055556
        ]
      },
      "properties": {
        "label": "As Pontes Power Station",
        "type": "power plant",
        "entity": "http://www.wikidata.org/entity/Q3398318",
        "country_qid": "Q29",
        "Wikidata Qid": "Q3398318"
      }
    },
    {
      "type": "Feature",
      "geometry": {
        "type": "Point",
        "coordinates": [
          -6.2,
          37.36666667
        ]
      },
      "properties": {
        "label": "Solnova Solar Power Station",
        "type": "power plant",
        "entity": "http://www.wikidata.org/entity/Q2944639",
        "country_qid": "Q29",
        "Wikidata Qid": "Q2944639"
      }
    },
    {
      "type": "Feature",
      "geometry": {
        "type": "Point",
        "coordinates": [
          -2.178,
          37.014
        ]
      },
      "properties": {
        "label": "Lucainena de las Torres Photovoltaic Power Station",
        "type": "power plant",
        "entity": "http://www.wikidata.org/entity/Q15243055",
        "country_qid": "Q29",
        "Wikidata Qid": "Q15243055"
      }
    },
    {
      "type": "Feature",
      "geometry": {
        "type": "Point",
        "coordinates": [
          1.860180555,
          42.176047222
        ]
      },
      "properties": {
        "label": "Fígols power plant",
        "type": "power plant",
        "entity": "http://www.wikidata.org/entity/Q23503987",
        "country_qid": "Q29",
        "Wikidata Qid": "Q23503987"
      }
    },
    {
      "type": "Feature",
      "geometry": {
        "type": "Point",
        "coordinates": [
          -5.86171667,
          41.47927778
        ]
      },
      "properties": {
        "label": "San Román Dam",
        "type": "power plant",
        "entity": "http://www.wikidata.org/entity/Q6085406",
        "country_qid": "Q29",
        "Wikidata Qid": "Q6085406"
      }
    },
    {
      "type": "Feature",
      "geometry": {
        "type": "Point",
        "coordinates": [
          -4.8543157,
          42.8180718
        ]
      },
      "properties": {
        "label": "Velilla Power Plant",
        "type": "power plant",
        "entity": "http://www.wikidata.org/entity/Q4168052",
        "country_qid": "Q29",
        "Wikidata Qid": "Q4168052"
      }
    },
    {
      "type": "Feature",
      "geometry": {
        "type": "Point",
        "coordinates": [
          -5.63444444,
          42.79222222
        ]
      },
      "properties": {
        "label": "La Robla Power Plant",
        "type": "power plant",
        "entity": "http://www.wikidata.org/entity/Q3410626",
        "country_qid": "Q29",
        "Wikidata Qid": "Q3410626"
      }
    },
    {
      "type": "Feature",
      "geometry": {
        "type": "Point",
        "coordinates": [
          -1.681,
          38.261
        ]
      },
      "properties": {
        "label": "Calasparra Photovoltaic Power Plant",
        "type": "power plant",
        "entity": "http://www.wikidata.org/entity/Q5018560",
        "country_qid": "Q29",
        "Wikidata Qid": "Q5018560"
      }
    },
    {
      "type": "Feature",
      "geometry": {
        "type": "Point",
        "coordinates": [
          -1.69333333,
          42.26944444
        ]
      },
      "properties": {
        "label": "Arnedo Solar Plant",
        "type": "power plant",
        "entity": "http://www.wikidata.org/entity/Q4794711",
        "country_qid": "Q29",
        "Wikidata Qid": "Q4794711"
      }
    },
    {
      "type": "Feature",
      "geometry": {
        "type": "Point",
        "coordinates": [
          -0.72722222,
          38.72111111
        ]
      },
      "properties": {
        "label": "Beneixama photovoltaic power plant",
        "type": "power plant",
        "entity": "http://www.wikidata.org/entity/Q3664535",
        "country_qid": "Q29",
        "Wikidata Qid": "Q3664535"
      }
    },
    {
      "type": "Feature",
      "geometry": {
        "type": "Point",
        "coordinates": [
          -3.4160796,
          40.709914
        ]
      },
      "properties": {
        "label": "Q88279617",
        "type": "power plant",
        "entity": "http://www.wikidata.org/entity/Q88279617",
        "country_qid": "Q29",
        "Wikidata Qid": "Q88279617"
      }
    },
    {
      "type": "Feature",
      "geometry": {
        "type": "Point",
        "coordinates": [
          -3.79833333,
          37.79833333
        ]
      },
      "properties": {
        "label": "Los Olivares",
        "type": "power plant",
        "entity": "http://www.wikidata.org/entity/Q6063222",
        "country_qid": "Q29",
        "Wikidata Qid": "Q6063222"
      }
    },
    {
      "type": "Feature",
      "geometry": {
        "type": "Point",
        "coordinates": [
          -1.075319444,
          39.197138888
        ]
      },
      "properties": {
        "label": "Q117765307",
        "type": "power plant",
        "entity": "http://www.wikidata.org/entity/Q117765307",
        "country_qid": "Q29",
        "Wikidata Qid": "Q117765307"
      }
    },
    {
      "type": "Feature",
      "geometry": {
        "type": "Point",
        "coordinates": [
          -2.07694444,
          39.62861111
        ]
      },
      "properties": {
        "label": "Olmedilla Photovoltaic Park",
        "type": "power plant",
        "entity": "http://www.wikidata.org/entity/Q1749432",
        "country_qid": "Q29",
        "Wikidata Qid": "Q1749432"
      }
    },
    {
      "type": "Feature",
      "geometry": {
        "type": "Point",
        "coordinates": [
          -6.56583333,
          42.61111111
        ]
      },
      "properties": {
        "label": "Compostilla II Power Plant",
        "type": "power plant",
        "entity": "http://www.wikidata.org/entity/Q8343544",
        "country_qid": "Q29",
        "Wikidata Qid": "Q8343544"
      }
    },
    {
      "type": "Feature",
      "geometry": {
        "type": "Point",
        "coordinates": [
          -3.97472222,
          38.62166667
        ]
      },
      "properties": {
        "label": "Puertollano Photovoltaic Park",
        "type": "power plant",
        "entity": "http://www.wikidata.org/entity/Q7258848",
        "country_qid": "Q29",
        "Wikidata Qid": "Q7258848"
      }
    },
    {
      "type": "Feature",
      "geometry": {
        "type": "Point",
        "coordinates": [
          -5.32905556,
          37.55808611
        ]
      },
      "properties": {
        "label": "Gemasolar Thermosolar Plant",
        "type": "power plant",
        "entity": "http://www.wikidata.org/entity/Q3067560",
        "country_qid": "Q29",
        "Wikidata Qid": "Q3067560"
      }
    },
    {
      "type": "Feature",
      "geometry": {
        "type": "Point",
        "coordinates": [
          -1.90502,
          36.978394
        ]
      },
      "properties": {
        "label": "Litoral de Almería Power Plant",
        "type": "power plant",
        "entity": "http://www.wikidata.org/entity/Q8343548",
        "country_qid": "Q29",
        "Wikidata Qid": "Q8343548"
      }
    },
    {
      "type": "Feature",
      "geometry": {
        "type": "Point",
        "coordinates": [
          -6.47027778,
          41.30111111
        ]
      },
      "properties": {
        "label": "Bemposta Dam",
        "type": "power plant",
        "entity": "http://www.wikidata.org/entity/Q3375350",
        "country_qid": "Q29",
        "Wikidata Qid": "Q3375350"
      }
    },
    {
      "type": "Feature",
      "geometry": {
        "type": "Point",
        "coordinates": [
          -6.886972222,
          37.183608333
        ]
      },
      "properties": {
        "label": "Palos de la Frontera power plant",
        "type": "power plant",
        "entity": "http://www.wikidata.org/entity/Q11994661",
        "country_qid": "Q29",
        "Wikidata Qid": "Q11994661"
      }
    },
    {
      "type": "Feature",
      "geometry": {
        "type": "Point",
        "coordinates": [
          -4.126334,
          38.682422
        ]
      },
      "properties": {
        "label": "Q126178727",
        "type": "power plant",
        "entity": "http://www.wikidata.org/entity/Q126178727",
        "country_qid": "Q29",
        "Wikidata Qid": "Q126178727"
      }
    },
    {
      "type": "Feature",
      "geometry": {
        "type": "Point",
        "coordinates": [
          -1.2761,
          38.3645
        ]
      },
      "properties": {
        "label": "Hoya de Los Vicentes Solar Plant",
        "type": "power plant",
        "entity": "http://www.wikidata.org/entity/Q11975954",
        "country_qid": "Q29",
        "Wikidata Qid": "Q11975954"
      }
    },
    {
      "type": "Feature",
      "geometry": {
        "type": "Point",
        "coordinates": [
          -5.62865,
          37.09544
        ]
      },
      "properties": {
        "label": "El Coronil Solar Power Plant",
        "type": "power plant",
        "entity": "http://www.wikidata.org/entity/Q5351069",
        "country_qid": "Q29",
        "Wikidata Qid": "Q5351069"
      }
    },
    {
      "type": "Feature",
      "geometry": {
        "type": "Point",
        "coordinates": [
          -5.93888889,
          39.43416667
        ]
      },
      "properties": {
        "label": "La Magascona and Magasquila photovoltaic power stations",
        "type": "power plant",
        "entity": "http://www.wikidata.org/entity/Q6463598",
        "country_qid": "Q29",
        "Wikidata Qid": "Q6463598"
      }
    },
    {
      "type": "Feature",
      "geometry": {
        "type": "Point",
        "coordinates": [
          -5.84,
          36.66111111
        ]
      },
      "properties": {
        "label": "Valle Solar Power Station",
        "type": "power plant",
        "entity": "http://www.wikidata.org/entity/Q6159025",
        "country_qid": "Q29",
        "Wikidata Qid": "Q6159025"
      }
    },
    {
      "type": "Feature",
      "geometry": {
        "type": "Point",
        "coordinates": [
          -0.46929,
          39.50027
        ]
      },
      "properties": {
        "label": "Molí de Daroquí",
        "type": "power plant",
        "entity": "http://www.wikidata.org/entity/Q29065943",
        "country_qid": "Q29",
        "Wikidata Qid": "Q29065943"
      }
    },
    {
      "type": "Feature",
      "geometry": {
        "type": "Point",
        "coordinates": [
          -0.791475,
          38.492705
        ]
      },
      "properties": {
        "label": "Fábrica de Luz del Monastil",
        "type": "power plant",
        "entity": "http://www.wikidata.org/entity/Q84042884",
        "country_qid": "Q29",
        "Wikidata Qid": "Q84042884"
      }
    },
    {
      "type": "Feature",
      "geometry": {
        "type": "Point",
        "coordinates": [
          3.8287262,
          40.0284981
        ]
      },
      "properties": {
        "label": "Granja solar de Son Salomó",
        "type": "power plant",
        "entity": "http://www.wikidata.org/entity/Q6063227",
        "country_qid": "Q29",
        "Wikidata Qid": "Q6063227"
      }
    },
    {
      "type": "Feature",
      "geometry": {
        "type": "Point",
        "coordinates": [
          -2.251111111,
          42.419444444
        ]
      },
      "properties": {
        "label": "Arrúbal Power Plant",
        "type": "power plant",
        "entity": "http://www.wikidata.org/entity/Q8343549",
        "country_qid": "Q29",
        "Wikidata Qid": "Q8343549"
      }
    },
    {
      "type": "Feature",
      "geometry": {
        "type": "Point",
        "coordinates": [
          0.001388888,
          39.955833333
        ]
      },
      "properties": {
        "label": "Castelló thermal power station",
        "type": "power plant",
        "entity": "http://www.wikidata.org/entity/Q3434722",
        "country_qid": "Q29",
        "Wikidata Qid": "Q3434722"
      }
    },
    {
      "type": "Feature",
      "geometry": {
        "type": "Point",
        "coordinates": [
          -0.94583333,
          37.57055556
        ]
      },
      "properties": {
        "label": "Q5872805",
        "type": "power plant",
        "entity": "http://www.wikidata.org/entity/Q5872805",
        "country_qid": "Q29",
        "Wikidata Qid": "Q5872805"
      }
    },
    {
      "type": "Feature",
      "geometry": {
        "type": "Point",
        "coordinates": [
          -16.528027777,
          28.057861111
        ]
      },
      "properties": {
        "label": "Solar Thermoelectric Energy Laboratory",
        "type": "power plant",
        "entity": "http://www.wikidata.org/entity/Q100306995",
        "country_qid": "Q29",
        "Wikidata Qid": "Q100306995"
      }
    },
    {
      "type": "Feature",
      "geometry": {
        "type": "Point",
        "coordinates": [
          -4.50779,
          42.0053
        ]
      },
      "properties": {
        "label": "Q125503996",
        "type": "power plant",
        "entity": "http://www.wikidata.org/entity/Q125503996",
        "country_qid": "Q29",
        "Wikidata Qid": "Q125503996"
      }
    },
    {
      "type": "Feature",
      "geometry": {
        "type": "Point",
        "coordinates": [
          -6.25944444,
          37.44388889
        ]
      },
      "properties": {
        "label": "PS20 solar power plant",
        "type": "power plant",
        "entity": "http://www.wikidata.org/entity/Q2404565",
        "country_qid": "Q29",
        "Wikidata Qid": "Q2404565"
      }
    },
    {
      "type": "Feature",
      "geometry": {
        "type": "Point",
        "coordinates": [
          -5.392906,
          36.183452
        ]
      },
      "properties": {
        "label": "Campo de Gibraltar Power Plant",
        "type": "power plant",
        "entity": "http://www.wikidata.org/entity/Q5760831",
        "country_qid": "Q29",
        "Wikidata Qid": "Q5760831"
      }
    },
    {
      "type": "Feature",
      "geometry": {
        "type": "Point",
        "coordinates": [
          -5.389223,
          36.18297
        ]
      },
      "properties": {
        "label": "Bahía de Algeciras Power Plant",
        "type": "power plant",
        "entity": "http://www.wikidata.org/entity/Q5760827",
        "country_qid": "Q29",
        "Wikidata Qid": "Q5760827"
      }
    },
    {
      "type": "Feature",
      "geometry": {
        "type": "Point",
        "coordinates": [
          2.234722222,
          41.426694444
        ]
      },
      "properties": {
        "label": "Central tèrmica de Sant Adrià de Besòs",
        "type": "power plant",
        "entity": "http://www.wikidata.org/entity/Q2944655",
        "country_qid": "Q29",
        "Wikidata Qid": "Q2944655"
      }
    },
    {
      "type": "Feature",
      "geometry": {
        "type": "Point",
        "coordinates": [
          -3.253333333,
          39.042777777
        ]
      },
      "properties": {
        "label": "Manzanaras Solar Updraft Tower",
        "type": "power plant",
        "entity": "http://www.wikidata.org/entity/Q20667894",
        "country_qid": "Q29",
        "Wikidata Qid": "Q20667894"
      }
    },
    {
      "type": "Feature",
      "geometry": {
        "type": "Point",
        "coordinates": [
          -0.951215,
          37.565153
        ]
      },
      "properties": {
        "label": "Escombreras Power Plant",
        "type": "power plant",
        "entity": "http://www.wikidata.org/entity/Q5760886",
        "country_qid": "Q29",
        "Wikidata Qid": "Q5760886"
      }
    },
    {
      "type": "Feature",
      "geometry": {
        "type": "Point",
        "coordinates": [
          -6.207307372,
          36.730998799
        ]
      },
      "properties": {
        "label": "Q113636680",
        "type": "power plant",
        "entity": "http://www.wikidata.org/entity/Q113636680",
        "country_qid": "Q29",
        "Wikidata Qid": "Q113636680"
      }
    },
    {
      "type": "Feature",
      "geometry": {
        "type": "Point",
        "coordinates": [
          -0.33616,
          41.29779
        ]
      },
      "properties": {
        "label": "Escatrón Thermal Power Plant",
        "type": "power plant",
        "entity": "http://www.wikidata.org/entity/Q5760883",
        "country_qid": "Q29",
        "Wikidata Qid": "Q5760883"
      }
    },
    {
      "type": "Feature",
      "geometry": {
        "type": "Point",
        "coordinates": [
          -5.72305556,
          43.55305556
        ]
      },
      "properties": {
        "label": "Aboño Power Plant",
        "type": "power plant",
        "entity": "http://www.wikidata.org/entity/Q5760844",
        "country_qid": "Q29",
        "Wikidata Qid": "Q5760844"
      }
    },
    {
      "type": "Feature",
      "geometry": {
        "type": "Point",
        "coordinates": [
          3.346174,
          39.679203
        ]
      },
      "properties": {
        "label": "Granja solar d'Artà",
        "type": "power plant",
        "entity": "http://www.wikidata.org/entity/Q18630837",
        "country_qid": "Q29",
        "Wikidata Qid": "Q18630837"
      }
    },
    {
      "type": "Feature",
      "geometry": {
        "type": "Point",
        "coordinates": [
          3.144816,
          39.835836
        ]
      },
      "properties": {
        "label": "Q126136177",
        "type": "power plant",
        "entity": "http://www.wikidata.org/entity/Q126136177",
        "country_qid": "Q29",
        "Wikidata Qid": "Q126136177"
      }
    },
    {
      "type": "Feature",
      "geometry": {
        "type": "Point",
        "coordinates": [
          -6.53305556,
          42.83805556
        ]
      },
      "properties": {
        "label": "Anllares Power Plant",
        "type": "power plant",
        "entity": "http://www.wikidata.org/entity/Q5760854",
        "country_qid": "Q29",
        "Wikidata Qid": "Q5760854"
      }
    },
    {
      "type": "Feature",
      "geometry": {
        "type": "Point",
        "coordinates": [
          -1.6775,
          42.17138889
        ]
      },
      "properties": {
        "label": "Castejón 2 power plant",
        "type": "power plant",
        "entity": "http://www.wikidata.org/entity/Q8343542",
        "country_qid": "Q29",
        "Wikidata Qid": "Q8343542"
      }
    },
    {
      "type": "Feature",
      "geometry": {
        "type": "Point",
        "coordinates": [
          -6.576153471,
          37.69064878
        ]
      },
      "properties": {
        "label": "Central Térmica Huerta Romana",
        "type": "power plant",
        "entity": "http://www.wikidata.org/entity/Q97628389",
        "country_qid": "Q29",
        "Wikidata Qid": "Q97628389"
      }
    },
    {
      "type": "Feature",
      "geometry": {
        "type": "Point",
        "coordinates": [
          -5.418,
          36.193
        ]
      },
      "properties": {
        "label": "Guadarranque solar power plant",
        "type": "power plant",
        "entity": "http://www.wikidata.org/entity/Q5613268",
        "country_qid": "Q29",
        "Wikidata Qid": "Q5613268"
      }
    },
    {
      "type": "Feature",
      "geometry": {
        "type": "Point",
        "coordinates": [
          -15.412315,
          28.042694
        ]
      },
      "properties": {
        "label": "Jinámar Power Station",
        "type": "power plant",
        "entity": "http://www.wikidata.org/entity/Q1786127",
        "country_qid": "Q29",
        "Wikidata Qid": "Q1786127"
      }
    },
    {
      "type": "Feature",
      "geometry": {
        "type": "Point",
        "coordinates": [
          -6.25,
          37.443056
        ]
      },
      "properties": {
        "label": "PS10 solar power plant",
        "type": "power plant",
        "entity": "http://www.wikidata.org/entity/Q927594",
        "country_qid": "Q29",
        "Wikidata Qid": "Q927594"
      }
    },
    {
      "type": "Feature",
      "geometry": {
        "type": "Point",
        "coordinates": [
          -6.82611111,
          38.82694444
        ]
      },
      "properties": {
        "label": "Alvarado I",
        "type": "power plant",
        "entity": "http://www.wikidata.org/entity/Q2944634",
        "country_qid": "Q29",
        "Wikidata Qid": "Q2944634"
      }
    },
    {
      "type": "Feature",
      "geometry": {
        "type": "Point",
        "coordinates": [
          -6.28527778,
          38.89055556
        ]
      },
      "properties": {
        "label": "SPEX",
        "type": "power plant",
        "entity": "http://www.wikidata.org/entity/Q7392531",
        "country_qid": "Q29",
        "Wikidata Qid": "Q7392531"
      }
    },
    {
      "type": "Feature",
      "geometry": {
        "type": "Point",
        "coordinates": [
          -0.810266,
          38.509929
        ]
      },
      "properties": {
        "label": "Fábrica de Luz del Chorrillo",
        "type": "power plant",
        "entity": "http://www.wikidata.org/entity/Q84042887",
        "country_qid": "Q29",
        "Wikidata Qid": "Q84042887"
      }
    },
    {
      "type": "Feature",
      "geometry": {
        "type": "Point",
        "coordinates": [
          -5.87444444,
          43.3125
        ]
      },
      "properties": {
        "label": "Soto de Ribera Power Plant",
        "type": "power plant",
        "entity": "http://www.wikidata.org/entity/Q5760918",
        "country_qid": "Q29",
        "Wikidata Qid": "Q5760918"
      }
    },
    {
      "type": "Feature",
      "geometry": {
        "type": "Point",
        "coordinates": [
          -3.133644,
          37.264109
        ]
      },
      "properties": {
        "label": "Photovoltaic power station in Guadix",
        "type": "power plant",
        "entity": "http://www.wikidata.org/entity/Q109658763",
        "country_qid": "Q29",
        "Wikidata Qid": "Q109658763"
      }
    },
    {
      "type": "Feature",
      "geometry": {
        "type": "Point",
        "coordinates": [
          -5.8528,
          41.0298
        ]
      },
      "properties": {
        "label": "Planta Solar de Salamanca",
        "type": "power plant",
        "entity": "http://www.wikidata.org/entity/Q7201552",
        "country_qid": "Q29",
        "Wikidata Qid": "Q7201552"
      }
    },
    {
      "type": "Feature",
      "geometry": {
        "type": "Point",
        "coordinates": [
          -8.41111111,
          43.16805556
        ]
      },
      "properties": {
        "label": "Meirama Power Plant",
        "type": "power plant",
        "entity": "http://www.wikidata.org/entity/Q3398721",
        "country_qid": "Q29",
        "Wikidata Qid": "Q3398721"
      }
    },
    {
      "type": "Feature",
      "geometry": {
        "type": "Point",
        "coordinates": [
          -5.950363888,
          39.459716666
        ]
      },
      "properties": {
        "label": "Q2877044",
        "type": "power plant",
        "entity": "http://www.wikidata.org/entity/Q2877044",
        "country_qid": "Q29",
        "Wikidata Qid": "Q2877044"
      }
    },
    {
      "type": "Feature",
      "geometry": {
        "type": "Point",
        "coordinates": [
          2.943193,
          39.431398
        ]
      },
      "properties": {
        "label": "Planta solar Cortadeta",
        "type": "power plant",
        "entity": "http://www.wikidata.org/entity/Q18630841",
        "country_qid": "Q29",
        "Wikidata Qid": "Q18630841"
      }
    },
    {
      "type": "Feature",
      "geometry": {
        "type": "Point",
        "coordinates": [
          -2.80305556,
          39.65833333
        ]
      },
      "properties": {
        "label": "Dulcinea Solar Plant",
        "type": "power plant",
        "entity": "http://www.wikidata.org/entity/Q5313362",
        "country_qid": "Q29",
        "Wikidata Qid": "Q5313362"
      }
    },
    {
      "type": "Feature",
      "geometry": {
        "type": "Point",
        "coordinates": [
          -0.29277778,
          41.21666667
        ]
      },
      "properties": {
        "label": "Castelnou Energía",
        "type": "power plant",
        "entity": "http://www.wikidata.org/entity/Q5760833",
        "country_qid": "Q29",
        "Wikidata Qid": "Q5760833"
      }
    },
    {
      "type": "Feature",
      "geometry": {
        "type": "Point",
        "coordinates": [
          -0.93916667,
          37.57305556
        ]
      },
      "properties": {
        "label": "Cartagena Power Plant",
        "type": "power plant",
        "entity": "http://www.wikidata.org/entity/Q5760764",
        "country_qid": "Q29",
        "Wikidata Qid": "Q5760764"
      }
    },
    {
      "type": "Feature",
      "geometry": {
        "type": "Point",
        "coordinates": [
          -1.774,
          42.259
        ]
      },
      "properties": {
        "label": "Monte Alto solar power plant",
        "type": "power plant",
        "entity": "http://www.wikidata.org/entity/Q3248218",
        "country_qid": "Q29",
        "Wikidata Qid": "Q3248218"
      }
    },
    {
      "type": "Feature",
      "geometry": {
        "type": "Point",
        "coordinates": [
          -6.263888888,
          41.488888888
        ]
      },
      "properties": {
        "label": "Miranda Dam",
        "type": "power plant",
        "entity": "http://www.wikidata.org/entity/Q3375894",
        "country_qid": "Q29",
        "Wikidata Qid": "Q3375894"
      }
    },
    {
      "type": "Feature",
      "geometry": {
        "type": "Point",
        "coordinates": [
          -5.698194444,
          43.308694444
        ]
      },
      "properties": {
        "label": "Lada Power Plant",
        "type": "power plant",
        "entity": "http://www.wikidata.org/entity/Q8343551",
        "country_qid": "Q29",
        "Wikidata Qid": "Q8343551"
      }
    },
    {
      "type": "Feature",
      "geometry": {
        "type": "Point",
        "coordinates": [
          -4.42452,
          36.72478
        ]
      },
      "properties": {
        "label": "Chimney of the former Fiat Lux Electricity Factory",
        "type": "power plant",
        "entity": "http://www.wikidata.org/entity/Q113536554",
        "country_qid": "Q29",
        "Wikidata Qid": "Q113536554"
      }
    },
    {
      "type": "Feature",
      "geometry": {
        "type": "Point",
        "coordinates": [
          -3.094166666,
          43.360833333
        ]
      },
      "properties": {
        "label": "Bahía de Bizkaia Power Station",
        "type": "power plant",
        "entity": "http://www.wikidata.org/entity/Q8239905",
        "country_qid": "Q29",
        "Wikidata Qid": "Q8239905"
      }
    },
    {
      "type": "Feature",
      "geometry": {
        "type": "Point",
        "coordinates": [
          -6.987457672,
          37.280458816
        ]
      },
      "properties": {
        "label": "Corrales power plant",
        "type": "power plant",
        "entity": "http://www.wikidata.org/entity/Q98061073",
        "country_qid": "Q29",
        "Wikidata Qid": "Q98061073"
      }
    },
    {
      "type": "Feature",
      "geometry": {
        "type": "Point",
        "coordinates": [
          -6.3939357,
          43.292271
        ]
      },
      "properties": {
        "label": "Narcea Power Plant",
        "type": "power plant",
        "entity": "http://www.wikidata.org/entity/Q5760925",
        "country_qid": "Q29",
        "Wikidata Qid": "Q5760925"
      }
    },
    {
      "type": "Feature",
      "geometry": {
        "type": "Point",
        "coordinates": [
          -0.217777777,
          41.280555555
        ]
      },
      "properties": {
        "label": "Q107464670",
        "type": "power plant",
        "entity": "http://www.wikidata.org/entity/Q107464670",
        "country_qid": "Q29",
        "Wikidata Qid": "Q107464670"
      }
    },
    {
      "type": "Feature",
      "geometry": {
        "type": "Point",
        "coordinates": [
          0.806389,
          41.5281
        ]
      },
      "properties": {
        "label": "Termosolar Borges",
        "type": "power plant",
        "entity": "http://www.wikidata.org/entity/Q15845091",
        "country_qid": "Q29",
        "Wikidata Qid": "Q15845091"
      }
    },
    {
      "type": "Feature",
      "geometry": {
        "type": "Point",
        "coordinates": [
          0.868888888,
          40.959444444
        ]
      },
      "properties": {
        "label": "Plana del Vent Power Plant",
        "type": "power plant",
        "entity": "http://www.wikidata.org/entity/Q5760840",
        "country_qid": "Q29",
        "Wikidata Qid": "Q5760840"
      }
    },
    {
      "type": "Feature",
      "geometry": {
        "type": "Point",
        "coordinates": [
          -6.25694444,
          37.42166667
        ]
      },
      "properties": {
        "label": "Sevilla Photovoltaic Power Plant",
        "type": "power plant",
        "entity": "http://www.wikidata.org/entity/Q7458047",
        "country_qid": "Q29",
        "Wikidata Qid": "Q7458047"
      }
    },
    {
      "type": "Feature",
      "geometry": {
        "type": "Point",
        "coordinates": [
          -4.5631242,
          36.7491191
        ]
      },
      "properties": {
        "label": "Campanillas power plant",
        "type": "power plant",
        "entity": "http://www.wikidata.org/entity/Q5760871",
        "country_qid": "Q29",
        "Wikidata Qid": "Q5760871"
      }
    },
    {
      "type": "Feature",
      "geometry": {
        "type": "Point",
        "coordinates": [
          -1.06,
          37.734
        ]
      },
      "properties": {
        "label": "Lobosillo Solar Park",
        "type": "power plant",
        "entity": "http://www.wikidata.org/entity/Q6663826",
        "country_qid": "Q29",
        "Wikidata Qid": "Q6663826"
      }
    },
    {
      "type": "Feature",
      "geometry": {
        "type": "Point",
        "coordinates": [
          -7.850888888,
          42.357916666
        ]
      },
      "properties": {
        "label": "Velle Power Plant",
        "type": "power plant",
        "entity": "http://www.wikidata.org/entity/Q56371867",
        "country_qid": "Q29",
        "Wikidata Qid": "Q56371867"
      }
    },
    {
      "type": "Feature",
      "geometry": {
        "type": "Point",
        "coordinates": [
          2.15916667,
          41.33666667
        ]
      },
      "properties": {
        "label": "Barcelona power station",
        "type": "power plant",
        "entity": "http://www.wikidata.org/entity/Q5409868",
        "country_qid": "Q29",
        "Wikidata Qid": "Q5409868"
      }
    },
    {
      "type": "Feature",
      "geometry": {
        "type": "Point",
        "coordinates": [
          -3.257695257,
          38.13305431
        ]
      },
      "properties": {
        "label": "Central Hidroeléctrica Olvera",
        "type": "power plant",
        "entity": "http://www.wikidata.org/entity/Q97630785",
        "country_qid": "Q29",
        "Wikidata Qid": "Q97630785"
      }
    },
    {
      "type": "Feature",
      "geometry": {
        "type": "Point",
        "coordinates": [
          -2.817412267,
          38.35189799
        ]
      },
      "properties": {
        "label": "Central Hidroeléctrica Electra San Juan",
        "type": "power plant",
        "entity": "http://www.wikidata.org/entity/Q97630809",
        "country_qid": "Q29",
        "Wikidata Qid": "Q97630809"
      }
    },
    {
      "type": "Feature",
      "geometry": {
        "type": "Point",
        "coordinates": [
          -3.534950904,
          37.630610328
        ]
      },
      "properties": {
        "label": "Central hidroeléctrica San Cayetano en Arbuniel",
        "type": "power plant",
        "entity": "http://www.wikidata.org/entity/Q97630793",
        "country_qid": "Q29",
        "Wikidata Qid": "Q97630793"
      }
    },
    {
      "type": "Feature",
      "geometry": {
        "type": "Point",
        "coordinates": [
          1.200986,
          42.464809
        ]
      },
      "properties": {
        "label": "Mal Pas hydrpower plant",
        "type": "power plant",
        "entity": "http://www.wikidata.org/entity/Q94767440",
        "country_qid": "Q29",
        "Wikidata Qid": "Q94767440"
      }
    },
    {
      "type": "Feature",
      "geometry": {
        "type": "Point",
        "coordinates": [
          -3.779582782,
          37.97295625
        ]
      },
      "properties": {
        "label": "Central Hidroeléctrica Purísima Concepción",
        "type": "power plant",
        "entity": "http://www.wikidata.org/entity/Q97630808",
        "country_qid": "Q29",
        "Wikidata Qid": "Q97630808"
      }
    },
    {
      "type": "Feature",
      "geometry": {
        "type": "Point",
        "coordinates": [
          -1.503419444,
          39.543261111
        ]
      },
      "properties": {
        "label": "Contreras Dam",
        "type": "power plant",
        "entity": "http://www.wikidata.org/entity/Q104635788",
        "country_qid": "Q29",
        "Wikidata Qid": "Q104635788"
      }
    },
    {
      "type": "Feature",
      "geometry": {
        "type": "Point",
        "coordinates": [
          -0.9189123,
          39.2630851
        ]
      },
      "properties": {
        "label": "Cortes II hydro power plant",
        "type": "power plant",
        "entity": "http://www.wikidata.org/entity/Q106149669",
        "country_qid": "Q29",
        "Wikidata Qid": "Q106149669"
      }
    },
    {
      "type": "Feature",
      "geometry": {
        "type": "Point",
        "coordinates": [
          -2.963169916,
          38.14548285
        ]
      },
      "properties": {
        "label": "Central Hidroeléctrica Las Chozuelas",
        "type": "power plant",
        "entity": "http://www.wikidata.org/entity/Q97630788",
        "country_qid": "Q29",
        "Wikidata Qid": "Q97630788"
      }
    },
    {
      "type": "Feature",
      "geometry": {
        "type": "Point",
        "coordinates": [
          -3.569236155,
          37.95909364
        ]
      },
      "properties": {
        "label": "Central Hidroeléctrica Tilín Tilín",
        "type": "power plant",
        "entity": "http://www.wikidata.org/entity/Q97630775",
        "country_qid": "Q29",
        "Wikidata Qid": "Q97630775"
      }
    },
    {
      "type": "Feature",
      "geometry": {
        "type": "Point",
        "coordinates": [
          -3.6186297,
          37.95101642
        ]
      },
      "properties": {
        "label": "Central Hidroeléctrica Racioneros",
        "type": "power plant",
        "entity": "http://www.wikidata.org/entity/Q97630803",
        "country_qid": "Q29",
        "Wikidata Qid": "Q97630803"
      }
    },
    {
      "type": "Feature",
      "geometry": {
        "type": "Point",
        "coordinates": [
          -3.033325949,
          38.074860688
        ]
      },
      "properties": {
        "label": "Central Hidroeléctrica del Duende",
        "type": "power plant",
        "entity": "http://www.wikidata.org/entity/Q97630980",
        "country_qid": "Q29",
        "Wikidata Qid": "Q97630980"
      }
    },
    {
      "type": "Feature",
      "geometry": {
        "type": "Point",
        "coordinates": [
          -6.30396,
          43.32081
        ]
      },
      "properties": {
        "label": "Q99702842",
        "type": "power plant",
        "entity": "http://www.wikidata.org/entity/Q99702842",
        "country_qid": "Q29",
        "Wikidata Qid": "Q99702842"
      }
    },
    {
      "type": "Feature",
      "geometry": {
        "type": "Point",
        "coordinates": [
          -4.186634873,
          38.05853219
        ]
      },
      "properties": {
        "label": "Central Hidroeléctrica Marmolejo",
        "type": "power plant",
        "entity": "http://www.wikidata.org/entity/Q97630806",
        "country_qid": "Q29",
        "Wikidata Qid": "Q97630806"
      }
    },
    {
      "type": "Feature",
      "geometry": {
        "type": "Point",
        "coordinates": [
          -3.993210786,
          38.16480897
        ]
      },
      "properties": {
        "label": "Central Hidroeléctrica Encinarejo",
        "type": "power plant",
        "entity": "http://www.wikidata.org/entity/Q97630772",
        "country_qid": "Q29",
        "Wikidata Qid": "Q97630772"
      }
    },
    {
      "type": "Feature",
      "geometry": {
        "type": "Point",
        "coordinates": [
          -2.92493,
          37.92796
        ]
      },
      "properties": {
        "label": "Central Hidroeléctrica Cerrada del Utrero",
        "type": "power plant",
        "entity": "http://www.wikidata.org/entity/Q97630796",
        "country_qid": "Q29",
        "Wikidata Qid": "Q97630796"
      }
    },
    {
      "type": "Feature",
      "geometry": {
        "type": "Point",
        "coordinates": [
          0.894926,
          42.046928
        ]
      },
      "properties": {
        "label": "Terradets hydropower plant",
        "type": "power plant",
        "entity": "http://www.wikidata.org/entity/Q94429180",
        "country_qid": "Q29",
        "Wikidata Qid": "Q94429180"
      }
    },
    {
      "type": "Feature",
      "geometry": {
        "type": "Point",
        "coordinates": [
          -3.867625867,
          37.591465957
        ]
      },
      "properties": {
        "label": "Central Hidroeléctrica Valdepeñas",
        "type": "power plant",
        "entity": "http://www.wikidata.org/entity/Q97630818",
        "country_qid": "Q29",
        "Wikidata Qid": "Q97630818"
      }
    },
    {
      "type": "Feature",
      "geometry": {
        "type": "Point",
        "coordinates": [
          -6.7306,
          43.4787
        ]
      },
      "properties": {
        "label": "Q99948677",
        "type": "power plant",
        "entity": "http://www.wikidata.org/entity/Q99948677",
        "country_qid": "Q29",
        "Wikidata Qid": "Q99948677"
      }
    },
    {
      "type": "Feature",
      "geometry": {
        "type": "Point",
        "coordinates": [
          -3.514809779,
          37.75255046
        ]
      },
      "properties": {
        "label": "Central Hidroeléctrica Santa Isabel",
        "type": "power plant",
        "entity": "http://www.wikidata.org/entity/Q97630820",
        "country_qid": "Q29",
        "Wikidata Qid": "Q97630820"
      }
    },
    {
      "type": "Feature",
      "geometry": {
        "type": "Point",
        "coordinates": [
          -3.792354593,
          37.98661217
        ]
      },
      "properties": {
        "label": "Central Hidroeléctrica de Mengíbar",
        "type": "power plant",
        "entity": "http://www.wikidata.org/entity/Q97630807",
        "country_qid": "Q29",
        "Wikidata Qid": "Q97630807"
      }
    },
    {
      "type": "Feature",
      "geometry": {
        "type": "Point",
        "coordinates": [
          -2.566093217,
          38.11099484
        ]
      },
      "properties": {
        "label": "Central Hidroeléctrica Electra de Zumeta en Santiago de la Espada",
        "type": "power plant",
        "entity": "http://www.wikidata.org/entity/Q97630821",
        "country_qid": "Q29",
        "Wikidata Qid": "Q97630821"
      }
    },
    {
      "type": "Feature",
      "geometry": {
        "type": "Point",
        "coordinates": [
          0.690409,
          42.77601
        ]
      },
      "properties": {
        "label": "Bossòst hydroelectric power plant",
        "type": "power plant",
        "entity": "http://www.wikidata.org/entity/Q98841807",
        "country_qid": "Q29",
        "Wikidata Qid": "Q98841807"
      }
    },
    {
      "type": "Feature",
      "geometry": {
        "type": "Point",
        "coordinates": [
          -3.349931235,
          36.99133246
        ]
      },
      "properties": {
        "label": "Central hidroeléctrica del río Poqueira",
        "type": "power plant",
        "entity": "http://www.wikidata.org/entity/Q97604224",
        "country_qid": "Q29",
        "Wikidata Qid": "Q97604224"
      }
    },
    {
      "type": "Feature",
      "geometry": {
        "type": "Point",
        "coordinates": [
          1.207942,
          42.454424
        ]
      },
      "properties": {
        "label": "Vallespir hydropower plant",
        "type": "power plant",
        "entity": "http://www.wikidata.org/entity/Q94760008",
        "country_qid": "Q29",
        "Wikidata Qid": "Q94760008"
      }
    },
    {
      "type": "Feature",
      "geometry": {
        "type": "Point",
        "coordinates": [
          -5.838040905,
          36.710225787
        ]
      },
      "properties": {
        "label": "Q111038525",
        "type": "power plant",
        "entity": "http://www.wikidata.org/entity/Q111038525",
        "country_qid": "Q29",
        "Wikidata Qid": "Q111038525"
      }
    },
    {
      "type": "Feature",
      "geometry": {
        "type": "Point",
        "coordinates": [
          1.26326,
          42.592557
        ]
      },
      "properties": {
        "label": "Esterri de Cardós hydropower plant",
        "type": "power plant",
        "entity": "http://www.wikidata.org/entity/Q109439399",
        "country_qid": "Q29",
        "Wikidata Qid": "Q109439399"
      }
    },
    {
      "type": "Feature",
      "geometry": {
        "type": "Point",
        "coordinates": [
          -5.377976395,
          36.53815062
        ]
      },
      "properties": {
        "label": "Central hidroeléctrica de las Buitreras",
        "type": "power plant",
        "entity": "http://www.wikidata.org/entity/Q107393061",
        "country_qid": "Q29",
        "Wikidata Qid": "Q107393061"
      }
    },
    {
      "type": "Feature",
      "geometry": {
        "type": "Point",
        "coordinates": [
          1.266737,
          42.447498
        ]
      },
      "properties": {
        "label": "Montenartró hydropower plant",
        "type": "power plant",
        "entity": "http://www.wikidata.org/entity/Q94743200",
        "country_qid": "Q29",
        "Wikidata Qid": "Q94743200"
      }
    },
    {
      "type": "Feature",
      "geometry": {
        "type": "Point",
        "coordinates": [
          1.107048,
          41.277843
        ]
      },
      "properties": {
        "label": "Glorieta hydropower plant",
        "type": "power plant",
        "entity": "http://www.wikidata.org/entity/Q90701237",
        "country_qid": "Q29",
        "Wikidata Qid": "Q90701237"
      }
    },
    {
      "type": "Feature",
      "geometry": {
        "type": "Point",
        "coordinates": [
          0.907949,
          42.174077
        ]
      },
      "properties": {
        "label": "Talarn hydropower plant",
        "type": "power plant",
        "entity": "http://www.wikidata.org/entity/Q89565463",
        "country_qid": "Q29",
        "Wikidata Qid": "Q89565463"
      }
    },