{
  "type": "FeatureCollection",
  "features": [
    {
      "type": "Feature",
      "geometry": {
        "type": "Point",
        "coordinates": [
          -55.08888889,
          25.02722222
        ]
      },
      "properties": {
        "label": "Q106414025",
        "type": "power plant",
        "entity": "http://www.wikidata.org/entity/Q106414025",
        "country_qid": "Q878",
        "Wikidata Qid": "Q106414025"
      }
    },
    {
      "type": "Feature",
      "geometry": {
        "type": "Point",
        "coordinates": [
          -56.37111111,
          25.30222222
        ]
      },
      "properties": {
        "label": "Q106414043",
        "type": "power plant",
        "entity": "http://www.wikidata.org/entity/Q106414043",
        "country_qid": "Q878",
        "Wikidata Qid": "Q106414043"
      }
    },
    {
      "type": "Feature",
      "geometry": {
        "type": "Point",
        "coordinates": [
          53.4435706,
          24.1206385
        ]
      },
      "properties": {
        "label": "Mirfa International Power & Water Plant",
        "type": "power plant",
        "entity": "http://www.wikidata.org/entity/Q104815304",
        "country_qid": "Q878",
        "Wikidata Qid": "Q104815304"
      }
    },
    {
      "type": "Feature",
      "geometry": {
        "type": "Point",
        "coordinates": [
          -55.47805556,
          25.445
        ]
      },
      "properties": {
        "label": "Q106414022",
        "type": "power plant",
        "entity": "http://www.wikidata.org/entity/Q106414022",
        "country_qid": "Q878",
        "Wikidata Qid": "Q106414022"
      }
    },
    {
      "type": "Feature",
      "geometry": {
        "type": "Point",
        "coordinates": [
          -54.70861111,
          24.8
        ]
      },
      "properties": {
        "label": "Q106414123",
        "type": "power plant",
        "entity": "http://www.wikidata.org/entity/Q106414123",
        "country_qid": "Q878",
        "Wikidata Qid": "Q106414123"
      }
    },
    {
      "type": "Feature",
      "geometry": {
        "type": "Point",
        "coordinates": [
          -52.56611111,
          24.15361111
        ]
      },
      "properties": {
        "label": "Q106414017",
        "type": "power plant",
        "entity": "http://www.wikidata.org/entity/Q106414017",
        "country_qid": "Q878",
        "Wikidata Qid": "Q106414017"
      }
    },
    {
      "type": "Feature",
      "geometry": {
        "type": "Point",
        "coordinates": [
          -54.61027778,
          24.30361111
        ]
      },
      "properties": {
        "label": "Q106414041",
        "type": "power plant",
        "entity": "http://www.wikidata.org/entity/Q106414041",
        "country_qid": "Q878",
        "Wikidata Qid": "Q106414041"
      }
    },
    {
      "type": "Feature",
      "geometry": {
        "type": "Point",
        "coordinates": [
          55.391635555,
          24.752773263
        ]
      },
      "properties": {
        "label": "Mohammed bin Rashid Al Maktoum Solar Park",
        "type": "power plant",
        "entity": "http://www.wikidata.org/entity/Q28040249",
        "country_qid": "Q878",
        "Wikidata Qid": "Q28040249"
      }
    },
    {
      "type": "Feature",
      "geometry": {
        "type": "Point",
        "coordinates": [
          -56.34222222,
          25.36638889
        ]
      },
      "properties": {
        "label": "Q106414031",
        "type": "power plant",
        "entity": "http://www.wikidata.org/entity/Q106414031",
        "country_qid": "Q878",
        "Wikidata Qid": "Q106414031"
      }
    },
    {
      "type": "Feature",
      "geometry": {
        "type": "Point",
        "coordinates": [
          -54.68027778,
          24.76083333
        ]
      },
      "properties": {
        "label": "Q106414035",
        "type": "power plant",
        "entity": "http://www.wikidata.org/entity/Q106414035",
        "country_qid": "Q878",
        "Wikidata Qid": "Q106414035"
      }
    },
    {
      "type": "Feature",
      "geometry": {
        "type": "Point",
        "coordinates": [
          -54.68333333,
          24.7625
        ]
      },
      "properties": {
        "label": "Q106414037",
        "type": "power plant",
        "entity": "http://www.wikidata.org/entity/Q106414037",
        "country_qid": "Q878",
        "Wikidata Qid": "Q106414037"
      }
    },
    {
      "type": "Feature",
      "geometry": {
        "type": "Point",
        "coordinates": [
          -53.72944444,
          23.57944444
        ]
      },
      "properties": {
        "label": "Q106414026",
        "type": "power plant",
        "entity": "http://www.wikidata.org/entity/Q106414026",
        "country_qid": "Q878",
        "Wikidata Qid": "Q106414026"
      }
    },
    {
      "type": "Feature",
      "geometry": {
        "type": "Point",
        "coordinates": [
          -54.91861111,
          24.91166667
        ]
      },
      "properties": {
        "label": "Q106414014",
        "type": "power plant",
        "entity": "http://www.wikidata.org/entity/Q106414014",
        "country_qid": "Q878",
        "Wikidata Qid": "Q106414014"
      }
    },
    {
      "type": "Feature",
      "geometry": {
        "type": "Point",
        "coordinates": [
          -55.48,
          25.45916667
        ]
      },
      "properties": {
        "label": "Q106414124",
        "type": "power plant",
        "entity": "http://www.wikidata.org/entity/Q106414124",
        "country_qid": "Q878",
        "Wikidata Qid": "Q106414124"
      }
    },
    {
      "type": "Feature",
      "geometry": {
        "type": "Point",
        "coordinates": [
          -55.74722222,
          24.23472222
        ]
      },
      "properties": {
        "label": "Q106414018",
        "type": "power plant",
        "entity": "http://www.wikidata.org/entity/Q106414018",
        "country_qid": "Q878",
        "Wikidata Qid": "Q106414018"
      }
    },
    {
      "type": "Feature",
      "geometry": {
        "type": "Point",
        "coordinates": [
          -55.37,
          25.355
        ]
      },
      "properties": {
        "label": "Q106414033",
        "type": "power plant",
        "entity": "http://www.wikidata.org/entity/Q106414033",
        "country_qid": "Q878",
        "Wikidata Qid": "Q106414033"
      }
    },
    {
      "type": "Feature",
      "geometry": {
        "type": "Point",
        "coordinates": [
          55.117164,
          25.05971
        ]
      },
      "properties": {
        "label": "Jebel Ali Power and Desalination Plant",
        "type": "power plant",
        "entity": "http://www.wikidata.org/entity/Q1786245",
        "country_qid": "Q878",
        "Wikidata Qid": "Q1786245"
      }
    },
    {
      "type": "Feature",
      "geometry": {
        "type": "Point",
        "coordinates": [
          56.372777777,
          25.301944444
        ]
      },
      "properties": {
        "label": "Fujairah F2 IWPP",
        "type": "power plant",
        "entity": "http://www.wikidata.org/entity/Q5507333",
        "country_qid": "Q878",
        "Wikidata Qid": "Q5507333"
      }
    },
    {
      "type": "Feature",
      "geometry": {
        "type": "Point",
        "coordinates": [
          -56.37194444,
          25.31416667
        ]
      },
      "properties": {
        "label": "Q106414029",
        "type": "power plant",
        "entity": "http://www.wikidata.org/entity/Q106414029",
        "country_qid": "Q878",
        "Wikidata Qid": "Q106414029"
      }
    },
    {
      "type": "Feature",
      "geometry": {
        "type": "Point",
        "coordinates": [
          55.4262821,
          25.1495015
        ]
      },
      "properties": {
        "label": "Al Aweer Power Plant",
        "type": "power plant",
        "entity": "http://www.wikidata.org/entity/Q17749714",
        "country_qid": "Q878",
        "Wikidata Qid": "Q17749714"
      }
    },
    {
      "type": "Feature",
      "geometry": {
        "type": "Point",
        "coordinates": [
          -55.425,
          25.15027778
        ]
      },
      "properties": {
        "label": "Q106414019",
        "type": "power plant",
        "entity": "http://www.wikidata.org/entity/Q106414019",
        "country_qid": "Q878",
        "Wikidata Qid": "Q106414019"
      }
    },
    {
      "type": "Feature",
      "geometry": {
        "type": "Point",
        "coordinates": [
          -52.56833333,
          24.16055556
        ]
      },
      "properties": {
        "label": "Q106414016",
        "type": "power plant",
        "entity": "http://www.wikidata.org/entity/Q106414016",
        "country_qid": "Q878",
        "Wikidata Qid": "Q106414016"
      }
    },
    {
      "type": "Feature",
      "geometry": {
        "type": "Point",
        "coordinates": [
          -52.73194444,
          24.135
        ]
      },
      "properties": {
        "label": "Q106414027",
        "type": "power plant",
        "entity": "http://www.wikidata.org/entity/Q106414027",
        "country_qid": "Q878",
        "Wikidata Qid": "Q106414027"
      }
    },
    {
      "type": "Feature",
      "geometry": {
        "type": "Point",
        "coordinates": [
          -55.46,
          25.37277778
        ]
      },
      "properties": {
        "label": "Q106414024",
        "type": "power plant",
        "entity": "http://www.wikidata.org/entity/Q106414024",
        "country_qid": "Q878",
        "Wikidata Qid": "Q106414024"
      }
    },
    {
      "type": "Feature",
      "geometry": {
        "type": "Point",
        "coordinates": [
          -55.47805556,
          25.46055556
        ]
      },
      "properties": {
        "label": "Q106414125",
        "type": "power plant",
        "entity": "http://www.wikidata.org/entity/Q106414125",
        "country_qid": "Q878",
        "Wikidata Qid": "Q106414125"
      }
    },
    {
      "type": "Feature",
      "geometry": {
        "type": "Point",
        "coordinates": [
          -55.95555556,
          25.79694444
        ]
      },
      "properties": {
        "label": "Q106414036",
        "type": "power plant",
        "entity": "http://www.wikidata.org/entity/Q106414036",
        "country_qid": "Q878",
        "Wikidata Qid": "Q106414036"
      }
    },
    {
      "type": "Feature",
      "geometry": {
        "type": "Point",
        "coordinates": [
          -54.48194444,
          24.43694444
        ]
      },
      "properties": {
        "label": "Q106414039",
        "type": "power plant",
        "entity": "http://www.wikidata.org/entity/Q106414039",
        "country_qid": "Q878",
        "Wikidata Qid": "Q106414039"
      }
    },
    {
      "type": "Feature",
      "geometry": {
        "type": "Point",
        "coordinates": [
          52.5663078,
          24.1536652
        ]
      },
      "properties": {
        "label": "Shuweihat S3 Power Plant",
        "type": "power plant",
        "entity": "http://www.wikidata.org/entity/Q104815329",
        "country_qid": "Q878",
        "Wikidata Qid": "Q104815329"
      }
    },
    {
      "type": "Feature",
      "geometry": {
        "type": "Point",
        "coordinates": [
          53.71388889,
          23.56944444
        ]
      },
      "properties": {
        "label": "Shams solar power station",
        "type": "power plant",
        "entity": "http://www.wikidata.org/entity/Q115609",
        "country_qid": "Q878",
        "Wikidata Qid": "Q115609"
      }
    },
    {
      "type": "Feature",
      "geometry": {
        "type": "Point",
        "coordinates": [
          54.680382,
          24.7606956
        ]
      },
      "properties": {
        "label": "Taweelah A1 IWPP",
        "type": "power plant",
        "entity": "http://www.wikidata.org/entity/Q104817963",
        "country_qid": "Q878",
        "Wikidata Qid": "Q104817963"
      }
    },
    {
      "type": "Feature",
      "geometry": {
        "type": "Point",
        "coordinates": [
          -54.37833333,
          24.50611111
        ]
      },
      "properties": {
        "label": "Q106414034",
        "type": "power plant",
        "entity": "http://www.wikidata.org/entity/Q106414034",
        "country_qid": "Q878",
        "Wikidata Qid": "Q106414034"
      }
    },
    {
      "type": "Feature",
      "geometry": {
        "type": "Point",
        "coordinates": [
          -53.70638889,
          23.90972222
        ]
      },
      "properties": {
        "label": "Q106414042",
        "type": "power plant",
        "entity": "http://www.wikidata.org/entity/Q106414042",
        "country_qid": "Q878",
        "Wikidata Qid": "Q106414042"
      }
    },
    {
      "type": "Feature",
      "geometry": {
        "type": "Point",
        "coordinates": [
          52.5680398,
          24.1654621
        ]
      },
      "properties": {
        "label": "Shuweihat S1 Power and Desalination Plant",
        "type": "power plant",
        "entity": "http://www.wikidata.org/entity/Q11957208",
        "country_qid": "Q878",
        "Wikidata Qid": "Q11957208"
      }
    },
    {
      "type": "Feature",
      "geometry": {
        "type": "Point",
        "coordinates": [
          -55.27888889,
          25.24527778
        ]
      },
      "properties": {
        "label": "Q106414028",
        "type": "power plant",
        "entity": "http://www.wikidata.org/entity/Q106414028",
        "country_qid": "Q878",
        "Wikidata Qid": "Q106414028"
      }
    },
    {
      "type": "Feature",
      "geometry": {
        "type": "Point",
        "coordinates": [
          55.443805555,
          24.542583333
        ]
      },
      "properties": {
        "label": "Noor Abu Dhabi Solar Power plant",
        "type": "power plant",
        "entity": "http://www.wikidata.org/entity/Q106982116",
        "country_qid": "Q878",
        "Wikidata Qid": "Q106982116"
      }
    },
    {
      "type": "Feature",
      "geometry": {
        "type": "Point",
        "coordinates": [
          52.5679662,
          24.1599834
        ]
      },
      "properties": {
        "label": "Shuweihat S2 Power and Desalination Plant",
        "type": "power plant",
        "entity": "http://www.wikidata.org/entity/Q104815369",
        "country_qid": "Q878",
        "Wikidata Qid": "Q104815369"
      }
    },
    {
      "type": "Feature",
      "geometry": {
        "type": "Point",
        "coordinates": [
          -52.56888889,
          24.165
        ]
      },
      "properties": {
        "label": "Q106414015",
        "type": "power plant",
        "entity": "http://www.wikidata.org/entity/Q106414015",
        "country_qid": "Q878",
        "Wikidata Qid": "Q106414015"
      }
    },
    {
      "type": "Feature",
      "geometry": {
        "type": "Point",
        "coordinates": [
          -55.88694444,
          25.2925
        ]
      },
      "properties": {
        "label": "Q106414047",
        "type": "power plant",
        "entity": "http://www.wikidata.org/entity/Q106414047",
        "country_qid": "Q878",
        "Wikidata Qid": "Q106414047"
      }
    },
    {
      "type": "Feature",
      "geometry": {
        "type": "Point",
        "coordinates": [
          -56.35,
          25.05555556
        ]
      },
      "properties": {
        "label": "Q106414030",
        "type": "power plant",
        "entity": "http://www.wikidata.org/entity/Q106414030",
        "country_qid": "Q878",
        "Wikidata Qid": "Q106414030"
      }
    },
    {
      "type": "Feature",
      "geometry": {
        "type": "Point",
        "coordinates": [
          54.6871412,
          24.7676516
        ]
      },
      "properties": {
        "label": "Taweelah B IWPP",
        "type": "power plant",
        "entity": "http://www.wikidata.org/entity/Q104817966",
        "country_qid": "Q878",
        "Wikidata Qid": "Q104817966"
      }
    },
    {
      "type": "Feature",
      "geometry": {
        "type": "Point",
        "coordinates": [
          -56.37166667,
          25.30861111
        ]
      },
      "properties": {
        "label": "Q106414046",
        "type": "power plant",
        "entity": "http://www.wikidata.org/entity/Q106414046",
        "country_qid": "Q878",
        "Wikidata Qid": "Q106414046"
      }
    },
    {
      "type": "Feature",
      "geometry": {
        "type": "Point",
        "coordinates": [
          -56.37166667,
          25.30861111
        ]
      },
      "properties": {
        "label": "Q106414044",
        "type": "power plant",
        "entity": "http://www.wikidata.org/entity/Q106414044",
        "country_qid": "Q878",
        "Wikidata Qid": "Q106414044"
      }
    },
    {
      "type": "Feature",
      "geometry": {
        "type": "Point",
        "coordinates": [
          56.372777777,
          25.314444444
        ]
      },
      "properties": {
        "label": "Fujairah F1 IWPP",
        "type": "power plant",
        "entity": "http://www.wikidata.org/entity/Q5507337",
        "country_qid": "Q878",
        "Wikidata Qid": "Q5507337"
      }
    },
    {
      "type": "Feature",
      "geometry": {
        "type": "Point",
        "coordinates": [
          -53.44694444,
          24.12111111
        ]
      },
      "properties": {
        "label": "Q106414023",
        "type": "power plant",
        "entity": "http://www.wikidata.org/entity/Q106414023",
        "country_qid": "Q878",
        "Wikidata Qid": "Q106414023"
      }
    },
    {
      "type": "Feature",
      "geometry": {
        "type": "Point",
        "coordinates": [
          -54.68555556,
          24.76611111
        ]
      },
      "properties": {
        "label": "Q106414038",
        "type": "power plant",
        "entity": "http://www.wikidata.org/entity/Q106414038",
        "country_qid": "Q878",
        "Wikidata Qid": "Q106414038"
      }
    },
    {
      "type": "Feature",
      "geometry": {
        "type": "Point",
        "coordinates": [
          54.512459,
          24.137871
        ]
      },
      "properties": {
        "label": "Al Dhafra solar farm",
        "type": "power plant",
        "entity": "http://www.wikidata.org/entity/Q117600322",
        "country_qid": "Q878",
        "Wikidata Qid": "Q117600322"
      }
    },
    {
      "type": "Feature",
      "geometry": {
        "type": "Point",
        "coordinates": [
          -55.95111111,
          25.40305556
        ]
      },
      "properties": {
        "label": "Q106414040",
        "type": "power plant",
        "entity": "http://www.wikidata.org/entity/Q106414040",
        "country_qid": "Q878",
        "Wikidata Qid": "Q106414040"
      }
    },
    {
      "type": "Feature",
      "geometry": {
        "type": "Point",
        "coordinates": [
          -55.79055556,
          25.70388889
        ]
      },
      "properties": {
        "label": "Q106414127",
        "type": "power plant",
        "entity": "http://www.wikidata.org/entity/Q106414127",
        "country_qid": "Q878",
        "Wikidata Qid": "Q106414127"
      }
    },
    {
      "type": "Feature",
      "geometry": {
        "type": "Point",
        "coordinates": [
          52.231666666,
          23.967777777
        ]
      },
      "properties": {
        "label": "Barakah nuclear power plant",
        "type": "power plant",
        "entity": "http://www.wikidata.org/entity/Q19959586",
        "country_qid": "Q878",
        "Wikidata Qid": "Q19959586"
      }
    },
    {
      "type": "Feature",
      "geometry": {
        "type": "Point",
        "coordinates": [
          55.4456887,
          24.5427193
        ]
      },
      "properties": {
        "label": "Noor Abu Dhabi",
        "type": "power plant",
        "entity": "http://www.wikidata.org/entity/Q65519315",
        "country_qid": "Q878",
        "Wikidata Qid": "Q65519315"
      }
    },
    {
      "type": "Feature",
      "geometry": {
        "type": "Point",
        "coordinates": [
          54.4836441,
          24.4360306
        ]
      },
      "properties": {
        "label": "Umm Al Nar Power and Water Complex",
        "type": "power plant",
        "entity": "http://www.wikidata.org/entity/Q104819144",
        "country_qid": "Q878",
        "Wikidata Qid": "Q104819144"
      }
    },
    {
      "type": "Feature",
      "geometry": {
        "type": "Point",
        "coordinates": [
          54.6830188,
          24.7624643
        ]
      },
      "properties": {
        "label": "Taweelah A2 IWPP",
        "type": "power plant",
        "entity": "http://www.wikidata.org/entity/Q104817964",
        "country_qid": "Q878",
        "Wikidata Qid": "Q104817964"
      }
    },
    {
      "type": "Feature",
      "geometry": {
        "type": "Point",
        "coordinates": [
          55.376211,
          24.833814
        ]
      },
      "properties": {
        "label": "Al Qudra Lake",
        "type": "Reservoir",
        "entity": "http://www.wikidata.org/entity/Q22948515",
        "country_qid": "Q878",
        "Wikidata Qid": "Q22948515"
      }
    },
    {
      "type": "Feature",
      "geometry": {
        "type": "Point",
        "coordinates": [
          55.633471,
          24.089097
        ]
      },
      "properties": {
        "label": "Lake Zakher",
        "type": "Reservoir",
        "entity": "http://www.wikidata.org/entity/Q15241362",
        "country_qid": "Q878",
        "Wikidata Qid": "Q15241362"
      }
    },
    {
      "type": "Feature",
      "geometry": {
        "type": "Point",
        "coordinates": [
          56.1203846,
          25.4738771
        ]
      },
      "properties": {
        "label": "Wadi Kub Breaker - 1",
        "type": "Hydraulic structure",
        "entity": "http://www.wikidata.org/entity/Q133816426",
        "country_qid": "Q878",
        "Wikidata Qid": "Q133816426"
      }
    },
    {
      "type": "Feature",
      "geometry": {
        "type": "Point",
        "coordinates": [
          56.0929013,
          24.8102814
        ]
      },
      "properties": {
        "label": "Wadi Al Khulaiban Breaker",
        "type": "Hydraulic structure",
        "entity": "http://www.wikidata.org/entity/Q133797223",
        "country_qid": "Q878",
        "Wikidata Qid": "Q133797223"
      }
    },
    {
      "type": "Feature",
      "geometry": {
        "type": "Point",
        "coordinates": [
          56.1396821,
          25.0463297
        ]
      },
      "properties": {
        "label": "Wadi Al Ejili Dam",
        "type": "Hydraulic structure",
        "entity": "http://www.wikidata.org/entity/Q133822694",
        "country_qid": "Q878",
        "Wikidata Qid": "Q133822694"
      }
    },
    {
      "type": "Feature",
      "geometry": {
        "type": "Point",
        "coordinates": [
          56.291111111,
          25.581666666
        ]
      },
      "properties": {
        "label": "Dalam Dam",
        "type": "Hydraulic structure",
        "entity": "http://www.wikidata.org/entity/Q21737881",
        "country_qid": "Q878",
        "Wikidata Qid": "Q21737881"
      }
    },
    {
      "type": "Feature",
      "geometry": {
        "type": "Point",
        "coordinates": [
          56.2975,
          25.219444444
        ]
      },
      "properties": {
        "label": "Wadi Safad Main Dam",
        "type": "Hydraulic structure",
        "entity": "http://www.wikidata.org/entity/Q21737898",
        "country_qid": "Q878",
        "Wikidata Qid": "Q21737898"
      }
    },
    {
      "type": "Feature",
      "geometry": {
        "type": "Point",
        "coordinates": [
          54.386388888,
          24.525277777
        ]
      },
      "properties": {
        "label": "Port Zayed",
        "type": "Hydraulic structure",
        "entity": "http://www.wikidata.org/entity/Q3180182",
        "country_qid": "Q878",
        "Wikidata Qid": "Q3180182"
      }
    },
    {
      "type": "Feature",
      "geometry": {
        "type": "Point",
        "coordinates": [
          56.0875,
          25.2525
        ]
      },
      "properties": {
        "label": "Siji Dam",
        "type": "Hydraulic structure",
        "entity": "http://www.wikidata.org/entity/Q21737874",
        "country_qid": "Q878",
        "Wikidata Qid": "Q21737874"
      }
    },
    {
      "type": "Feature",
      "geometry": {
        "type": "Point",
        "coordinates": [
          56.298888888,
          25.381388888
        ]
      },
      "properties": {
        "label": "Wurayah Dam",
        "type": "Hydraulic structure",
        "entity": "http://www.wikidata.org/entity/Q21737884",
        "country_qid": "Q878",
        "Wikidata Qid": "Q21737884"
      }
    },
    {
      "type": "Feature",
      "geometry": {
        "type": "Point",
        "coordinates": [
          55.743055555,
          24.0975
        ]
      },
      "properties": {
        "label": "Mubazzara Dam",
        "type": "Hydraulic structure",
        "entity": "http://www.wikidata.org/entity/Q60471925",
        "country_qid": "Q878",
        "Wikidata Qid": "Q60471925"
      }
    },
    {
      "type": "Feature",
      "geometry": {
        "type": "Point",
        "coordinates": [
          56.0838371,
          25.4595991
        ]
      },
      "properties": {
        "label": "Wadi Kub Dam - 2",
        "type": "Hydraulic structure",
        "entity": "http://www.wikidata.org/entity/Q133816618",
        "country_qid": "Q878",
        "Wikidata Qid": "Q133816618"
      }
    },
    {
      "type": "Feature",
      "geometry": {
        "type": "Point",
        "coordinates": [
          56.229444444,
          25.196666666
        ]
      },
      "properties": {
        "label": "Bithnah Dam",
        "type": "Hydraulic structure",
        "entity": "http://www.wikidata.org/entity/Q21737888",
        "country_qid": "Q878",
        "Wikidata Qid": "Q21737888"
      }
    },
    {
      "type": "Feature",
      "geometry": {
        "type": "Point",
        "coordinates": [
          56.0474617,
          25.6700342
        ]
      },
      "properties": {
        "label": "Wadi Nahela Breaker",
        "type": "Hydraulic structure",
        "entity": "http://www.wikidata.org/entity/Q133800710",
        "country_qid": "Q878",
        "Wikidata Qid": "Q133800710"
      }
    },
    {
      "type": "Feature",
      "geometry": {
        "type": "Point",
        "coordinates": [
          56.3,
          25.35
        ]
      },
      "properties": {
        "label": "Ar Rufaysah Dam",
        "type": "Hydraulic structure",
        "entity": "http://www.wikidata.org/entity/Q4783074",
        "country_qid": "Q878",
        "Wikidata Qid": "Q4783074"
      }
    },
    {
      "type": "Feature",
      "geometry": {
        "type": "Point",
        "coordinates": [
          56.0428925,
          25.1054883
        ]
      },
      "properties": {
        "label": "Wadi Shawka Dam",
        "type": "Hydraulic structure",
        "entity": "http://www.wikidata.org/entity/Q133805360",
        "country_qid": "Q878",
        "Wikidata Qid": "Q133805360"
      }
    },
    {
      "type": "Feature",
      "geometry": {
        "type": "Point",
        "coordinates": [
          56.0835084,
          25.4577881
        ]
      },
      "properties": {
        "label": "Wadi Kub Dam - 3",
        "type": "Hydraulic structure",
        "entity": "http://www.wikidata.org/entity/Q133818135",
        "country_qid": "Q878",
        "Wikidata Qid": "Q133818135"
      }
    },
    {
      "type": "Feature",
      "geometry": {
        "type": "Point",
        "coordinates": [
          54.66666667,
          24.83333333
        ]
      },
      "properties": {
        "label": "Khalifa Port",
        "type": "Hydraulic structure",
        "entity": "http://www.wikidata.org/entity/Q15236040",
        "country_qid": "Q878",
        "Wikidata Qid": "Q15236040"
      }
    },
    {
      "type": "Feature",
      "geometry": {
        "type": "Point",
        "coordinates": [
          55.37989,
          25.36205
        ]
      },
      "properties": {
        "label": "Port of Sharjah",
        "type": "Hydraulic structure",
        "entity": "http://www.wikidata.org/entity/Q6877623",
        "country_qid": "Q878",
        "Wikidata Qid": "Q6877623"
      }
    },
    {
      "type": "Feature",
      "geometry": {
        "type": "Point",
        "coordinates": [
          56.300685,
          25.613475
        ]
      },
      "properties": {
        "label": "Port of Dibba",
        "type": "Hydraulic structure",
        "entity": "http://www.wikidata.org/entity/Q12246923",
        "country_qid": "Q878",
        "Wikidata Qid": "Q12246923"
      }
    },
    {
      "type": "Feature",
      "geometry": {
        "type": "Point",
        "coordinates": [
          56.304166666,
          25.020555555
        ]
      },
      "properties": {
        "label": "Rumth Dam",
        "type": "Hydraulic structure",
        "entity": "http://www.wikidata.org/entity/Q21737895",
        "country_qid": "Q878",
        "Wikidata Qid": "Q21737895"
      }
    },
    {
      "type": "Feature",
      "geometry": {
        "type": "Point",
        "coordinates": [
          56.046944444,
          25.973611111
        ]
      },
      "properties": {
        "label": "Mīnā' Şaqr",
        "type": "Hydraulic structure",
        "entity": "http://www.wikidata.org/entity/Q21737947",
        "country_qid": "Q878",
        "Wikidata Qid": "Q21737947"
      }
    },
    {
      "type": "Feature",
      "geometry": {
        "type": "Point",
        "coordinates": [
          56.1140999,
          24.9957145
        ]
      },
      "properties": {
        "label": "Al Munay Breaker",
        "type": "Hydraulic structure",
        "entity": "http://www.wikidata.org/entity/Q133827829",
        "country_qid": "Q878",
        "Wikidata Qid": "Q133827829"
      }
    },
    {
      "type": "Feature",
      "geometry": {
        "type": "Point",
        "coordinates": [
          56.0712109,
          25.4822855
        ]
      },
      "properties": {
        "label": "Wadi Kub Dam - 4",
        "type": "Hydraulic structure",
        "entity": "http://www.wikidata.org/entity/Q133817229",
        "country_qid": "Q878",
        "Wikidata Qid": "Q133817229"
      }
    },
    {
      "type": "Feature",
      "geometry": {
        "type": "Point",
        "coordinates": [
          56.1082036,
          25.1712614
        ]
      },
      "properties": {
        "label": "Mamduh Dam",
        "type": "Hydraulic structure",
        "entity": "http://www.wikidata.org/entity/Q133809570",
        "country_qid": "Q878",
        "Wikidata Qid": "Q133809570"
      }
    },
    {
      "type": "Feature",
      "geometry": {
        "type": "Point",
        "coordinates": [
          53.05,
          24.866666666
        ]
      },
      "properties": {
        "label": "Zirkuh Oil Field",
        "type": "Hydraulic structure",
        "entity": "http://www.wikidata.org/entity/Q111386456",
        "country_qid": "Q878",
        "Wikidata Qid": "Q111386456"
      }
    },
    {
      "type": "Feature",
      "geometry": {
        "type": "Point",
        "coordinates": [
          56.247222222,
          25.161388888
        ]
      },
      "properties": {
        "label": "Wadi Ham Dam 1",
        "type": "Hydraulic structure",
        "entity": "http://www.wikidata.org/entity/Q21737889",
        "country_qid": "Q878",
        "Wikidata Qid": "Q21737889"
      }
    },
    {
      "type": "Feature",
      "geometry": {
        "type": "Point",
        "coordinates": [
          56.076615,
          25.797967
        ]
      },
      "properties": {
        "label": "Wadi Al Bih Dam",
        "type": "Hydraulic structure",
        "entity": "http://www.wikidata.org/entity/Q133804696",
        "country_qid": "Q878",
        "Wikidata Qid": "Q133804696"
      }
    },
    {
      "type": "Feature",
      "geometry": {
        "type": "Point",
        "coordinates": [
          56.0724391,
          25.9249168
        ]
      },
      "properties": {
        "label": "Wadi Rahabah Dam",
        "type": "Hydraulic structure",
        "entity": "http://www.wikidata.org/entity/Q133815389",
        "country_qid": "Q878",
        "Wikidata Qid": "Q133815389"
      }
    },
    {
      "type": "Feature",
      "geometry": {
        "type": "Point",
        "coordinates": [
          56.300277777,
          25.042777777
        ]
      },
      "properties": {
        "label": "Wadi Hamad Dam",
        "type": "Hydraulic structure",
        "entity": "http://www.wikidata.org/entity/Q21737896",
        "country_qid": "Q878",
        "Wikidata Qid": "Q21737896"
      }
    },
    {
      "type": "Feature",
      "geometry": {
        "type": "Point",
        "coordinates": [
          56.351944444,
          25.271111111
        ]
      },
      "properties": {
        "label": "Mirba Dam",
        "type": "Hydraulic structure",
        "entity": "http://www.wikidata.org/entity/Q21737885",
        "country_qid": "Q878",
        "Wikidata Qid": "Q21737885"
      }
    },
    {
      "type": "Feature",
      "geometry": {
        "type": "Point",
        "coordinates": [
          56.333333333,
          25.252777777
        ]
      },
      "properties": {
        "label": "Theeb Dam",
        "type": "Hydraulic structure",
        "entity": "http://www.wikidata.org/entity/Q21737886",
        "country_qid": "Q878",
        "Wikidata Qid": "Q21737886"
      }
    },
    {
      "type": "Feature",
      "geometry": {
        "type": "Point",
        "coordinates": [
          56.313333333,
          25.219166666
        ]
      },
      "properties": {
        "label": "Wadi Safad Check Dam",
        "type": "Hydraulic structure",
        "entity": "http://www.wikidata.org/entity/Q21737887",
        "country_qid": "Q878",
        "Wikidata Qid": "Q21737887"
      }
    },
    {
      "type": "Feature",
      "geometry": {
        "type": "Point",
        "coordinates": [
          55.4,
          25.583333333
        ]
      },
      "properties": {
        "label": "Sharjah Offshore Terminal",
        "type": "Hydraulic structure",
        "entity": "http://www.wikidata.org/entity/Q111387280",
        "country_qid": "Q878",
        "Wikidata Qid": "Q111387280"
      }
    },
    {
      "type": "Feature",
      "geometry": {
        "type": "Point",
        "coordinates": [
          53.373055555,
          24.455555555
        ]
      },
      "properties": {
        "label": "Mīnā' al Mubarraz",
        "type": "Hydraulic structure",
        "entity": "http://www.wikidata.org/entity/Q21737894",
        "country_qid": "Q878",
        "Wikidata Qid": "Q21737894"
      }
    },
    {
      "type": "Feature",
      "geometry": {
        "type": "Point",
        "coordinates": [
          56.131111111,
          25.451111111
        ]
      },
      "properties": {
        "label": "Wadi Sidr Dam",
        "type": "Hydraulic structure",
        "entity": "http://www.wikidata.org/entity/Q21737876",
        "country_qid": "Q878",
        "Wikidata Qid": "Q21737876"
      }
    },
    {
      "type": "Feature",
      "geometry": {
        "type": "Point",
        "coordinates": [
          56.340277777,
          25.2225
        ]
      },
      "properties": {
        "label": "Wadi Safad Check Dam",
        "type": "Hydraulic structure",
        "entity": "http://www.wikidata.org/entity/Q21737899",
        "country_qid": "Q878",
        "Wikidata Qid": "Q21737899"
      }
    },
    {
      "type": "Feature",
      "geometry": {
        "type": "Point",
        "coordinates": [
          56.3025,
          25.511111111
        ]
      },
      "properties": {
        "label": "Zikt Dam",
        "type": "Hydraulic structure",
        "entity": "http://www.wikidata.org/entity/Q21737882",
        "country_qid": "Q878",
        "Wikidata Qid": "Q21737882"
      }
    },
    {
      "type": "Feature",
      "geometry": {
        "type": "Point",
        "coordinates": [
          56.0421373,
          25.190811
        ]
      },
      "properties": {
        "label": "Wadi Sifuni Dam",
        "type": "Hydraulic structure",
        "entity": "http://www.wikidata.org/entity/Q133809454",
        "country_qid": "Q878",
        "Wikidata Qid": "Q133809454"
      }
    },
    {
      "type": "Feature",
      "geometry": {
        "type": "Point",
        "coordinates": [
          55.373611111,
          25.321388888
        ]
      },
      "properties": {
        "label": "Al Qasba Canal",
        "type": "Hydraulic structure",
        "entity": "http://www.wikidata.org/entity/Q21737807",
        "country_qid": "Q878",
        "Wikidata Qid": "Q21737807"
      }
    },
    {
      "type": "Feature",
      "geometry": {
        "type": "Point",
        "coordinates": [
          56.0877748,
          24.8139653
        ]
      },
      "properties": {
        "label": "Wadi Al Mustab Breaker",
        "type": "Hydraulic structure",
        "entity": "http://www.wikidata.org/entity/Q133798603",
        "country_qid": "Q878",
        "Wikidata Qid": "Q133798603"
      }
    },
    {
      "type": "Feature",
      "geometry": {
        "type": "Point",
        "coordinates": [
          56.313333333,
          25.590555555
        ]
      },
      "properties": {
        "label": "Rakbi Dam",
        "type": "Hydraulic structure",
        "entity": "http://www.wikidata.org/entity/Q21737880",
        "country_qid": "Q878",
        "Wikidata Qid": "Q21737880"
      }
    },
    {
      "type": "Feature",
      "geometry": {
        "type": "Point",
        "coordinates": [
          56.0488932,
          25.5658124
        ]
      },
      "properties": {
        "label": "Wadi Tawiyean Dam",
        "type": "Hydraulic structure",
        "entity": "http://www.wikidata.org/entity/Q133806196",
        "country_qid": "Q878",
        "Wikidata Qid": "Q133806196"
      }
    },
    {
      "type": "Feature",
      "geometry": {
        "type": "Point",
        "coordinates": [
          56.121388888,
          25.439166666
        ]
      },
      "properties": {
        "label": "Wadi Sidr Dam",
        "type": "Hydraulic structure",
        "entity": "http://www.wikidata.org/entity/Q21737875",
        "country_qid": "Q878",
        "Wikidata Qid": "Q21737875"
      }
    },
    {
      "type": "Feature",
      "geometry": {
        "type": "Point",
        "coordinates": [
          55.578611111,
          25.591944444
        ]
      },
      "properties": {
        "label": "Mīnā' Ahmad Bin Rāshid wa al Minţaqah al Ḩurrah",
        "type": "Hydraulic structure",
        "entity": "http://www.wikidata.org/entity/Q21737871",
        "country_qid": "Q878",
        "Wikidata Qid": "Q21737871"
      }
    },
    {
      "type": "Feature",
      "geometry": {
        "type": "Point",
        "coordinates": [
          54.46916667,
          24.38166667
        ]
      },
      "properties": {
        "label": "Musaffah Port",
        "type": "Hydraulic structure",
        "entity": "http://www.wikidata.org/entity/Q15260334",
        "country_qid": "Q878",
        "Wikidata Qid": "Q15260334"
      }
    },
    {
      "type": "Feature",
      "geometry": {
        "type": "Point",
        "coordinates": [
          56.1259925,
          25.0208841
        ]
      },
      "properties": {
        "label": "Wadi Tuwa Dam",
        "type": "Hydraulic structure",
        "entity": "http://www.wikidata.org/entity/Q133767421",
        "country_qid": "Q878",
        "Wikidata Qid": "Q133767421"
      }
    },
    {
      "type": "Feature",
      "geometry": {
        "type": "Point",
        "coordinates": [
          56.265122,
          25.0319172
        ]
      },
      "properties": {
        "label": "Wadi May Dam",
        "type": "Hydraulic structure",
        "entity": "http://www.wikidata.org/entity/Q133804714",
        "country_qid": "Q878",
        "Wikidata Qid": "Q133804714"
      }
    },
    {
      "type": "Feature",
      "geometry": {
        "type": "Point",
        "coordinates": [
          56.1149011,
          26.0329211
        ]
      },
      "properties": {
        "label": "Wadi Sha'am Dam",
        "type": "Hydraulic structure",
        "entity": "http://www.wikidata.org/entity/Q133815682",
        "country_qid": "Q878",
        "Wikidata Qid": "Q133815682"
      }
    },
    {
      "type": "Feature",
      "geometry": {
        "type": "Point",
        "coordinates": [
          56.0752047,
          24.826972
        ]
      },
      "properties": {
        "label": "Wadi Hadf Dam",
        "type": "Hydraulic structure",
        "entity": "http://www.wikidata.org/entity/Q133761074",
        "country_qid": "Q878",
        "Wikidata Qid": "Q133761074"
      }
    },
    {
      "type": "Feature",
      "geometry": {
        "type": "Point",
        "coordinates": [
          56.2990137,
          25.3812242
        ]
      },
      "properties": {
        "label": "Wadi Wurayah Dam",
        "type": "Hydraulic structure",
        "entity": "http://www.wikidata.org/entity/Q63975786",
        "country_qid": "Q878",
        "Wikidata Qid": "Q63975786"
      }
    },
    {
      "type": "Feature",
      "geometry": {
        "type": "Point",
        "coordinates": [
          56.1425297,
          24.8128345
        ]
      },
      "properties": {
        "label": "Al Khattem Dam",
        "type": "Hydraulic structure",
        "entity": "http://www.wikidata.org/entity/Q133804811",
        "country_qid": "Q878",
        "Wikidata Qid": "Q133804811"
      }
    },
    {
      "type": "Feature",
      "geometry": {
        "type": "Point",
        "coordinates": [
          55.06116,
          25.01126
        ]
      },
      "properties": {
        "label": "Port of Jebel Ali",
        "type": "Hydraulic structure",
        "entity": "http://www.wikidata.org/entity/Q509588",
        "country_qid": "Q878",
        "Wikidata Qid": "Q509588"
      }
    },
    {
      "type": "Feature",
      "geometry": {
        "type": "Point",
        "coordinates": [
          56.208055555,
          25.528611111
        ]
      },
      "properties": {
        "label": "Al Basera Dam",
        "type": "Hydraulic structure",
        "entity": "http://www.wikidata.org/entity/Q21737878",
        "country_qid": "Q878",
        "Wikidata Qid": "Q21737878"
      }
    },
    {
      "type": "Feature",
      "geometry": {
        "type": "Point",
        "coordinates": [
          56.049722222,
          25.565833333
        ]
      },
      "properties": {
        "label": "Tawian Dam",
        "type": "Hydraulic structure",
        "entity": "http://www.wikidata.org/entity/Q21737879",
        "country_qid": "Q878",
        "Wikidata Qid": "Q21737879"
      }
    },
    {
      "type": "Feature",
      "geometry": {
        "type": "Point",
        "coordinates": [
          56.248055555,
          25.092777777
        ]
      },
      "properties": {
        "label": "Al Hayl Dam",
        "type": "Hydraulic structure",
        "entity": "http://www.wikidata.org/entity/Q21737891",
        "country_qid": "Q878",
        "Wikidata Qid": "Q21737891"
      }
    },
    {
      "type": "Feature",
      "geometry": {
        "type": "Point",
        "coordinates": [
          56.290833333,
          25.119444444
        ]
      },
      "properties": {
        "label": "Wadi Ham Dam",
        "type": "Hydraulic structure",
        "entity": "http://www.wikidata.org/entity/Q21737897",
        "country_qid": "Q878",
        "Wikidata Qid": "Q21737897"
      }
    },
    {
      "type": "Feature",
      "geometry": {
        "type": "Point",
        "coordinates": [
          55.453611111,
          25.421388888
        ]
      },
      "properties": {
        "label": "Mīnā' ‘Ajmān",
        "type": "Hydraulic structure",
        "entity": "http://www.wikidata.org/entity/Q21737809",
        "country_qid": "Q878",
        "Wikidata Qid": "Q21737809"
      }
    },
    {
      "type": "Feature",
      "geometry": {
        "type": "Point",
        "coordinates": [
          56.3045734,
          25.0205959
        ]
      },
      "properties": {
        "label": "Wadi Rumh Dam",
        "type": "Hydraulic structure",
        "entity": "http://www.wikidata.org/entity/Q133806145",
        "country_qid": "Q878",
        "Wikidata Qid": "Q133806145"
      }
    },
    {
      "type": "Feature",
      "geometry": {
        "type": "Point",
        "coordinates": [
          55.377291,
          25.360967
        ]
      },
      "properties": {
        "label": "Q11942385",
        "type": "Hydraulic structure",
        "entity": "http://www.wikidata.org/entity/Q11942385",
        "country_qid": "Q878",
        "Wikidata Qid": "Q11942385"
      }
    },
    {
      "type": "Feature",
      "geometry": {
        "type": "Point",
        "coordinates": [
          55.0612,
          25.0113
        ]
      },
      "properties": {
        "label": "Jebel Ali LNG terminal",
        "type": "Hydraulic structure",
        "entity": "http://www.wikidata.org/entity/Q110788487",
        "country_qid": "Q878",
        "Wikidata Qid": "Q110788487"
      }
    },
    {
      "type": "Feature",
      "geometry": {
        "type": "Point",
        "coordinates": [
          53.0,
          25.016666666
        ]
      },
      "properties": {
        "label": "Zirkuh Petroleum Port",
        "type": "Hydraulic structure",
        "entity": "http://www.wikidata.org/entity/Q111387283",
        "country_qid": "Q878",
        "Wikidata Qid": "Q111387283"
      }
    },
    {
      "type": "Feature",
      "geometry": {
        "type": "Point",
        "coordinates": [
          55.444722222,
          25.358611111
        ]
      },
      "properties": {
        "label": "Falaj Wāsiţ",
        "type": "Hydraulic structure",
        "entity": "http://www.wikidata.org/entity/Q21737906",
        "country_qid": "Q878",
        "Wikidata Qid": "Q21737906"
      }
    },
    {
      "type": "Feature",
      "geometry": {
        "type": "Point",
        "coordinates": [
          56.359733,
          25.18805
        ]
      },
      "properties": {
        "label": "Port of Fujairah",
        "type": "Hydraulic structure",
        "entity": "http://www.wikidata.org/entity/Q12246913",
        "country_qid": "Q878",
        "Wikidata Qid": "Q12246913"
      }
    },
    {
      "type": "Feature",
      "geometry": {
        "type": "Point",
        "coordinates": [
          56.1464063,
          25.9827296
        ]
      },
      "properties": {
        "label": "Wadi Ghalilah Dam",
        "type": "Hydraulic structure",
        "entity": "http://www.wikidata.org/entity/Q133759712",
        "country_qid": "Q878",
        "Wikidata Qid": "Q133759712"
      }
    },
    {
      "type": "Feature",
      "geometry": {
        "type": "Point",
        "coordinates": [
          56.36544,
          25.357835
        ]
      },
      "properties": {
        "label": "Port of Khor Fakkan",
        "type": "Hydraulic structure",
        "entity": "http://www.wikidata.org/entity/Q12246924",
        "country_qid": "Q878",
        "Wikidata Qid": "Q12246924"
      }
    },
    {
      "type": "Feature",
      "geometry": {
        "type": "Point",
        "coordinates": [
          52.874486,
          25.152669
        ]
      },
      "properties": {
        "label": "Abu Dhabi LNG",
        "type": "Hydraulic structure",
        "entity": "http://www.wikidata.org/entity/Q30972593",
        "country_qid": "Q878",
        "Wikidata Qid": "Q30972593"
      }
    },
    {
      "type": "Feature",
      "geometry": {
        "type": "Point",
        "coordinates": [
          56.114329,
          24.783564
        ]
      },
      "properties": {
        "label": "Wadi Hatta Dam",
        "type": "Hydraulic structure",
        "entity": "http://www.wikidata.org/entity/Q47542621",
        "country_qid": "Q878",
        "Wikidata Qid": "Q47542621"
      }
    },
    {
      "type": "Feature",
      "geometry": {
        "type": "Point",
        "coordinates": [
          55.378333333,
          25.365833333
        ]
      },
      "properties": {
        "label": "Mīnā' Khālid",
        "type": "Hydraulic structure",
        "entity": "http://www.wikidata.org/entity/Q21735558",
        "country_qid": "Q878",
        "Wikidata Qid": "Q21735558"
      }
    },
    {
      "type": "Feature",
      "geometry": {
        "type": "Point",
        "coordinates": [
          56.2990791,
          25.5111745
        ]
      },
      "properties": {
        "label": "Wadi Zikt Dam",
        "type": "Hydraulic structure",
        "entity": "http://www.wikidata.org/entity/Q133760391",
        "country_qid": "Q878",
        "Wikidata Qid": "Q133760391"
      }
    },
    {
      "type": "Feature",
      "geometry": {
        "type": "Point",
        "coordinates": [
          55.39638889,
          25.16888889
        ]
      },
      "properties": {
        "label": "Dubai Design Center",
        "type": "Industrial building",
        "entity": "http://www.wikidata.org/entity/Q1262848",
        "country_qid": "Q878",
        "Wikidata Qid": "Q1262848"
      }
    },
    {
      "type": "Feature",
      "geometry": {
        "type": "Point",
        "coordinates": [
          54.5836834,
          24.3948665
        ]
      },
      "properties": {
        "label": "Training Sessions at Zayed University (Abu Dhabi Campus)",
        "type": "Industrial building",
        "entity": "http://www.wikidata.org/entity/Q115000748",
        "country_qid": "Q878",
        "Wikidata Qid": "Q115000748"
      }
    },
    {
      "type": "Feature",
      "geometry": {
        "type": "Point",
        "coordinates": [
          52.727833,
          24.106288
        ]
      },
      "properties": {
        "label": "Ruwais Refinery",
        "type": "Industrial building",
        "entity": "http://www.wikidata.org/entity/Q39049731",
        "country_qid": "Q878",
        "Wikidata Qid": "Q39049731"
      }
    },
    {
      "type": "Feature",
      "geometry": {
        "type": "Point",
        "coordinates": [
          55.064722222,
          24.853611111
        ]
      },
      "properties": {
        "label": "Dubai Industrial City",
        "type": "Industrial park",
        "entity": "http://www.wikidata.org/entity/Q5310557",
        "country_qid": "Q878",
        "Wikidata Qid": "Q5310557"
      }
    }
  ]
}