{
  "type": "FeatureCollection",
  "features": [
    {
      "type": "Feature",
      "geometry": {
        "type": "Point",
        "coordinates": [
          26.02126,
          -15.75987
        ]
      },
      "properties": {
        "label": "Itezhi-Tezhi Dam",
        "type": "power plant",
        "entity": "http://www.wikidata.org/entity/Q1461688",
        "country_qid": "Q953"
      }
    },
    {
      "type": "Feature",
      "geometry": {
        "type": "Point",
        "coordinates": [
          25.8603,
          -17.9308
        ]
      },
      "properties": {
        "label": "Victoria Falls Power Station",
        "type": "power plant",
        "entity": "http://www.wikidata.org/entity/Q859752",
        "country_qid": "Q953"
      }
    },
    {
      "type": "Feature",
      "geometry": {
        "type": "Point",
        "coordinates": [
          26.13083333,
          -17.91972222
        ]
      },
      "properties": {
        "label": "Batoka Gorge Hydroelectric Power Station",
        "type": "power plant",
        "entity": "http://www.wikidata.org/entity/Q17002870",
        "country_qid": "Q953"
      }
    },
    {
      "type": "Feature",
      "geometry": {
        "type": "Point",
        "coordinates": [
          28.431666666,
          -15.511666666
        ]
      },
      "properties": {
        "label": "Bangweulu Solar Power Station",
        "type": "power plant",
        "entity": "http://www.wikidata.org/entity/Q108673091",
        "country_qid": "Q953"
      }
    },
    {
      "type": "Feature",
      "geometry": {
        "type": "Point",
        "coordinates": [
          28.236388888,
          -12.807222222
        ]
      },
      "properties": {
        "label": "Zambia Riverside Solar Power Station",
        "type": "power plant",
        "entity": "http://www.wikidata.org/entity/Q111941340",
        "country_qid": "Q953"
      }
    },
    {
      "type": "Feature",
      "geometry": {
        "type": "Point",
        "coordinates": [
          28.094722222,
          -12.724166666
        ]
      },
      "properties": {
        "label": "Kalulushi Concentrated Solar Power Station",
        "type": "power plant",
        "entity": "http://www.wikidata.org/entity/Q109255287",
        "country_qid": "Q953"
      }
    },
    {
      "type": "Feature",
      "geometry": {
        "type": "Point",
        "coordinates": [
          23.5075,
          -16.599722222
        ]
      },
      "properties": {
        "label": "Ngonye Hydroelectric Power Station",
        "type": "power plant",
        "entity": "http://www.wikidata.org/entity/Q108559457",
        "country_qid": "Q953"
      }
    },
    {
      "type": "Feature",
      "geometry": {
        "type": "Point",
        "coordinates": [
          27.03,
          -16.775
        ]
      },
      "properties": {
        "label": "Choma Solar Power Station",
        "type": "power plant",
        "entity": "http://www.wikidata.org/entity/Q126052714",
        "country_qid": "Q953"
      }
    },
    {
      "type": "Feature",
      "geometry": {
        "type": "Point",
        "coordinates": [
          29.118055555,
          -14.646111111
        ]
      },
      "properties": {
        "label": "Lunsemfwa Lower Hydroelectric Power Station",
        "type": "power plant",
        "entity": "http://www.wikidata.org/entity/Q113641772",
        "country_qid": "Q953"
      }
    },
    {
      "type": "Feature",
      "geometry": {
        "type": "Point",
        "coordinates": [
          28.42083333,
          -15.80833333
        ]
      },
      "properties": {
        "label": "Kafue Gorge Dam",
        "type": "power plant",
        "entity": "http://www.wikidata.org/entity/Q1462385",
        "country_qid": "Q953"
      }
    },
    {
      "type": "Feature",
      "geometry": {
        "type": "Point",
        "coordinates": [
          30.577222222,
          -12.758055555
        ]
      },
      "properties": {
        "label": "Serenje Solar Power Station",
        "type": "power plant",
        "entity": "http://www.wikidata.org/entity/Q107694663",
        "country_qid": "Q953"
      }
    },
    {
      "type": "Feature",
      "geometry": {
        "type": "Point",
        "coordinates": [
          24.1922,
          -11.1239
        ]
      },
      "properties": {
        "label": "Zengamina",
        "type": "power plant",
        "entity": "http://www.wikidata.org/entity/Q8069072",
        "country_qid": "Q953"
      }
    },
    {
      "type": "Feature",
      "geometry": {
        "type": "Point",
        "coordinates": [
          30.914444444,
          -10.118888888
        ]
      },
      "properties": {
        "label": "Chishimba Hydroelectric Power Station",
        "type": "power plant",
        "entity": "http://www.wikidata.org/entity/Q112182696",
        "country_qid": "Q953"
      }
    },
    {
      "type": "Feature",
      "geometry": {
        "type": "Point",
        "coordinates": [
          28.7614,
          -16.5217
        ]
      },
      "properties": {
        "label": "Kariba Dam",
        "type": "power plant",
        "entity": "http://www.wikidata.org/entity/Q1367609",
        "country_qid": "Q953"
      }
    },
    {
      "type": "Feature",
      "geometry": {
        "type": "Point",
        "coordinates": [
          28.5591504,
          -15.896147
        ]
      },
      "properties": {
        "label": "Kafue Gorge Lower Power Station",
        "type": "power plant",
        "entity": "http://www.wikidata.org/entity/Q56373922",
        "country_qid": "Q953"
      }
    },
    {
      "type": "Feature",
      "geometry": {
        "type": "Point",
        "coordinates": [
          28.428888888,
          -15.5175
        ]
      },
      "properties": {
        "label": "Ngonye Solar Power Station",
        "type": "power plant",
        "entity": "http://www.wikidata.org/entity/Q108770726",
        "country_qid": "Q953"
      }
    },
    {
      "type": "Feature",
      "geometry": {
        "type": "Point",
        "coordinates": [
          28.180833333,
          -12.695
        ]
      },
      "properties": {
        "label": "Itimpi Solar Power Station",
        "type": "power plant",
        "entity": "http://www.wikidata.org/entity/Q125843745",
        "country_qid": "Q953"
      }
    },
    {
      "type": "Feature",
      "geometry": {
        "type": "Point",
        "coordinates": [
          27.18575,
          -17.352861111
        ]
      },
      "properties": {
        "label": "Maamba Power Plant",
        "type": "power plant",
        "entity": "http://www.wikidata.org/entity/Q56373911",
        "country_qid": "Q953"
      }
    },
    {
      "type": "Feature",
      "geometry": {
        "type": "Point",
        "coordinates": [
          28.843888888,
          -14.633888888
        ]
      },
      "properties": {
        "label": "Mulungushi Reservoir",
        "type": "Reservoir",
        "entity": "http://www.wikidata.org/entity/Q31961016",
        "country_qid": "Q953"
      }
    },
    {
      "type": "Feature",
      "geometry": {
        "type": "Point",
        "coordinates": [
          26.885833333,
          -15.8875
        ]
      },
      "properties": {
        "label": "Kabulamwanda Dam",
        "type": "Reservoir",
        "entity": "http://www.wikidata.org/entity/Q31928687",
        "country_qid": "Q953"
      }
    },
    {
      "type": "Feature",
      "geometry": {
        "type": "Point",
        "coordinates": [
          23.1,
          -15.166666666
        ]
      },
      "properties": {
        "label": "Mwayowamo Canal",
        "type": "Hydraulic structure",
        "entity": "http://www.wikidata.org/entity/Q31964578",
        "country_qid": "Q953"
      }
    },
    {
      "type": "Feature",
      "geometry": {
        "type": "Point",
        "coordinates": [
          23.983333333,
          -16.983333333
        ]
      },
      "properties": {
        "label": "Namako",
        "type": "Hydraulic structure",
        "entity": "http://www.wikidata.org/entity/Q31967022",
        "country_qid": "Q953"
      }
    },
    {
      "type": "Feature",
      "geometry": {
        "type": "Point",
        "coordinates": [
          33.342777777,
          -12.457222222
        ]
      },
      "properties": {
        "label": "Bowe Dam",
        "type": "Hydraulic structure",
        "entity": "http://www.wikidata.org/entity/Q31882977",
        "country_qid": "Q953"
      }
    },
    {
      "type": "Feature",
      "geometry": {
        "type": "Point",
        "coordinates": [
          23.983333333,
          -16.95
        ]
      },
      "properties": {
        "label": "Lusese",
        "type": "Hydraulic structure",
        "entity": "http://www.wikidata.org/entity/Q31945240",
        "country_qid": "Q953"
      }
    },
    {
      "type": "Feature",
      "geometry": {
        "type": "Point",
        "coordinates": [
          23.15,
          -16.416666666
        ]
      },
      "properties": {
        "label": "Kalonga",
        "type": "Hydraulic structure",
        "entity": "http://www.wikidata.org/entity/Q31929369",
        "country_qid": "Q953"
      }
    },
    {
      "type": "Feature",
      "geometry": {
        "type": "Point",
        "coordinates": [
          28.820941666,
          -14.698836111
        ]
      },
      "properties": {
        "label": "Mulungushi Dam",
        "type": "Hydraulic structure",
        "entity": "http://www.wikidata.org/entity/Q6935230",
        "country_qid": "Q953"
      }
    },
    {
      "type": "Feature",
      "geometry": {
        "type": "Point",
        "coordinates": [
          23.766111111,
          -15.296944444
        ]
      },
      "properties": {
        "label": "Lukalanya",
        "type": "Hydraulic structure",
        "entity": "http://www.wikidata.org/entity/Q31944701",
        "country_qid": "Q953"
      }
    },
    {
      "type": "Feature",
      "geometry": {
        "type": "Point",
        "coordinates": [
          23.755555555,
          -15.391944444
        ]
      },
      "properties": {
        "label": "Nangalala",
        "type": "Hydraulic structure",
        "entity": "http://www.wikidata.org/entity/Q31967665",
        "country_qid": "Q953"
      }
    },
    {
      "type": "Feature",
      "geometry": {
        "type": "Point",
        "coordinates": [
          23.206388888,
          -15.021111111
        ]
      },
      "properties": {
        "label": "Nakalomo",
        "type": "Hydraulic structure",
        "entity": "http://www.wikidata.org/entity/Q31966498",
        "country_qid": "Q953"
      }
    },
    {
      "type": "Feature",
      "geometry": {
        "type": "Point",
        "coordinates": [
          29.09375,
          -14.14657
        ]
      },
      "properties": {
        "label": "Mita Hills Dam",
        "type": "Hydraulic structure",
        "entity": "http://www.wikidata.org/entity/Q13649673",
        "country_qid": "Q953"
      }
    },
    {
      "type": "Feature",
      "geometry": {
        "type": "Point",
        "coordinates": [
          23.059166666,
          -15.269444444
        ]
      },
      "properties": {
        "label": "Nebubela Canal",
        "type": "Hydraulic structure",
        "entity": "http://www.wikidata.org/entity/Q31969121",
        "country_qid": "Q953"
      }
    },
    {
      "type": "Feature",
      "geometry": {
        "type": "Point",
        "coordinates": [
          23.175277777,
          -15.076944444
        ]
      },
      "properties": {
        "label": "Namitome Canal",
        "type": "Hydraulic structure",
        "entity": "http://www.wikidata.org/entity/Q31967329",
        "country_qid": "Q953"
      }
    },
    {
      "type": "Feature",
      "geometry": {
        "type": "Point",
        "coordinates": [
          29.633333333,
          -11.15
        ]
      },
      "properties": {
        "label": "Kaulungombe Canal",
        "type": "Hydraulic structure",
        "entity": "http://www.wikidata.org/entity/Q31930491",
        "country_qid": "Q953"
      }
    },
    {
      "type": "Feature",
      "geometry": {
        "type": "Point",
        "coordinates": [
          22.883333333,
          -15.133333333
        ]
      },
      "properties": {
        "label": "Ilukuti Canal",
        "type": "Hydraulic structure",
        "entity": "http://www.wikidata.org/entity/Q31922899",
        "country_qid": "Q953"
      }
    },
    {
      "type": "Feature",
      "geometry": {
        "type": "Point",
        "coordinates": [
          24.066666666,
          -17.1
        ]
      },
      "properties": {
        "label": "Ncele",
        "type": "Hydraulic structure",
        "entity": "http://www.wikidata.org/entity/Q31968549",
        "country_qid": "Q953"
      }
    },
    {
      "type": "Feature",
      "geometry": {
        "type": "Point",
        "coordinates": [
          22.85,
          -15.116666666
        ]
      },
      "properties": {
        "label": "Ilute Canal",
        "type": "Hydraulic structure",
        "entity": "http://www.wikidata.org/entity/Q31922911",
        "country_qid": "Q953"
      }
    },
    {
      "type": "Feature",
      "geometry": {
        "type": "Point",
        "coordinates": [
          27.723888888,
          -14.843055555
        ]
      },
      "properties": {
        "label": "Kafushi Dam",
        "type": "Hydraulic structure",
        "entity": "http://www.wikidata.org/entity/Q31928894",
        "country_qid": "Q953"
      }
    },
    {
      "type": "Feature",
      "geometry": {
        "type": "Point",
        "coordinates": [
          23.036944444,
          -15.225277777
        ]
      },
      "properties": {
        "label": "Iboka Canal",
        "type": "Hydraulic structure",
        "entity": "http://www.wikidata.org/entity/Q31922764",
        "country_qid": "Q953"
      }
    },
    {
      "type": "Feature",
      "geometry": {
        "type": "Point",
        "coordinates": [
          23.333333333,
          -14.833333333
        ]
      },
      "properties": {
        "label": "Ushaa Canal",
        "type": "Hydraulic structure",
        "entity": "http://www.wikidata.org/entity/Q32037947",
        "country_qid": "Q953"
      }
    },
    {
      "type": "Feature",
      "geometry": {
        "type": "Point",
        "coordinates": [
          24.25,
          -17.133333333
        ]
      },
      "properties": {
        "label": "Silulu",
        "type": "Hydraulic structure",
        "entity": "http://www.wikidata.org/entity/Q32020348",
        "country_qid": "Q953"
      }
    },
    {
      "type": "Feature",
      "geometry": {
        "type": "Point",
        "coordinates": [
          22.943888888,
          -15.243611111
        ]
      },
      "properties": {
        "label": "Sikolongo",
        "type": "Hydraulic structure",
        "entity": "http://www.wikidata.org/entity/Q32020047",
        "country_qid": "Q953"
      }
    },
    {
      "type": "Feature",
      "geometry": {
        "type": "Point",
        "coordinates": [
          24.033333333,
          -17.05
        ]
      },
      "properties": {
        "label": "Sikuma",
        "type": "Hydraulic structure",
        "entity": "http://www.wikidata.org/entity/Q32020140",
        "country_qid": "Q953"
      }
    },
    {
      "type": "Feature",
      "geometry": {
        "type": "Point",
        "coordinates": [
          28.68,
          -13.039166666
        ]
      },
      "properties": {
        "label": "Indeni Petroleum Refinery",
        "type": "Industrial building",
        "entity": "http://www.wikidata.org/entity/Q96382026",
        "country_qid": "Q953"
      }
    },
    {
      "type": "Feature",
      "geometry": {
        "type": "Point",
        "coordinates": [
          28.2327,
          -12.5346
        ]
      },
      "properties": {
        "label": "Mufulira Mine",
        "type": "Mine",
        "entity": "http://www.wikidata.org/entity/Q19951143",
        "country_qid": "Q953"
      }
    },
    {
      "type": "Feature",
      "geometry": {
        "type": "Point",
        "coordinates": [
          27.005277777,
          -17.391111111
        ]
      },
      "properties": {
        "label": "Chimwami",
        "type": "Mine",
        "entity": "http://www.wikidata.org/entity/Q31904652",
        "country_qid": "Q953"
      }
    },
    {
      "type": "Feature",
      "geometry": {
        "type": "Point",
        "coordinates": [
          28.179166666,
          -14.318333333
        ]
      },
      "properties": {
        "label": "Carmarnor",
        "type": "Mine",
        "entity": "http://www.wikidata.org/entity/Q31890193",
        "country_qid": "Q953"
      }
    },
    {
      "type": "Feature",
      "geometry": {
        "type": "Point",
        "coordinates": [
          26.9025,
          -17.706944444
        ]
      },
      "properties": {
        "label": "Simani",
        "type": "Mine",
        "entity": "http://www.wikidata.org/entity/Q32020491",
        "country_qid": "Q953"
      }
    },
    {
      "type": "Feature",
      "geometry": {
        "type": "Point",
        "coordinates": [
          26.575277777,
          -17.749166666
        ]
      },
      "properties": {
        "label": "Shamane",
        "type": "Mine",
        "entity": "http://www.wikidata.org/entity/Q32017886",
        "country_qid": "Q953"
      }
    },
    {
      "type": "Feature",
      "geometry": {
        "type": "Point",
        "coordinates": [
          27.855555555,
          -12.512222222
        ]
      },
      "properties": {
        "label": "Nchanga Copper Mine",
        "type": "Mine",
        "entity": "http://www.wikidata.org/entity/Q31968569",
        "country_qid": "Q953"
      }
    },
    {
      "type": "Feature",
      "geometry": {
        "type": "Point",
        "coordinates": [
          28.351666666,
          -14.265
        ]
      },
      "properties": {
        "label": "Likali",
        "type": "Mine",
        "entity": "http://www.wikidata.org/entity/Q31942884",
        "country_qid": "Q953"
      }
    },
    {
      "type": "Feature",
      "geometry": {
        "type": "Point",
        "coordinates": [
          24.115555555,
          -15.339722222
        ]
      },
      "properties": {
        "label": "Syowe Iron Mine",
        "type": "Mine",
        "entity": "http://www.wikidata.org/entity/Q32026269",
        "country_qid": "Q953"
      }
    },
    {
      "type": "Feature",
      "geometry": {
        "type": "Point",
        "coordinates": [
          29.366111111,
          -14.984166666
        ]
      },
      "properties": {
        "label": "Jessie",
        "type": "Mine",
        "entity": "http://www.wikidata.org/entity/Q31928424",
        "country_qid": "Q953"
      }
    },
    {
      "type": "Feature",
      "geometry": {
        "type": "Point",
        "coordinates": [
          28.314722222,
          -14.916944444
        ]
      },
      "properties": {
        "label": "Mwomboshi",
        "type": "Mine",
        "entity": "http://www.wikidata.org/entity/Q31964743",
        "country_qid": "Q953"
      }
    },
    {
      "type": "Feature",
      "geometry": {
        "type": "Point",
        "coordinates": [
          28.551666666,
          -14.027777777
        ]
      },
      "properties": {
        "label": "Millberg",
        "type": "Mine",
        "entity": "http://www.wikidata.org/entity/Q31955464",
        "country_qid": "Q953"
      }
    },
    {
      "type": "Feature",
      "geometry": {
        "type": "Point",
        "coordinates": [
          27.85416667,
          -12.51305556
        ]
      },
      "properties": {
        "label": "Nchanga Mines",
        "type": "Mine",
        "entity": "http://www.wikidata.org/entity/Q6983639",
        "country_qid": "Q953"
      }
    },
    {
      "type": "Feature",
      "geometry": {
        "type": "Point",
        "coordinates": [
          28.876388888,
          -14.665
        ]
      },
      "properties": {
        "label": "Iron Cap",
        "type": "Mine",
        "entity": "http://www.wikidata.org/entity/Q31923196",
        "country_qid": "Q953"
      }
    },
    {
      "type": "Feature",
      "geometry": {
        "type": "Point",
        "coordinates": [
          23.688888888,
          -16.287777777
        ]
      },
      "properties": {
        "label": "Kakenge",
        "type": "Mine",
        "entity": "http://www.wikidata.org/entity/Q31929043",
        "country_qid": "Q953"
      }
    },
    {
      "type": "Feature",
      "geometry": {
        "type": "Point",
        "coordinates": [
          25.8186,
          -12.2242
        ]
      },
      "properties": {
        "label": "Lumwana mine",
        "type": "Mine",
        "entity": "http://www.wikidata.org/entity/Q16969393",
        "country_qid": "Q953"
      }
    },
    {
      "type": "Feature",
      "geometry": {
        "type": "Point",
        "coordinates": [
          28.04841667,
          -12.65161111
        ]
      },
      "properties": {
        "label": "Chambisi copper mine",
        "type": "Mine",
        "entity": "http://www.wikidata.org/entity/Q11318244",
        "country_qid": "Q953"
      }
    },
    {
      "type": "Feature",
      "geometry": {
        "type": "Point",
        "coordinates": [
          30.348055555,
          -14.822222222
        ]
      },
      "properties": {
        "label": "Somerley",
        "type": "Mine",
        "entity": "http://www.wikidata.org/entity/Q32022678",
        "country_qid": "Q953"
      }
    },
    {
      "type": "Feature",
      "geometry": {
        "type": "Point",
        "coordinates": [
          28.764444444,
          -14.189722222
        ]
      },
      "properties": {
        "label": "Lubamba",
        "type": "Mine",
        "entity": "http://www.wikidata.org/entity/Q31944333",
        "country_qid": "Q953"
      }
    },
    {
      "type": "Feature",
      "geometry": {
        "type": "Point",
        "coordinates": [
          28.51624,
          -12.96179
        ]
      },
      "properties": {
        "label": "Simon Mwansa Kapwepwe",
        "type": "Weather station",
        "entity": "http://www.wikidata.org/entity/Q111009324",
        "country_qid": "Q953"
      }
    },
    {
      "type": "Feature",
      "geometry": {
        "type": "Point",
        "coordinates": [
          32.0731,
          -10.543
        ]
      },
      "properties": {
        "label": "Chinsali Ftc",
        "type": "Weather station",
        "entity": "http://www.wikidata.org/entity/Q110315108",
        "country_qid": "Q953"
      }
    },
    {
      "type": "Feature",
      "geometry": {
        "type": "Point",
        "coordinates": [
          32.633333333,
          -10.116666666
        ]
      },
      "properties": {
        "label": "Isoka",
        "type": "Weather station",
        "entity": "http://www.wikidata.org/entity/Q110991297",
        "country_qid": "Q953"
      }
    },
    {
      "type": "Feature",
      "geometry": {
        "type": "Point",
        "coordinates": [
          26.383333333,
          -12.183333333
        ]
      },
      "properties": {
        "label": "Solwezi",
        "type": "Weather station",
        "entity": "http://www.wikidata.org/entity/Q110995449",
        "country_qid": "Q953"
      }
    },
    {
      "type": "Feature",
      "geometry": {
        "type": "Point",
        "coordinates": [
          27.88,
          -16.79
        ]
      },
      "properties": {
        "label": "Chipepo",
        "type": "Weather station",
        "entity": "http://www.wikidata.org/entity/Q110315148",
        "country_qid": "Q953"
      }
    },
    {
      "type": "Feature",
      "geometry": {
        "type": "Point",
        "coordinates": [
          32.5833,
          -13.55
        ]
      },
      "properties": {
        "label": "Chipata",
        "type": "Weather station",
        "entity": "http://www.wikidata.org/entity/Q110314949",
        "country_qid": "Q953"
      }
    },
    {
      "type": "Feature",
      "geometry": {
        "type": "Point",
        "coordinates": [
          24.3,
          -17.466666666
        ]
      },
      "properties": {
        "label": "Sesheke",
        "type": "Weather station",
        "entity": "http://www.wikidata.org/entity/Q110439945",
        "country_qid": "Q953"
      }
    },
    {
      "type": "Feature",
      "geometry": {
        "type": "Point",
        "coordinates": [
          27.06,
          -16.83
        ]
      },
      "properties": {
        "label": "Choma",
        "type": "Weather station",
        "entity": "http://www.wikidata.org/entity/Q110315035",
        "country_qid": "Q953"
      }
    },
    {
      "type": "Feature",
      "geometry": {
        "type": "Point",
        "coordinates": [
          30.216666666,
          -13.233333333
        ]
      },
      "properties": {
        "label": "Serenje",
        "type": "Weather station",
        "entity": "http://www.wikidata.org/entity/Q110420961",
        "country_qid": "Q953"
      }
    }
  ]
}