{
  "type": "FeatureCollection",
  "features": [
    {
      "type": "Feature",
      "geometry": {
        "type": "Point",
        "coordinates": [
          66.8972,
          36.75635
        ]
      },
      "properties": {
        "label": "Balkh",
        "type": "Factory",
        "entity": "http://www.wikidata.org/entity/Q127429721",
        "country_qid": "Q889"
      }
    },
    {
      "type": "Feature",
      "geometry": {
        "type": "Point",
        "coordinates": [
          66.8972,
          36.75635
        ]
      },
      "properties": {
        "label": "Madinat Balkh",
        "type": "Factory",
        "entity": "http://www.wikidata.org/entity/Q127430651",
        "country_qid": "Q889"
      }
    },
    {
      "type": "Feature",
      "geometry": {
        "type": "Point",
        "coordinates": [
          66.8972,
          36.75635
        ]
      },
      "properties": {
        "label": "al-Mubarakah",
        "type": "Factory",
        "entity": "http://www.wikidata.org/entity/Q127431747",
        "country_qid": "Q889"
      }
    },
    {
      "type": "Feature",
      "geometry": {
        "type": "Point",
        "coordinates": [
          69.411854,
          37.163626
        ]
      },
      "properties": {
        "label": "Ai Khanoum",
        "type": "Factory",
        "entity": "http://www.wikidata.org/entity/Q127429486",
        "country_qid": "Q889"
      }
    },
    {
      "type": "Feature",
      "geometry": {
        "type": "Point",
        "coordinates": [
          69.2602,
          35.63348
        ]
      },
      "properties": {
        "label": "Andarabah",
        "type": "Factory",
        "entity": "http://www.wikidata.org/entity/Q127429544",
        "country_qid": "Q889"
      }
    },
    {
      "type": "Feature",
      "geometry": {
        "type": "Point",
        "coordinates": [
          68.42096,
          33.55391
        ]
      },
      "properties": {
        "label": "Ghazna",
        "type": "Factory",
        "entity": "http://www.wikidata.org/entity/Q127430293",
        "country_qid": "Q889"
      }
    },
    {
      "type": "Feature",
      "geometry": {
        "type": "Point",
        "coordinates": [
          62.19967,
          34.34817
        ]
      },
      "properties": {
        "label": "Harat",
        "type": "Factory",
        "entity": "http://www.wikidata.org/entity/Q127430338",
        "country_qid": "Q889"
      }
    },
    {
      "type": "Feature",
      "geometry": {
        "type": "Point",
        "coordinates": [
          69.2594,
          34.947146
        ]
      },
      "properties": {
        "label": "Alexandria on the Caucasus",
        "type": "Factory",
        "entity": "http://www.wikidata.org/entity/Q127429502",
        "country_qid": "Q889"
      }
    },
    {
      "type": "Feature",
      "geometry": {
        "type": "Point",
        "coordinates": [
          69.17233,
          34.52813
        ]
      },
      "properties": {
        "label": "Kabul",
        "type": "Factory",
        "entity": "http://www.wikidata.org/entity/Q127430494",
        "country_qid": "Q889"
      }
    },
    {
      "type": "Feature",
      "geometry": {
        "type": "Point",
        "coordinates": [
          65.658889,
          31.602222
        ]
      },
      "properties": {
        "label": "Alexandria in Arachosia",
        "type": "Factory",
        "entity": "http://www.wikidata.org/entity/Q127429501",
        "country_qid": "Q889"
      }
    },
    {
      "type": "Feature",
      "geometry": {
        "type": "Point",
        "coordinates": [
          61.86037,
          30.95962
        ]
      },
      "properties": {
        "label": "Madinat Zaranj",
        "type": "Factory",
        "entity": "http://www.wikidata.org/entity/Q127430666",
        "country_qid": "Q889"
      }
    },
    {
      "type": "Feature",
      "geometry": {
        "type": "Point",
        "coordinates": [
          61.86037,
          30.95962
        ]
      },
      "properties": {
        "label": "Sijistan",
        "type": "Factory",
        "entity": "http://www.wikidata.org/entity/Q127431281",
        "country_qid": "Q889"
      }
    },
    {
      "type": "Feature",
      "geometry": {
        "type": "Point",
        "coordinates": [
          61.86037,
          30.95962
        ]
      },
      "properties": {
        "label": "Zaranj",
        "type": "Factory",
        "entity": "http://www.wikidata.org/entity/Q127431716",
        "country_qid": "Q889"
      }
    },
    {
      "type": "Feature",
      "geometry": {
        "type": "Point",
        "coordinates": [
          66.90147,
          36.767814
        ]
      },
      "properties": {
        "label": "Bactra",
        "type": "Factory",
        "entity": "http://www.wikidata.org/entity/Q127429707",
        "country_qid": "Q889"
      }
    },
    {
      "type": "Feature",
      "geometry": {
        "type": "Point",
        "coordinates": [
          62.203056,
          34.341944
        ]
      },
      "properties": {
        "label": "Artacoana",
        "type": "Factory",
        "entity": "http://www.wikidata.org/entity/Q127429647",
        "country_qid": "Q889"
      }
    }
  ]
}