{
  "type": "FeatureCollection",
  "features": [
    {
      "type": "Feature",
      "geometry": {
        "type": "Point",
        "coordinates": [
          7.755129,
          36.883651
        ]
      },
      "properties": {
        "label": "Hippo Regius",
        "type": "Factory",
        "entity": "http://www.wikidata.org/entity/Q127430391",
        "country_qid": "Q262"
      }
    },
    {
      "type": "Feature",
      "geometry": {
        "type": "Point",
        "coordinates": [
          6.976233,
          36.874403
        ]
      },
      "properties": {
        "label": "Skikda  Refinery",
        "type": "Factory",
        "entity": "http://www.wikidata.org/entity/Q56033648",
        "country_qid": "Q262"
      }
    },
    {
      "type": "Feature",
      "geometry": {
        "type": "Point",
        "coordinates": [
          -1.298801,
          35.346511
        ]
      },
      "properties": {
        "label": "Camarata",
        "type": "Factory",
        "entity": "http://www.wikidata.org/entity/Q127429843",
        "country_qid": "Q262"
      }
    },
    {
      "type": "Feature",
      "geometry": {
        "type": "Point",
        "coordinates": [
          -0.241,
          35.804
        ]
      },
      "properties": {
        "label": "Arzew Gas Terminal",
        "type": "Factory",
        "entity": "http://www.wikidata.org/entity/Q112189955",
        "country_qid": "Q262"
      }
    },
    {
      "type": "Feature",
      "geometry": {
        "type": "Point",
        "coordinates": [
          -1.454551,
          35.23991
        ]
      },
      "properties": {
        "label": "Siga",
        "type": "Factory",
        "entity": "http://www.wikidata.org/entity/Q127431277",
        "country_qid": "Q262"
      }
    },
    {
      "type": "Feature",
      "geometry": {
        "type": "Point",
        "coordinates": [
          3.116303,
          36.675873
        ]
      },
      "properties": {
        "label": "Algiers Refinery",
        "type": "Factory",
        "entity": "http://www.wikidata.org/entity/Q56053961",
        "country_qid": "Q262"
      }
    },
    {
      "type": "Feature",
      "geometry": {
        "type": "Point",
        "coordinates": [
          7.707222222,
          36.796111111
        ]
      },
      "properties": {
        "label": "El Hadjar Ironworks",
        "type": "Factory",
        "entity": "http://www.wikidata.org/entity/Q22078404",
        "country_qid": "Q262"
      }
    },
    {
      "type": "Feature",
      "geometry": {
        "type": "Point",
        "coordinates": [
          7.165181,
          35.8254
        ]
      },
      "properties": {
        "label": "Macomada",
        "type": "Factory",
        "entity": "http://www.wikidata.org/entity/Q127430648",
        "country_qid": "Q262"
      }
    },
    {
      "type": "Feature",
      "geometry": {
        "type": "Point",
        "coordinates": [
          5.677421,
          35.802187
        ]
      },
      "properties": {
        "label": "Zarai",
        "type": "Factory",
        "entity": "http://www.wikidata.org/entity/Q127431715",
        "country_qid": "Q262"
      }
    },
    {
      "type": "Feature",
      "geometry": {
        "type": "Point",
        "coordinates": [
          2.196871,
          36.606832
        ]
      },
      "properties": {
        "label": "Iol",
        "type": "Factory",
        "entity": "http://www.wikidata.org/entity/Q127430450",
        "country_qid": "Q262"
      }
    },
    {
      "type": "Feature",
      "geometry": {
        "type": "Point",
        "coordinates": [
          6.256714,
          36.135656
        ]
      },
      "properties": {
        "label": "Salviana",
        "type": "Factory",
        "entity": "http://www.wikidata.org/entity/Q127431174",
        "country_qid": "Q262"
      }
    },
    {
      "type": "Feature",
      "geometry": {
        "type": "Point",
        "coordinates": [
          2.441918,
          36.594243
        ]
      },
      "properties": {
        "label": "Tipasa",
        "type": "Factory",
        "entity": "http://www.wikidata.org/entity/Q127431437",
        "country_qid": "Q262"
      }
    },
    {
      "type": "Feature",
      "geometry": {
        "type": "Point",
        "coordinates": [
          3.0,
          28.0
        ]
      },
      "properties": {
        "label": "Cezayir",
        "type": "Factory",
        "entity": "http://www.wikidata.org/entity/Q127429908",
        "country_qid": "Q262"
      }
    },
    {
      "type": "Feature",
      "geometry": {
        "type": "Point",
        "coordinates": [
          -0.155568,
          28.2074
        ]
      },
      "properties": {
        "label": "Adrar Refinery",
        "type": "Factory",
        "entity": "http://www.wikidata.org/entity/Q3417377",
        "country_qid": "Q262"
      }
    },
    {
      "type": "Feature",
      "geometry": {
        "type": "Point",
        "coordinates": [
          3.056709,
          36.7718
        ]
      },
      "properties": {
        "label": "Icosium",
        "type": "Factory",
        "entity": "http://www.wikidata.org/entity/Q127430427",
        "country_qid": "Q262"
      }
    },
    {
      "type": "Feature",
      "geometry": {
        "type": "Point",
        "coordinates": [
          6.906202,
          36.883244
        ]
      },
      "properties": {
        "label": "Rusicade",
        "type": "Factory",
        "entity": "http://www.wikidata.org/entity/Q127431147",
        "country_qid": "Q262"
      }
    },
    {
      "type": "Feature",
      "geometry": {
        "type": "Point",
        "coordinates": [
          6.61472,
          36.365
        ]
      },
      "properties": {
        "label": "Constantine",
        "type": "Factory",
        "entity": "http://www.wikidata.org/entity/Q127430031",
        "country_qid": "Q262"
      }
    },
    {
      "type": "Feature",
      "geometry": {
        "type": "Point",
        "coordinates": [
          0.75,
          36.0
        ]
      },
      "properties": {
        "label": "Timici",
        "type": "Factory",
        "entity": "http://www.wikidata.org/entity/Q127431434",
        "country_qid": "Q262"
      }
    },
    {
      "type": "Feature",
      "geometry": {
        "type": "Point",
        "coordinates": [
          1.90305,
          36.570982
        ]
      },
      "properties": {
        "label": "Gunugu",
        "type": "Factory",
        "entity": "http://www.wikidata.org/entity/Q127430322",
        "country_qid": "Q262"
      }
    },
    {
      "type": "Feature",
      "geometry": {
        "type": "Point",
        "coordinates": [
          6.613303,
          36.368115
        ]
      },
      "properties": {
        "label": "Cirta",
        "type": "Factory",
        "entity": "http://www.wikidata.org/entity/Q127429945",
        "country_qid": "Q262"
      }
    },
    {
      "type": "Feature",
      "geometry": {
        "type": "Point",
        "coordinates": [
          6.25,
          36.75
        ]
      },
      "properties": {
        "label": "Tucca (?)",
        "type": "Factory",
        "entity": "http://www.wikidata.org/entity/Q127431472",
        "country_qid": "Q262"
      }
    },
    {
      "type": "Feature",
      "geometry": {
        "type": "Point",
        "coordinates": [
          2.19185,
          36.607058
        ]
      },
      "properties": {
        "label": "Iol Caesareia",
        "type": "Factory",
        "entity": "http://www.wikidata.org/entity/Q127430451",
        "country_qid": "Q262"
      }
    },
    {
      "type": "Feature",
      "geometry": {
        "type": "Point",
        "coordinates": [
          7.258862,
          36.081671
        ]
      },
      "properties": {
        "label": "Gadiauphala",
        "type": "Factory",
        "entity": "http://www.wikidata.org/entity/Q127430264",
        "country_qid": "Q262"
      }
    },
    {
      "type": "Feature",
      "geometry": {
        "type": "Point",
        "coordinates": [
          -0.261912,
          35.8129
        ]
      },
      "properties": {
        "label": "Arzew Refinery",
        "type": "Factory",
        "entity": "http://www.wikidata.org/entity/Q3417379",
        "country_qid": "Q262"
      }
    },
    {
      "type": "Feature",
      "geometry": {
        "type": "Point",
        "coordinates": [
          1.31699,
          35.37103
        ]
      },
      "properties": {
        "label": "Taqdamt",
        "type": "Factory",
        "entity": "http://www.wikidata.org/entity/Q127431355",
        "country_qid": "Q262"
      }
    },
    {
      "type": "Feature",
      "geometry": {
        "type": "Point",
        "coordinates": [
          8.044696,
          36.174195
        ]
      },
      "properties": {
        "label": "Thagora",
        "type": "Factory",
        "entity": "http://www.wikidata.org/entity/Q127431400",
        "country_qid": "Q262"
      }
    },
    {
      "type": "Feature",
      "geometry": {
        "type": "Point",
        "coordinates": [
          -1.315,
          34.87833
        ]
      },
      "properties": {
        "label": "Madinat Tilmisan",
        "type": "Factory",
        "entity": "http://www.wikidata.org/entity/Q127430665",
        "country_qid": "Q262"
      }
    },
    {
      "type": "Feature",
      "geometry": {
        "type": "Point",
        "coordinates": [
          -1.315,
          34.87833
        ]
      },
      "properties": {
        "label": "Tilimsan",
        "type": "Factory",
        "entity": "http://www.wikidata.org/entity/Q127431429",
        "country_qid": "Q262"
      }
    }
  ]
}