{
  "type": "FeatureCollection",
  "features": [
    {
      "type": "Feature",
      "geometry": {
        "type": "Point",
        "coordinates": [
          24.478555,
          52.562053
        ]
      },
      "properties": {
        "label": "Pružany Radio Component Plant",
        "type": "Factory",
        "entity": "http://www.wikidata.org/entity/Q132158036",
        "country_qid": "Q184"
      }
    },
    {
      "type": "Feature",
      "geometry": {
        "type": "Point",
        "coordinates": [
          27.63878,
          53.873408
        ]
      },
      "properties": {
        "label": "Q85832560",
        "type": "Factory",
        "entity": "http://www.wikidata.org/entity/Q85832560",
        "country_qid": "Q184"
      }
    },
    {
      "type": "Feature",
      "geometry": {
        "type": "Point",
        "coordinates": [
          27.643039,
          53.871975
        ]
      },
      "properties": {
        "label": "Q85832709",
        "type": "Factory",
        "entity": "http://www.wikidata.org/entity/Q85832709",
        "country_qid": "Q184"
      }
    },
    {
      "type": "Feature",
      "geometry": {
        "type": "Point",
        "coordinates": [
          26.8738,
          54.3235
        ]
      },
      "properties": {
        "label": "Molodechno Machine Tool Plant",
        "type": "Factory",
        "entity": "http://www.wikidata.org/entity/Q4300604",
        "country_qid": "Q184"
      }
    },
    {
      "type": "Feature",
      "geometry": {
        "type": "Point",
        "coordinates": [
          26.705333333,
          50.994111111
        ]
      },
      "properties": {
        "label": "Q16570659",
        "type": "Factory",
        "entity": "http://www.wikidata.org/entity/Q16570659",
        "country_qid": "Q184"
      }
    },
    {
      "type": "Feature",
      "geometry": {
        "type": "Point",
        "coordinates": [
          29.01177,
          53.39193
        ]
      },
      "properties": {
        "label": "Q63124776",
        "type": "Factory",
        "entity": "http://www.wikidata.org/entity/Q63124776",
        "country_qid": "Q184"
      }
    },
    {
      "type": "Feature",
      "geometry": {
        "type": "Point",
        "coordinates": [
          27.561667,
          53.881111
        ]
      },
      "properties": {
        "label": "Modum",
        "type": "Factory",
        "entity": "http://www.wikidata.org/entity/Q53439514",
        "country_qid": "Q184"
      }
    },
    {
      "type": "Feature",
      "geometry": {
        "type": "Point",
        "coordinates": [
          30.424083,
          52.369621
        ]
      },
      "properties": {
        "label": "Rechickij metiznyj zavod",
        "type": "Factory",
        "entity": "http://www.wikidata.org/entity/Q22250120",
        "country_qid": "Q184"
      }
    },
    {
      "type": "Feature",
      "geometry": {
        "type": "Point",
        "coordinates": [
          31.928611,
          53.589722
        ]
      },
      "properties": {
        "label": "Q59452473",
        "type": "Factory",
        "entity": "http://www.wikidata.org/entity/Q59452473",
        "country_qid": "Q184"
      }
    },
    {
      "type": "Feature",
      "geometry": {
        "type": "Point",
        "coordinates": [
          30.417,
          54.513
        ]
      },
      "properties": {
        "label": "Q13028548",
        "type": "Factory",
        "entity": "http://www.wikidata.org/entity/Q13028548",
        "country_qid": "Q184"
      }
    },
    {
      "type": "Feature",
      "geometry": {
        "type": "Point",
        "coordinates": [
          30.30685,
          53.91768
        ]
      },
      "properties": {
        "label": "Mahilioŭ Shoe Factory",
        "type": "Factory",
        "entity": "http://www.wikidata.org/entity/Q94633854",
        "country_qid": "Q184"
      }
    },
    {
      "type": "Feature",
      "geometry": {
        "type": "Point",
        "coordinates": [
          29.223889,
          53.166944
        ]
      },
      "properties": {
        "label": "Q58668339",
        "type": "Factory",
        "entity": "http://www.wikidata.org/entity/Q58668339",
        "country_qid": "Q184"
      }
    },
    {
      "type": "Feature",
      "geometry": {
        "type": "Point",
        "coordinates": [
          32.049511,
          53.341382
        ]
      },
      "properties": {
        "label": "Q106435955",
        "type": "Factory",
        "entity": "http://www.wikidata.org/entity/Q106435955",
        "country_qid": "Q184"
      }
    },
    {
      "type": "Feature",
      "geometry": {
        "type": "Point",
        "coordinates": [
          30.34311,
          53.90003
        ]
      },
      "properties": {
        "label": "Q98461191",
        "type": "Factory",
        "entity": "http://www.wikidata.org/entity/Q98461191",
        "country_qid": "Q184"
      }
    },
    {
      "type": "Feature",
      "geometry": {
        "type": "Point",
        "coordinates": [
          27.21,
          53.638611
        ]
      },
      "properties": {
        "label": "Precise Electromechanics Factory",
        "type": "Factory",
        "entity": "http://www.wikidata.org/entity/Q65179245",
        "country_qid": "Q184"
      }
    },
    {
      "type": "Feature",
      "geometry": {
        "type": "Point",
        "coordinates": [
          27.5763,
          53.8958
        ]
      },
      "properties": {
        "label": "Kiraŭ Machine Tool Plant",
        "type": "Factory",
        "entity": "http://www.wikidata.org/entity/Q29113418",
        "country_qid": "Q184"
      }
    },
    {
      "type": "Feature",
      "geometry": {
        "type": "Point",
        "coordinates": [
          23.68597,
          52.09897
        ]
      },
      "properties": {
        "label": "Brest Distillery",
        "type": "Factory",
        "entity": "http://www.wikidata.org/entity/Q56247879",
        "country_qid": "Q184"
      }
    },
    {
      "type": "Feature",
      "geometry": {
        "type": "Point",
        "coordinates": [
          27.5738382,
          53.8909866
        ]
      },
      "properties": {
        "label": "Q64438345",
        "type": "Factory",
        "entity": "http://www.wikidata.org/entity/Q64438345",
        "country_qid": "Q184"
      }
    },
    {
      "type": "Feature",
      "geometry": {
        "type": "Point",
        "coordinates": [
          27.8502321,
          54.2010162
        ]
      },
      "properties": {
        "label": "Lahojsk weaving factory",
        "type": "Factory",
        "entity": "http://www.wikidata.org/entity/Q6505279",
        "country_qid": "Q184"
      }
    },
    {
      "type": "Feature",
      "geometry": {
        "type": "Point",
        "coordinates": [
          30.339763,
          52.368374
        ]
      },
      "properties": {
        "label": "Ritm",
        "type": "Factory",
        "entity": "http://www.wikidata.org/entity/Q131905455",
        "country_qid": "Q184"
      }
    },
    {
      "type": "Feature",
      "geometry": {
        "type": "Point",
        "coordinates": [
          30.9212,
          52.4498
        ]
      },
      "properties": {
        "label": "Gomel Maltal and Normal Molders Plant",
        "type": "Factory",
        "entity": "http://www.wikidata.org/entity/Q56245448",
        "country_qid": "Q184"
      }
    },
    {
      "type": "Feature",
      "geometry": {
        "type": "Point",
        "coordinates": [
          25.983675,
          53.172939
        ]
      },
      "properties": {
        "label": "Baranavichy Machine-Tool Plant",
        "type": "Factory",
        "entity": "http://www.wikidata.org/entity/Q4077793",
        "country_qid": "Q184"
      }
    },
    {
      "type": "Feature",
      "geometry": {
        "type": "Point",
        "coordinates": [
          27.928,
          53.132
        ]
      },
      "properties": {
        "label": "Q13032833",
        "type": "Factory",
        "entity": "http://www.wikidata.org/entity/Q13032833",
        "country_qid": "Q184"
      }
    },
    {
      "type": "Feature",
      "geometry": {
        "type": "Point",
        "coordinates": [
          32.157008,
          53.2833
        ]
      },
      "properties": {
        "label": "Brewery of Ciechanowieccy in Kaničy",
        "type": "Factory",
        "entity": "http://www.wikidata.org/entity/Q106315821",
        "country_qid": "Q184"
      }
    },
    {
      "type": "Feature",
      "geometry": {
        "type": "Point",
        "coordinates": [
          27.9023,
          52.3584
        ]
      },
      "properties": {
        "label": "Q38451184",
        "type": "Factory",
        "entity": "http://www.wikidata.org/entity/Q38451184",
        "country_qid": "Q184"
      }
    },
    {
      "type": "Feature",
      "geometry": {
        "type": "Point",
        "coordinates": [
          28.51771,
          54.22959
        ]
      },
      "properties": {
        "label": "Barysaŭ factory of musical instruments",
        "type": "Factory",
        "entity": "http://www.wikidata.org/entity/Q55110117",
        "country_qid": "Q184"
      }
    },
    {
      "type": "Feature",
      "geometry": {
        "type": "Point",
        "coordinates": [
          27.211859,
          55.144177
        ]
      },
      "properties": {
        "label": "Q109659141",
        "type": "Factory",
        "entity": "http://www.wikidata.org/entity/Q109659141",
        "country_qid": "Q184"
      }
    },
    {
      "type": "Feature",
      "geometry": {
        "type": "Point",
        "coordinates": [
          32.0139,
          53.3919
        ]
      },
      "properties": {
        "label": "Belarusian cement plant",
        "type": "Factory",
        "entity": "http://www.wikidata.org/entity/Q63124809",
        "country_qid": "Q184"
      }
    },
    {
      "type": "Feature",
      "geometry": {
        "type": "Point",
        "coordinates": [
          26.232192,
          54.804967
        ]
      },
      "properties": {
        "label": "Q109658903",
        "type": "Factory",
        "entity": "http://www.wikidata.org/entity/Q109658903",
        "country_qid": "Q184"
      }
    },
    {
      "type": "Feature",
      "geometry": {
        "type": "Point",
        "coordinates": [
          30.379986,
          53.908718
        ]
      },
      "properties": {
        "label": "Technopribor",
        "type": "Factory",
        "entity": "http://www.wikidata.org/entity/Q132578171",
        "country_qid": "Q184"
      }
    },
    {
      "type": "Feature",
      "geometry": {
        "type": "Point",
        "coordinates": [
          26.5161,
          53.31118
        ]
      },
      "properties": {
        "label": "Gorodeyskiy sugar factory",
        "type": "Factory",
        "entity": "http://www.wikidata.org/entity/Q13030342",
        "country_qid": "Q184"
      }
    },
    {
      "type": "Feature",
      "geometry": {
        "type": "Point",
        "coordinates": [
          25.5046,
          53.7187
        ]
      },
      "properties": {
        "label": "Glassworks \"Neman\"",
        "type": "Factory",
        "entity": "http://www.wikidata.org/entity/Q9295212",
        "country_qid": "Q184"
      }
    },
    {
      "type": "Feature",
      "geometry": {
        "type": "Point",
        "coordinates": [
          27.522,
          53.921
        ]
      },
      "properties": {
        "label": "Q28608561",
        "type": "Factory",
        "entity": "http://www.wikidata.org/entity/Q28608561",
        "country_qid": "Q184"
      }
    },
    {
      "type": "Feature",
      "geometry": {
        "type": "Point",
        "coordinates": [
          29.235,
          52.046666666
        ]
      },
      "properties": {
        "label": "Mazyr Dairy Products",
        "type": "Factory",
        "entity": "http://www.wikidata.org/entity/Q110506036",
        "country_qid": "Q184"
      }
    }
  ]
}