{
  "type": "FeatureCollection",
  "features": [
    {
      "type": "Feature",
      "geometry": {
        "type": "Point",
        "coordinates": [
          -70.41138056,
          -23.68595278
        ]
      },
      "properties": {
        "label": "Ruinas de Huanchaca",
        "type": "Factory",
        "entity": "http://www.wikidata.org/entity/Q5667460",
        "country_qid": "Q298"
      }
    },
    {
      "type": "Feature",
      "geometry": {
        "type": "Point",
        "coordinates": [
          -70.682278,
          -33.467619
        ]
      },
      "properties": {
        "label": "Q100992741",
        "type": "Factory",
        "entity": "http://www.wikidata.org/entity/Q100992741",
        "country_qid": "Q298"
      }
    },
    {
      "type": "Feature",
      "geometry": {
        "type": "Point",
        "coordinates": [
          -70.673626596,
          -33.468847135
        ]
      },
      "properties": {
        "label": "Q133836685",
        "type": "Factory",
        "entity": "http://www.wikidata.org/entity/Q133836685",
        "country_qid": "Q298"
      }
    },
    {
      "type": "Feature",
      "geometry": {
        "type": "Point",
        "coordinates": [
          -71.558271159,
          -34.202235734
        ]
      },
      "properties": {
        "label": "Q118327154",
        "type": "Factory",
        "entity": "http://www.wikidata.org/entity/Q118327154",
        "country_qid": "Q298"
      }
    },
    {
      "type": "Feature",
      "geometry": {
        "type": "Point",
        "coordinates": [
          -71.281888888,
          -32.989
        ]
      },
      "properties": {
        "label": "Cervecería CCU Limache",
        "type": "Factory",
        "entity": "http://www.wikidata.org/entity/Q100354936",
        "country_qid": "Q298"
      }
    },
    {
      "type": "Feature",
      "geometry": {
        "type": "Point",
        "coordinates": [
          -69.79549,
          -20.206436
        ]
      },
      "properties": {
        "label": "Santa Laura saltpeter works",
        "type": "Factory",
        "entity": "http://www.wikidata.org/entity/Q42959015",
        "country_qid": "Q298"
      }
    },
    {
      "type": "Feature",
      "geometry": {
        "type": "Point",
        "coordinates": [
          -73.248538803,
          -38.004703203
        ]
      },
      "properties": {
        "label": "Q125679764",
        "type": "Factory",
        "entity": "http://www.wikidata.org/entity/Q125679764",
        "country_qid": "Q298"
      }
    },
    {
      "type": "Feature",
      "geometry": {
        "type": "Point",
        "coordinates": [
          -71.482077231,
          -32.76144962
        ]
      },
      "properties": {
        "label": "Fundición Ventanas",
        "type": "Factory",
        "entity": "http://www.wikidata.org/entity/Q112628332",
        "country_qid": "Q298"
      }
    },
    {
      "type": "Feature",
      "geometry": {
        "type": "Point",
        "coordinates": [
          -69.794444444,
          -20.208333333
        ]
      },
      "properties": {
        "label": "Humberstone and Santa Laura Saltpeter Works",
        "type": "Factory",
        "entity": "http://www.wikidata.org/entity/Q572895",
        "country_qid": "Q298"
      }
    },
    {
      "type": "Feature",
      "geometry": {
        "type": "Point",
        "coordinates": [
          -69.794056,
          -20.205806
        ]
      },
      "properties": {
        "label": "Humberstone saltpeter works",
        "type": "Factory",
        "entity": "http://www.wikidata.org/entity/Q42958985",
        "country_qid": "Q298"
      }
    },
    {
      "type": "Feature",
      "geometry": {
        "type": "Point",
        "coordinates": [
          -69.79527778,
          -20.20861111
        ]
      },
      "properties": {
        "label": "Q3501455",
        "type": "Factory",
        "entity": "http://www.wikidata.org/entity/Q3501455",
        "country_qid": "Q298"
      }
    },
    {
      "type": "Feature",
      "geometry": {
        "type": "Point",
        "coordinates": [
          -71.502005957,
          -32.927862325
        ]
      },
      "properties": {
        "label": "Refinería Aconcagua",
        "type": "Factory",
        "entity": "http://www.wikidata.org/entity/Q108122217",
        "country_qid": "Q298"
      }
    }
  ]
}