{
  "type": "FeatureCollection",
  "features": [
    {
      "type": "Feature",
      "geometry": {
        "type": "Point",
        "coordinates": [
          -6.83255,
          34.01325
        ]
      },
      "properties": {
        "label": "Rabat",
        "type": "Factory",
        "entity": "http://www.wikidata.org/entity/Q127431104",
        "country_qid": "Q1028"
      }
    },
    {
      "type": "Feature",
      "geometry": {
        "type": "Point",
        "coordinates": [
          -5.367848584,
          35.572952118
        ]
      },
      "properties": {
        "label": "Tannery of Tetouan",
        "type": "Factory",
        "entity": "http://www.wikidata.org/entity/Q131154870",
        "country_qid": "Q1028"
      }
    },
    {
      "type": "Feature",
      "geometry": {
        "type": "Point",
        "coordinates": [
          -6.11037,
          35.198727
        ]
      },
      "properties": {
        "label": "Mint of Lixus",
        "type": "Factory",
        "entity": "http://www.wikidata.org/entity/Q127430612",
        "country_qid": "Q1028"
      }
    },
    {
      "type": "Feature",
      "geometry": {
        "type": "Point",
        "coordinates": [
          -8.626700555,
          33.118216666
        ]
      },
      "properties": {
        "label": "Q124034608",
        "type": "Factory",
        "entity": "http://www.wikidata.org/entity/Q124034608",
        "country_qid": "Q1028"
      }
    },
    {
      "type": "Feature",
      "geometry": {
        "type": "Point",
        "coordinates": [
          -5.810048,
          35.787924
        ]
      },
      "properties": {
        "label": "Tingis",
        "type": "Factory",
        "entity": "http://www.wikidata.org/entity/Q127431435",
        "country_qid": "Q1028"
      }
    },
    {
      "type": "Feature",
      "geometry": {
        "type": "Point",
        "coordinates": [
          -5.912359,
          35.51418
        ]
      },
      "properties": {
        "label": "Zilis",
        "type": "Factory",
        "entity": "http://www.wikidata.org/entity/Q127431723",
        "country_qid": "Q1028"
      }
    },
    {
      "type": "Feature",
      "geometry": {
        "type": "Point",
        "coordinates": [
          -6.832732,
          34.015037
        ]
      },
      "properties": {
        "label": "Sala",
        "type": "Factory",
        "entity": "http://www.wikidata.org/entity/Q127431163",
        "country_qid": "Q1028"
      }
    },
    {
      "type": "Feature",
      "geometry": {
        "type": "Point",
        "coordinates": [
          -5.222677222,
          33.434295833
        ]
      },
      "properties": {
        "label": "Q121504949",
        "type": "Factory",
        "entity": "http://www.wikidata.org/entity/Q121504949",
        "country_qid": "Q1028"
      }
    },
    {
      "type": "Feature",
      "geometry": {
        "type": "Point",
        "coordinates": [
          -5.5548,
          34.0725
        ]
      },
      "properties": {
        "label": "Volubilis",
        "type": "Factory",
        "entity": "http://www.wikidata.org/entity/Q127431689",
        "country_qid": "Q1028"
      }
    },
    {
      "type": "Feature",
      "geometry": {
        "type": "Point",
        "coordinates": [
          -6.490176,
          34.335111
        ]
      },
      "properties": {
        "label": "Babba",
        "type": "Factory",
        "entity": "http://www.wikidata.org/entity/Q127429702",
        "country_qid": "Q1028"
      }
    },
    {
      "type": "Feature",
      "geometry": {
        "type": "Point",
        "coordinates": [
          -9.614388888,
          31.443277777
        ]
      },
      "properties": {
        "label": "Q48756618",
        "type": "Factory",
        "entity": "http://www.wikidata.org/entity/Q48756618",
        "country_qid": "Q1028"
      }
    },
    {
      "type": "Feature",
      "geometry": {
        "type": "Point",
        "coordinates": [
          -9.582569,
          30.416915
        ]
      },
      "properties": {
        "label": "Q107250327",
        "type": "Factory",
        "entity": "http://www.wikidata.org/entity/Q107250327",
        "country_qid": "Q1028"
      }
    },
    {
      "type": "Feature",
      "geometry": {
        "type": "Point",
        "coordinates": [
          -4.28,
          31.28
        ]
      },
      "properties": {
        "label": "Madinat Sijilmasah",
        "type": "Factory",
        "entity": "http://www.wikidata.org/entity/Q127430660",
        "country_qid": "Q1028"
      }
    },
    {
      "type": "Feature",
      "geometry": {
        "type": "Point",
        "coordinates": [
          -4.28,
          31.28
        ]
      },
      "properties": {
        "label": "Sijilmasah",
        "type": "Factory",
        "entity": "http://www.wikidata.org/entity/Q127431280",
        "country_qid": "Q1028"
      }
    },
    {
      "type": "Feature",
      "geometry": {
        "type": "Point",
        "coordinates": [
          -7.99994,
          31.63416
        ]
      },
      "properties": {
        "label": "Marrakush",
        "type": "Factory",
        "entity": "http://www.wikidata.org/entity/Q127430694",
        "country_qid": "Q1028"
      }
    },
    {
      "type": "Feature",
      "geometry": {
        "type": "Point",
        "coordinates": [
          -4.9998,
          34.03715
        ]
      },
      "properties": {
        "label": "Fas",
        "type": "Factory",
        "entity": "http://www.wikidata.org/entity/Q127430238",
        "country_qid": "Q1028"
      }
    },
    {
      "type": "Feature",
      "geometry": {
        "type": "Point",
        "coordinates": [
          -4.970977777,
          34.066088888
        ]
      },
      "properties": {
        "label": "Chouara Tannery",
        "type": "Factory",
        "entity": "http://www.wikidata.org/entity/Q48815525",
        "country_qid": "Q1028"
      }
    },
    {
      "type": "Feature",
      "geometry": {
        "type": "Point",
        "coordinates": [
          -5.55703,
          34.0737
        ]
      },
      "properties": {
        "label": "Walilah",
        "type": "Factory",
        "entity": "http://www.wikidata.org/entity/Q127431691",
        "country_qid": "Q1028"
      }
    },
    {
      "type": "Feature",
      "geometry": {
        "type": "Point",
        "coordinates": [
          -4.976027777,
          34.06425
        ]
      },
      "properties": {
        "label": "Sidi Moussa Tannery",
        "type": "Factory",
        "entity": "http://www.wikidata.org/entity/Q105356583",
        "country_qid": "Q1028"
      }
    },
    {
      "type": "Feature",
      "geometry": {
        "type": "Point",
        "coordinates": [
          -6.3690257,
          34.3116871
        ]
      },
      "properties": {
        "label": "PSA Kenitra plant",
        "type": "Factory",
        "entity": "http://www.wikidata.org/entity/Q22949275",
        "country_qid": "Q1028"
      }
    }
  ]
}