{
  "type": "FeatureCollection",
  "features": [
    {
      "type": "Feature",
      "geometry": {
        "type": "Point",
        "coordinates": [
          125.719325,
          39.007412
        ]
      },
      "properties": {
        "label": "Pyongyang Trolleybus Factory",
        "type": "Factory",
        "entity": "http://www.wikidata.org/entity/Q118383258",
        "country_qid": "Q423"
      }
    },
    {
      "type": "Feature",
      "geometry": {
        "type": "Point",
        "coordinates": [
          125.57222222,
          38.92194444
        ]
      },
      "properties": {
        "label": "Chollima Steel Complex",
        "type": "Factory",
        "entity": "http://www.wikidata.org/entity/Q21334982",
        "country_qid": "Q423"
      }
    },
    {
      "type": "Feature",
      "geometry": {
        "type": "Point",
        "coordinates": [
          125.514722222,
          38.831111111
        ]
      },
      "properties": {
        "label": "Taean Heavy Machine Complex",
        "type": "Factory",
        "entity": "http://www.wikidata.org/entity/Q28406759",
        "country_qid": "Q423"
      }
    },
    {
      "type": "Feature",
      "geometry": {
        "type": "Point",
        "coordinates": [
          124.55,
          40.06666667
        ]
      },
      "properties": {
        "label": "Ponghwa Chemical Factory",
        "type": "Factory",
        "entity": "http://www.wikidata.org/entity/Q25105079",
        "country_qid": "Q423"
      }
    },
    {
      "type": "Feature",
      "geometry": {
        "type": "Point",
        "coordinates": [
          129.7559,
          41.7653
        ]
      },
      "properties": {
        "label": "Kim Chaek Iron and Steel Complex",
        "type": "Factory",
        "entity": "http://www.wikidata.org/entity/Q10855905",
        "country_qid": "Q423"
      }
    },
    {
      "type": "Feature",
      "geometry": {
        "type": "Point",
        "coordinates": [
          125.559561,
          38.889174
        ]
      },
      "properties": {
        "label": "April 13 Ironworks",
        "type": "Factory",
        "entity": "http://www.wikidata.org/entity/Q28406750",
        "country_qid": "Q423"
      }
    },
    {
      "type": "Feature",
      "geometry": {
        "type": "Point",
        "coordinates": [
          125.571944444,
          38.955
        ]
      },
      "properties": {
        "label": "Nampo Kangso Missile Factory",
        "type": "Factory",
        "entity": "http://www.wikidata.org/entity/Q28406893",
        "country_qid": "Q423"
      }
    },
    {
      "type": "Feature",
      "geometry": {
        "type": "Point",
        "coordinates": [
          126.613722222,
          40.986444444
        ]
      },
      "properties": {
        "label": "Q110724543",
        "type": "Factory",
        "entity": "http://www.wikidata.org/entity/Q110724543",
        "country_qid": "Q423"
      }
    },
    {
      "type": "Feature",
      "geometry": {
        "type": "Point",
        "coordinates": [
          126.606055555,
          40.960916666
        ]
      },
      "properties": {
        "label": "Q110724516",
        "type": "Factory",
        "entity": "http://www.wikidata.org/entity/Q110724516",
        "country_qid": "Q423"
      }
    },
    {
      "type": "Feature",
      "geometry": {
        "type": "Point",
        "coordinates": [
          127.62575,
          39.84018
        ]
      },
      "properties": {
        "label": "Hungnam Fertiliser Factory",
        "type": "Factory",
        "entity": "http://www.wikidata.org/entity/Q114623389",
        "country_qid": "Q423"
      }
    },
    {
      "type": "Feature",
      "geometry": {
        "type": "Point",
        "coordinates": [
          130.34861111,
          42.31194444
        ]
      },
      "properties": {
        "label": "Sungri Refinery",
        "type": "Factory",
        "entity": "http://www.wikidata.org/entity/Q25105078",
        "country_qid": "Q423"
      }
    }
  ]
}