{
  "type": "FeatureCollection",
  "features": [
    {
      "type": "Feature",
      "geometry": {
        "type": "Point",
        "coordinates": [
          30.96612,
          -29.97174
        ]
      },
      "properties": {
        "label": "Sapref oil refinery",
        "type": "Factory",
        "entity": "http://www.wikidata.org/entity/Q131757270",
        "country_qid": "Q258"
      }
    },
    {
      "type": "Feature",
      "geometry": {
        "type": "Point",
        "coordinates": [
          28.155,
          -26.218889
        ]
      },
      "properties": {
        "label": "Rand Refinery",
        "type": "Factory",
        "entity": "http://www.wikidata.org/entity/Q7291434",
        "country_qid": "Q258"
      }
    },
    {
      "type": "Feature",
      "geometry": {
        "type": "Point",
        "coordinates": [
          28.15611111,
          -25.9075
        ]
      },
      "properties": {
        "label": "South African Mint",
        "type": "Factory",
        "entity": "http://www.wikidata.org/entity/Q7565734",
        "country_qid": "Q258"
      }
    },
    {
      "type": "Feature",
      "geometry": {
        "type": "Point",
        "coordinates": [
          30.98419,
          -29.9491
        ]
      },
      "properties": {
        "label": "Engen refinery",
        "type": "Factory",
        "entity": "http://www.wikidata.org/entity/Q121308044",
        "country_qid": "Q258"
      }
    },
    {
      "type": "Feature",
      "geometry": {
        "type": "Point",
        "coordinates": [
          29.16575,
          -26.553694444
        ]
      },
      "properties": {
        "label": "Secunda CTL",
        "type": "Factory",
        "entity": "http://www.wikidata.org/entity/Q2369624",
        "country_qid": "Q258"
      }
    }
  ]
}