{
  "type": "FeatureCollection",
  "features": [
    {
      "type": "Feature",
      "geometry": {
        "type": "Point",
        "coordinates": [
          44.2352,
          43.066049
        ]
      },
      "properties": {
        "label": "Alagir resistor plant",
        "type": "Factory",
        "entity": "http://www.wikidata.org/entity/Q132212961",
        "country_qid": "Q15180"
      }
    },
    {
      "type": "Feature",
      "geometry": {
        "type": "Point",
        "coordinates": [
          44.6562,
          43.045791
        ]
      },
      "properties": {
        "label": "Razryad",
        "type": "Factory",
        "entity": "http://www.wikidata.org/entity/Q131922929",
        "country_qid": "Q15180"
      }
    },
    {
      "type": "Feature",
      "geometry": {
        "type": "Point",
        "coordinates": [
          37.610805,
          57.361178
        ]
      },
      "properties": {
        "label": "Kashin electrical apparatus plant",
        "type": "Factory",
        "entity": "http://www.wikidata.org/entity/Q132776284",
        "country_qid": "Q15180"
      }
    },
    {
      "type": "Feature",
      "geometry": {
        "type": "Point",
        "coordinates": [
          25.267196,
          54.670206
        ]
      },
      "properties": {
        "label": "ELFA",
        "type": "Factory",
        "entity": "http://www.wikidata.org/entity/Q96030829",
        "country_qid": "Q15180"
      }
    },
    {
      "type": "Feature",
      "geometry": {
        "type": "Point",
        "coordinates": [
          33.510555555,
          47.986388888
        ]
      },
      "properties": {
        "label": "Q80159708",
        "type": "Factory",
        "entity": "http://www.wikidata.org/entity/Q80159708",
        "country_qid": "Q15180"
      }
    },
    {
      "type": "Feature",
      "geometry": {
        "type": "Point",
        "coordinates": [
          41.492523,
          52.587806
        ]
      },
      "properties": {
        "label": "Almaz",
        "type": "Factory",
        "entity": "http://www.wikidata.org/entity/Q131711747",
        "country_qid": "Q15180"
      }
    },
    {
      "type": "Feature",
      "geometry": {
        "type": "Point",
        "coordinates": [
          33.437622,
          47.87679
        ]
      },
      "properties": {
        "label": "Q25436707",
        "type": "Factory",
        "entity": "http://www.wikidata.org/entity/Q25436707",
        "country_qid": "Q15180"
      }
    },
    {
      "type": "Feature",
      "geometry": {
        "type": "Point",
        "coordinates": [
          33.333055555,
          47.886388888
        ]
      },
      "properties": {
        "label": "Q12114707",
        "type": "Factory",
        "entity": "http://www.wikidata.org/entity/Q12114707",
        "country_qid": "Q15180"
      }
    },
    {
      "type": "Feature",
      "geometry": {
        "type": "Point",
        "coordinates": [
          44.623457,
          40.28181
        ]
      },
      "properties": {
        "label": "Sirius",
        "type": "Factory",
        "entity": "http://www.wikidata.org/entity/Q132349043",
        "country_qid": "Q15180"
      }
    },
    {
      "type": "Feature",
      "geometry": {
        "type": "Point",
        "coordinates": [
          37.635405,
          55.728375
        ]
      },
      "properties": {
        "label": "Malaya Pionerskaya 12-4",
        "type": "Factory",
        "entity": "http://www.wikidata.org/entity/Q133776746",
        "country_qid": "Q15180"
      }
    },
    {
      "type": "Feature",
      "geometry": {
        "type": "Point",
        "coordinates": [
          24.478555,
          52.562053
        ]
      },
      "properties": {
        "label": "Pružany Radio Component Plant",
        "type": "Factory",
        "entity": "http://www.wikidata.org/entity/Q132158036",
        "country_qid": "Q15180"
      }
    },
    {
      "type": "Feature",
      "geometry": {
        "type": "Point",
        "coordinates": [
          69.249178,
          41.355113
        ]
      },
      "properties": {
        "label": "Mikond",
        "type": "Factory",
        "entity": "http://www.wikidata.org/entity/Q132190688",
        "country_qid": "Q15180"
      }
    },
    {
      "type": "Feature",
      "geometry": {
        "type": "Point",
        "coordinates": [
          33.19400861,
          49.052324974
        ]
      },
      "properties": {
        "label": "Kalkulator",
        "type": "Factory",
        "entity": "http://www.wikidata.org/entity/Q132368498",
        "country_qid": "Q15180"
      }
    },
    {
      "type": "Feature",
      "geometry": {
        "type": "Point",
        "coordinates": [
          38.935493,
          47.215213
        ]
      },
      "properties": {
        "label": "Vibropribor",
        "type": "Factory",
        "entity": "http://www.wikidata.org/entity/Q4110499",
        "country_qid": "Q15180"
      }
    },
    {
      "type": "Feature",
      "geometry": {
        "type": "Point",
        "coordinates": [
          37.490515,
          55.804394
        ]
      },
      "properties": {
        "label": "First Moscow radio component plant",
        "type": "Factory",
        "entity": "http://www.wikidata.org/entity/Q4349731",
        "country_qid": "Q15180"
      }
    },
    {
      "type": "Feature",
      "geometry": {
        "type": "Point",
        "coordinates": [
          37.510171,
          56.333756
        ]
      },
      "properties": {
        "label": "Dmitrov knitwear",
        "type": "Factory",
        "entity": "http://www.wikidata.org/entity/Q131921429",
        "country_qid": "Q15180"
      }
    },
    {
      "type": "Feature",
      "geometry": {
        "type": "Point",
        "coordinates": [
          32.434180913,
          51.26084191
        ]
      },
      "properties": {
        "label": "Kvadr",
        "type": "Factory",
        "entity": "http://www.wikidata.org/entity/Q131728150",
        "country_qid": "Q15180"
      }
    },
    {
      "type": "Feature",
      "geometry": {
        "type": "Point",
        "coordinates": [
          78.821,
          44.851
        ]
      },
      "properties": {
        "label": "Q12565163",
        "type": "Factory",
        "entity": "http://www.wikidata.org/entity/Q12565163",
        "country_qid": "Q15180"
      }
    },
    {
      "type": "Feature",
      "geometry": {
        "type": "Point",
        "coordinates": [
          32.59502,
          46.646661
        ]
      },
      "properties": {
        "label": "Dnepr",
        "type": "Factory",
        "entity": "http://www.wikidata.org/entity/Q131825918",
        "country_qid": "Q15180"
      }
    },
    {
      "type": "Feature",
      "geometry": {
        "type": "Point",
        "coordinates": [
          25.991289615,
          48.272696702
        ]
      },
      "properties": {
        "label": "Graviton",
        "type": "Factory",
        "entity": "http://www.wikidata.org/entity/Q131706659",
        "country_qid": "Q15180"
      }
    },
    {
      "type": "Feature",
      "geometry": {
        "type": "Point",
        "coordinates": [
          43.664992,
          43.462073
        ]
      },
      "properties": {
        "label": "Elkor Nalchik",
        "type": "Factory",
        "entity": "http://www.wikidata.org/entity/Q131826601",
        "country_qid": "Q15180"
      }
    },
    {
      "type": "Feature",
      "geometry": {
        "type": "Point",
        "coordinates": [
          84.963991,
          56.463672
        ]
      },
      "properties": {
        "label": "Scientific Research Institute for Semiconductors",
        "type": "Factory",
        "entity": "http://www.wikidata.org/entity/Q130501790",
        "country_qid": "Q15180"
      }
    },
    {
      "type": "Feature",
      "geometry": {
        "type": "Point",
        "coordinates": [
          37.757936,
          55.803038
        ]
      },
      "properties": {
        "label": "Delta",
        "type": "Factory",
        "entity": "http://www.wikidata.org/entity/Q132325272",
        "country_qid": "Q15180"
      }
    },
    {
      "type": "Feature",
      "geometry": {
        "type": "Point",
        "coordinates": [
          38.709095,
          56.393114
        ]
      },
      "properties": {
        "label": "Alexandrov semiconductor plant",
        "type": "Factory",
        "entity": "http://www.wikidata.org/entity/Q131605695",
        "country_qid": "Q15180"
      }
    },
    {
      "type": "Feature",
      "geometry": {
        "type": "Point",
        "coordinates": [
          57.32755425,
          53.838879469
        ]
      },
      "properties": {
        "label": "Q119153657",
        "type": "Factory",
        "entity": "http://www.wikidata.org/entity/Q119153657",
        "country_qid": "Q15180"
      }
    },
    {
      "type": "Feature",
      "geometry": {
        "type": "Point",
        "coordinates": [
          56.147877,
          58.776317
        ]
      },
      "properties": {
        "label": "Chermoz iron works",
        "type": "Factory",
        "entity": "http://www.wikidata.org/entity/Q110273358",
        "country_qid": "Q15180"
      }
    },
    {
      "type": "Feature",
      "geometry": {
        "type": "Point",
        "coordinates": [
          44.501653,
          40.156131
        ]
      },
      "properties": {
        "label": "Transistor Yerevan",
        "type": "Factory",
        "entity": "http://www.wikidata.org/entity/Q131564901",
        "country_qid": "Q15180"
      }
    },
    {
      "type": "Feature",
      "geometry": {
        "type": "Point",
        "coordinates": [
          58.208053885,
          54.759889758
        ]
      },
      "properties": {
        "label": "Q114398443",
        "type": "Factory",
        "entity": "http://www.wikidata.org/entity/Q114398443",
        "country_qid": "Q15180"
      }
    },
    {
      "type": "Feature",
      "geometry": {
        "type": "Point",
        "coordinates": [
          25.797863677,
          49.663096222
        ]
      },
      "properties": {
        "label": "Kvantor",
        "type": "Factory",
        "entity": "http://www.wikidata.org/entity/Q131869839",
        "country_qid": "Q15180"
      }
    },
    {
      "type": "Feature",
      "geometry": {
        "type": "Point",
        "coordinates": [
          60.811093,
          56.494063
        ]
      },
      "properties": {
        "label": "Q119931281",
        "type": "Factory",
        "entity": "http://www.wikidata.org/entity/Q119931281",
        "country_qid": "Q15180"
      }
    },
    {
      "type": "Feature",
      "geometry": {
        "type": "Point",
        "coordinates": [
          38.062749,
          55.966743
        ]
      },
      "properties": {
        "label": "FZMT",
        "type": "Factory",
        "entity": "http://www.wikidata.org/entity/Q131730113",
        "country_qid": "Q15180"
      }
    },
    {
      "type": "Feature",
      "geometry": {
        "type": "Point",
        "coordinates": [
          31.288845,
          58.52262
        ]
      },
      "properties": {
        "label": "Planeta",
        "type": "Factory",
        "entity": "http://www.wikidata.org/entity/Q132177482",
        "country_qid": "Q15180"
      }
    },
    {
      "type": "Feature",
      "geometry": {
        "type": "Point",
        "coordinates": [
          49.800069716,
          40.401529297
        ]
      },
      "properties": {
        "label": "Azon",
        "type": "Factory",
        "entity": "http://www.wikidata.org/entity/Q131708623",
        "country_qid": "Q15180"
      }
    },
    {
      "type": "Feature",
      "geometry": {
        "type": "Point",
        "coordinates": [
          30.419780433,
          50.488919122
        ]
      },
      "properties": {
        "label": "NPO Krystall",
        "type": "Factory",
        "entity": "http://www.wikidata.org/entity/Q131720600",
        "country_qid": "Q15180"
      }
    },
    {
      "type": "Feature",
      "geometry": {
        "type": "Point",
        "coordinates": [
          33.651425,
          47.574033
        ]
      },
      "properties": {
        "label": "Kontinent",
        "type": "Factory",
        "entity": "http://www.wikidata.org/entity/Q131698760",
        "country_qid": "Q15180"
      }
    },
    {
      "type": "Feature",
      "geometry": {
        "type": "Point",
        "coordinates": [
          82.921416,
          55.062451
        ]
      },
      "properties": {
        "label": "Vostok",
        "type": "Factory",
        "entity": "http://www.wikidata.org/entity/Q131862602",
        "country_qid": "Q15180"
      }
    },
    {
      "type": "Feature",
      "geometry": {
        "type": "Point",
        "coordinates": [
          38.712222222,
          50.603611111
        ]
      },
      "properties": {
        "label": "Deviz",
        "type": "Factory",
        "entity": "http://www.wikidata.org/entity/Q131702239",
        "country_qid": "Q15180"
      }
    },
    {
      "type": "Feature",
      "geometry": {
        "type": "Point",
        "coordinates": [
          37.671052,
          55.772725
        ]
      },
      "properties": {
        "label": "Start Moscow",
        "type": "Factory",
        "entity": "http://www.wikidata.org/entity/Q131551521",
        "country_qid": "Q15180"
      }
    },
    {
      "type": "Feature",
      "geometry": {
        "type": "Point",
        "coordinates": [
          35.123621814,
          47.840432736
        ]
      },
      "properties": {
        "label": "Gamma",
        "type": "Factory",
        "entity": "http://www.wikidata.org/entity/Q131729310",
        "country_qid": "Q15180"
      }
    },
    {
      "type": "Feature",
      "geometry": {
        "type": "Point",
        "coordinates": [
          45.19409,
          54.191899
        ]
      },
      "properties": {
        "label": "NIITFA Saransk plant",
        "type": "Factory",
        "entity": "http://www.wikidata.org/entity/Q132533499",
        "country_qid": "Q15180"
      }
    },
    {
      "type": "Feature",
      "geometry": {
        "type": "Point",
        "coordinates": [
          41.912832,
          45.040907
        ]
      },
      "properties": {
        "label": "Optron",
        "type": "Factory",
        "entity": "http://www.wikidata.org/entity/Q131382844",
        "country_qid": "Q15180"
      }
    },
    {
      "type": "Feature",
      "geometry": {
        "type": "Point",
        "coordinates": [
          48.329165,
          54.29657
        ]
      },
      "properties": {
        "label": "Ulyanovsk Vacuum Tube Plant",
        "type": "Factory",
        "entity": "http://www.wikidata.org/entity/Q131922384",
        "country_qid": "Q15180"
      }
    },
    {
      "type": "Feature",
      "geometry": {
        "type": "Point",
        "coordinates": [
          47.857382,
          56.637601
        ]
      },
      "properties": {
        "label": "Izotop",
        "type": "Factory",
        "entity": "http://www.wikidata.org/entity/Q131358642",
        "country_qid": "Q15180"
      }
    },
    {
      "type": "Feature",
      "geometry": {
        "type": "Point",
        "coordinates": [
          42.842265,
          54.073812
        ]
      },
      "properties": {
        "label": "Zubovo-Polyansky Radio Component Plant",
        "type": "Factory",
        "entity": "http://www.wikidata.org/entity/Q131934774",
        "country_qid": "Q15180"
      }
    },
    {
      "type": "Feature",
      "geometry": {
        "type": "Point",
        "coordinates": [
          37.57612,
          55.42805
        ]
      },
      "properties": {
        "label": "Podolsk chemical metallurgy plant",
        "type": "Factory",
        "entity": "http://www.wikidata.org/entity/Q131597728",
        "country_qid": "Q15180"
      }
    },
    {
      "type": "Feature",
      "geometry": {
        "type": "Point",
        "coordinates": [
          49.548205626,
          53.402014075
        ]
      },
      "properties": {
        "label": "Zhigulyovsk Radio Plant",
        "type": "Factory",
        "entity": "http://www.wikidata.org/entity/Q131740470",
        "country_qid": "Q15180"
      }
    },
    {
      "type": "Feature",
      "geometry": {
        "type": "Point",
        "coordinates": [
          32.298254,
          60.089514
        ]
      },
      "properties": {
        "label": "Amfi",
        "type": "Factory",
        "entity": "http://www.wikidata.org/entity/Q130739063",
        "country_qid": "Q15180"
      }
    },
    {
      "type": "Feature",
      "geometry": {
        "type": "Point",
        "coordinates": [
          37.758195,
          47.963837
        ]
      },
      "properties": {
        "label": "Toy factory (Donetsk)",
        "type": "Factory",
        "entity": "http://www.wikidata.org/entity/Q131622521",
        "country_qid": "Q15180"
      }
    },
    {
      "type": "Feature",
      "geometry": {
        "type": "Point",
        "coordinates": [
          37.686308,
          55.708365
        ]
      },
      "properties": {
        "label": "Topaz",
        "type": "Factory",
        "entity": "http://www.wikidata.org/entity/Q134347102",
        "country_qid": "Q15180"
      }
    },
    {
      "type": "Feature",
      "geometry": {
        "type": "Point",
        "coordinates": [
          30.26575,
          59.928305555
        ]
      },
      "properties": {
        "label": "Leningrad Steel Rolling Plant",
        "type": "Factory",
        "entity": "http://www.wikidata.org/entity/Q97661664",
        "country_qid": "Q15180"
      }
    },
    {
      "type": "Feature",
      "geometry": {
        "type": "Point",
        "coordinates": [
          33.490555555,
          47.975277777
        ]
      },
      "properties": {
        "label": "Q93974313",
        "type": "Factory",
        "entity": "http://www.wikidata.org/entity/Q93974313",
        "country_qid": "Q15180"
      }
    },
    {
      "type": "Feature",
      "geometry": {
        "type": "Point",
        "coordinates": [
          37.631366,
          55.703488
        ]
      },
      "properties": {
        "label": "Geliymash",
        "type": "Factory",
        "entity": "http://www.wikidata.org/entity/Q133934682",
        "country_qid": "Q15180"
      }
    },
    {
      "type": "Feature",
      "geometry": {
        "type": "Point",
        "coordinates": [
          76.954722222,
          52.325
        ]
      },
      "properties": {
        "label": "PTZ tractors",
        "type": "Factory",
        "entity": "http://www.wikidata.org/entity/Q4341878",
        "country_qid": "Q15180"
      }
    },
    {
      "type": "Feature",
      "geometry": {
        "type": "Point",
        "coordinates": [
          28.864818,
          47.057349
        ]
      },
      "properties": {
        "label": "Mezon",
        "type": "Factory",
        "entity": "http://www.wikidata.org/entity/Q132263145",
        "country_qid": "Q15180"
      }
    },
    {
      "type": "Feature",
      "geometry": {
        "type": "Point",
        "coordinates": [
          30.245377,
          59.954647
        ]
      },
      "properties": {
        "label": "Morion",
        "type": "Factory",
        "entity": "http://www.wikidata.org/entity/Q132742240",
        "country_qid": "Q15180"
      }
    },
    {
      "type": "Feature",
      "geometry": {
        "type": "Point",
        "coordinates": [
          42.505684,
          43.939316
        ]
      },
      "properties": {
        "label": "Elia",
        "type": "Factory",
        "entity": "http://www.wikidata.org/entity/Q131898679",
        "country_qid": "Q15180"
      }
    },
    {
      "type": "Feature",
      "geometry": {
        "type": "Point",
        "coordinates": [
          32.081259,
          54.77901
        ]
      },
      "properties": {
        "label": "Piramida",
        "type": "Factory",
        "entity": "http://www.wikidata.org/entity/Q132579986",
        "country_qid": "Q15180"
      }
    },
    {
      "type": "Feature",
      "geometry": {
        "type": "Point",
        "coordinates": [
          22.258597678,
          48.617940581
        ]
      },
      "properties": {
        "label": "Uzhhorodpribor",
        "type": "Factory",
        "entity": "http://www.wikidata.org/entity/Q120998912",
        "country_qid": "Q15180"
      }
    },
    {
      "type": "Feature",
      "geometry": {
        "type": "Point",
        "coordinates": [
          31.234327,
          58.523028
        ]
      },
      "properties": {
        "label": "Start",
        "type": "Factory",
        "entity": "http://www.wikidata.org/entity/Q132208416",
        "country_qid": "Q15180"
      }
    },
    {
      "type": "Feature",
      "geometry": {
        "type": "Point",
        "coordinates": [
          46.539559,
          56.334046
        ]
      },
      "properties": {
        "label": "Potential",
        "type": "Factory",
        "entity": "http://www.wikidata.org/entity/Q132156528",
        "country_qid": "Q15180"
      }
    },
    {
      "type": "Feature",
      "geometry": {
        "type": "Point",
        "coordinates": [
          30.280052,
          59.93781
        ]
      },
      "properties": {
        "label": "Academy of Sciences Printing House",
        "type": "Factory",
        "entity": "http://www.wikidata.org/entity/Q86670242",
        "country_qid": "Q15180"
      }
    },
    {
      "type": "Feature",
      "geometry": {
        "type": "Point",
        "coordinates": [
          55.935753,
          54.719153
        ]
      },
      "properties": {
        "label": "BETO",
        "type": "Factory",
        "entity": "http://www.wikidata.org/entity/Q112960393",
        "country_qid": "Q15180"
      }
    },
    {
      "type": "Feature",
      "geometry": {
        "type": "Point",
        "coordinates": [
          135.10696,
          48.4093
        ]
      },
      "properties": {
        "label": "Khabarovsk abandoned MZK",
        "type": "Factory",
        "entity": "http://www.wikidata.org/entity/Q117323059",
        "country_qid": "Q15180"
      }
    },
    {
      "type": "Feature",
      "geometry": {
        "type": "Point",
        "coordinates": [
          39.173888888,
          51.683611111
        ]
      },
      "properties": {
        "label": "Voronezh Radio Component Plant",
        "type": "Factory",
        "entity": "http://www.wikidata.org/entity/Q131859349",
        "country_qid": "Q15180"
      }
    },
    {
      "type": "Feature",
      "geometry": {
        "type": "Point",
        "coordinates": [
          86.300853,
          54.432332
        ]
      },
      "properties": {
        "label": "Kuzbassradio",
        "type": "Factory",
        "entity": "http://www.wikidata.org/entity/Q132186887",
        "country_qid": "Q15180"
      }
    },
    {
      "type": "Feature",
      "geometry": {
        "type": "Point",
        "coordinates": [
          45.977733,
          51.576235
        ]
      },
      "properties": {
        "label": "Tantal",
        "type": "Factory",
        "entity": "http://www.wikidata.org/entity/Q132227662",
        "country_qid": "Q15180"
      }
    },
    {
      "type": "Feature",
      "geometry": {
        "type": "Point",
        "coordinates": [
          39.3434519,
          51.9072997
        ]
      },
      "properties": {
        "label": "Ramon sugar factory",
        "type": "Factory",
        "entity": "http://www.wikidata.org/entity/Q110748608",
        "country_qid": "Q15180"
      }
    },
    {
      "type": "Feature",
      "geometry": {
        "type": "Point",
        "coordinates": [
          45.19842,
          54.191697
        ]
      },
      "properties": {
        "label": "Saransk Precision Instrument Plant",
        "type": "Factory",
        "entity": "http://www.wikidata.org/entity/Q132559670",
        "country_qid": "Q15180"
      }
    },
    {
      "type": "Feature",
      "geometry": {
        "type": "Point",
        "coordinates": [
          39.201209,
          51.642972
        ]
      },
      "properties": {
        "label": "Elektropribor",
        "type": "Factory",
        "entity": "http://www.wikidata.org/entity/Q131860703",
        "country_qid": "Q15180"
      }
    },
    {
      "type": "Feature",
      "geometry": {
        "type": "Point",
        "coordinates": [
          28.528542,
          49.241924
        ]
      },
      "properties": {
        "label": "Oktyabr",
        "type": "Factory",
        "entity": "http://www.wikidata.org/entity/Q130416302",
        "country_qid": "Q15180"
      }
    },
    {
      "type": "Feature",
      "geometry": {
        "type": "Point",
        "coordinates": [
          22.643690459,
          48.20659187
        ]
      },
      "properties": {
        "label": "Bertoch",
        "type": "Factory",
        "entity": "http://www.wikidata.org/entity/Q132192479",
        "country_qid": "Q15180"
      }
    },
    {
      "type": "Feature",
      "geometry": {
        "type": "Point",
        "coordinates": [
          24.150628641,
          56.965668511
        ]
      },
      "properties": {
        "label": "Riga electro-mechanical plant",
        "type": "Factory",
        "entity": "http://www.wikidata.org/entity/Q105037975",
        "country_qid": "Q15180"
      }
    },
    {
      "type": "Feature",
      "geometry": {
        "type": "Point",
        "coordinates": [
          39.763713,
          54.611849
        ]
      },
      "properties": {
        "label": "Ryazan Electronic Devices Plant",
        "type": "Factory",
        "entity": "http://www.wikidata.org/entity/Q132130588",
        "country_qid": "Q15180"
      }
    },
    {
      "type": "Feature",
      "geometry": {
        "type": "Point",
        "coordinates": [
          25.959601,
          48.250699
        ]
      },
      "properties": {
        "label": "Quartz",
        "type": "Factory",
        "entity": "http://www.wikidata.org/entity/Q132732308",
        "country_qid": "Q15180"
      }
    },
    {
      "type": "Feature",
      "geometry": {
        "type": "Point",
        "coordinates": [
          25.984988262,
          48.275457776
        ]
      },
      "properties": {
        "label": "Izmeritel",
        "type": "Factory",
        "entity": "http://www.wikidata.org/entity/Q131707843",
        "country_qid": "Q15180"
      }
    },
    {
      "type": "Feature",
      "geometry": {
        "type": "Point",
        "coordinates": [
          46.60008,
          54.85569
        ]
      },
      "properties": {
        "label": "Electropribor",
        "type": "Factory",
        "entity": "http://www.wikidata.org/entity/Q32361861",
        "country_qid": "Q15180"
      }
    },
    {
      "type": "Feature",
      "geometry": {
        "type": "Point",
        "coordinates": [
          34.53652,
          49.579488
        ]
      },
      "properties": {
        "label": "Ltava",
        "type": "Factory",
        "entity": "http://www.wikidata.org/entity/Q132188666",
        "country_qid": "Q15180"
      }
    },
    {
      "type": "Feature",
      "geometry": {
        "type": "Point",
        "coordinates": [
          33.192774294,
          49.601781826
        ]
      },
      "properties": {
        "label": "Q86666525",
        "type": "Factory",
        "entity": "http://www.wikidata.org/entity/Q86666525",
        "country_qid": "Q15180"
      }
    },
    {
      "type": "Feature",
      "geometry": {
        "type": "Point",
        "coordinates": [
          37.963444,
          55.663372
        ]
      },
      "properties": {
        "label": "Tomilino electronic plant",
        "type": "Factory",
        "entity": "http://www.wikidata.org/entity/Q130447680",
        "country_qid": "Q15180"
      }
    },
    {
      "type": "Feature",
      "geometry": {
        "type": "Point",
        "coordinates": [
          28.353883,
          57.350684
        ]
      },
      "properties": {
        "label": "Vector",
        "type": "Factory",
        "entity": "http://www.wikidata.org/entity/Q132157790",
        "country_qid": "Q15180"
      }
    },
    {
      "type": "Feature",
      "geometry": {
        "type": "Point",
        "coordinates": [
          45.176384,
          54.196051
        ]
      },
      "properties": {
        "label": "Elektrovypryamitel",
        "type": "Factory",
        "entity": "http://www.wikidata.org/entity/Q131575082",
        "country_qid": "Q15180"
      }
    },
    {
      "type": "Feature",
      "geometry": {
        "type": "Point",
        "coordinates": [
          24.204083333,
          56.985194444
        ]
      },
      "properties": {
        "label": "Alfa",
        "type": "Factory",
        "entity": "http://www.wikidata.org/entity/Q25394205",
        "country_qid": "Q15180"
      }
    },
    {
      "type": "Feature",
      "geometry": {
        "type": "Point",
        "coordinates": [
          26.26764,
          50.62972
        ]
      },
      "properties": {
        "label": "Gazotron",
        "type": "Factory",
        "entity": "http://www.wikidata.org/entity/Q131868211",
        "country_qid": "Q15180"
      }
    },
    {
      "type": "Feature",
      "geometry": {
        "type": "Point",
        "coordinates": [
          34.337847,
          53.59844
        ]
      },
      "properties": {
        "label": "Anod",
        "type": "Factory",
        "entity": "http://www.wikidata.org/entity/Q132129247",
        "country_qid": "Q15180"
      }
    },
    {
      "type": "Feature",
      "geometry": {
        "type": "Point",
        "coordinates": [
          30.513333333,
          50.407777777
        ]
      },
      "properties": {
        "label": "Q112720425",
        "type": "Factory",
        "entity": "http://www.wikidata.org/entity/Q112720425",
        "country_qid": "Q15180"
      }
    },
    {
      "type": "Feature",
      "geometry": {
        "type": "Point",
        "coordinates": [
          44.01361,
          43.758477
        ]
      },
      "properties": {
        "label": "Prokhladnensky semiconductor plant",
        "type": "Factory",
        "entity": "http://www.wikidata.org/entity/Q132348459",
        "country_qid": "Q15180"
      }
    },
    {
      "type": "Feature",
      "geometry": {
        "type": "Point",
        "coordinates": [
          48.358159,
          54.352858
        ]
      },
      "properties": {
        "label": "NPP Iskra",
        "type": "Factory",
        "entity": "http://www.wikidata.org/entity/Q131926004",
        "country_qid": "Q15180"
      }
    },
    {
      "type": "Feature",
      "geometry": {
        "type": "Point",
        "coordinates": [
          36.215352,
          49.979219
        ]
      },
      "properties": {
        "label": "Radiodetal",
        "type": "Factory",
        "entity": "http://www.wikidata.org/entity/Q131825151",
        "country_qid": "Q15180"
      }
    },
    {
      "type": "Feature",
      "geometry": {
        "type": "Point",
        "coordinates": [
          30.343273,
          59.964636
        ]
      },
      "properties": {
        "label": "Meson Capacitor Plant",
        "type": "Factory",
        "entity": "http://www.wikidata.org/entity/Q130729794",
        "country_qid": "Q15180"
      }
    },
    {
      "type": "Feature",
      "geometry": {
        "type": "Point",
        "coordinates": [
          39.271211,
          51.692909
        ]
      },
      "properties": {
        "label": "VZEVP",
        "type": "Factory",
        "entity": "http://www.wikidata.org/entity/Q135012523",
        "country_qid": "Q15180"
      }
    },
    {
      "type": "Feature",
      "geometry": {
        "type": "Point",
        "coordinates": [
          30.361106,
          60.009137
        ]
      },
      "properties": {
        "label": "Rekond",
        "type": "Factory",
        "entity": "http://www.wikidata.org/entity/Q132773923",
        "country_qid": "Q15180"
      }
    },
    {
      "type": "Feature",
      "geometry": {
        "type": "Point",
        "coordinates": [
          30.50589,
          49.55293
        ]
      },
      "properties": {
        "label": "Motor",
        "type": "Factory",
        "entity": "http://www.wikidata.org/entity/Q132794957",
        "country_qid": "Q15180"
      }
    },
    {
      "type": "Feature",
      "geometry": {
        "type": "Point",
        "coordinates": [
          25.30414,
          54.716937
        ]
      },
      "properties": {
        "label": "Vilma",
        "type": "Factory",
        "entity": "http://www.wikidata.org/entity/Q20504518",
        "country_qid": "Q15180"
      }
    },
    {
      "type": "Feature",
      "geometry": {
        "type": "Point",
        "coordinates": [
          37.738320349,
          55.668068685
        ]
      },
      "properties": {
        "label": "Lublino works",
        "type": "Factory",
        "entity": "http://www.wikidata.org/entity/Q122649585",
        "country_qid": "Q15180"
      }
    },
    {
      "type": "Feature",
      "geometry": {
        "type": "Point",
        "coordinates": [
          36.068225,
          49.818276
        ]
      },
      "properties": {
        "label": "Merefa Mechanical Plant",
        "type": "Factory",
        "entity": "http://www.wikidata.org/entity/Q132194636",
        "country_qid": "Q15180"
      }
    },
    {
      "type": "Feature",
      "geometry": {
        "type": "Point",
        "coordinates": [
          73.013613888,
          50.052333333
        ]
      },
      "properties": {
        "label": "Qarağandı metallurgical plant",
        "type": "Factory",
        "entity": "http://www.wikidata.org/entity/Q4213686",
        "country_qid": "Q15180"
      }
    },
    {
      "type": "Feature",
      "geometry": {
        "type": "Point",
        "coordinates": [
          135.047608,
          48.553863
        ]
      },
      "properties": {
        "label": "Splav",
        "type": "Factory",
        "entity": "http://www.wikidata.org/entity/Q132356952",
        "country_qid": "Q15180"
      }
    },
    {
      "type": "Feature",
      "geometry": {
        "type": "Point",
        "coordinates": [
          37.569552,
          55.850884
        ]
      },
      "properties": {
        "label": "Vladykinsky Mechanical Plant",
        "type": "Factory",
        "entity": "http://www.wikidata.org/entity/Q132532460",
        "country_qid": "Q15180"
      }
    },
    {
      "type": "Feature",
      "geometry": {
        "type": "Point",
        "coordinates": [
          30.45,
          59.885
        ]
      },
      "properties": {
        "label": "Vargunin Brothers Paper Mill",
        "type": "Factory",
        "entity": "http://www.wikidata.org/entity/Q33536749",
        "country_qid": "Q15180"
      }
    },
    {
      "type": "Feature",
      "geometry": {
        "type": "Point",
        "coordinates": [
          51.361111111,
          51.238611111
        ]
      },
      "properties": {
        "label": "Q16683019",
        "type": "Factory",
        "entity": "http://www.wikidata.org/entity/Q16683019",
        "country_qid": "Q15180"
      }
    },
    {
      "type": "Feature",
      "geometry": {
        "type": "Point",
        "coordinates": [
          82.964218,
          55.0558661
        ]
      },
      "properties": {
        "label": "Novosibirsk Precision Engineering Plant",
        "type": "Factory",
        "entity": "http://www.wikidata.org/entity/Q65131573",
        "country_qid": "Q15180"
      }
    },
    {
      "type": "Feature",
      "geometry": {
        "type": "Point",
        "coordinates": [
          36.047705,
          52.98098
        ]
      },
      "properties": {
        "label": "ORZEP",
        "type": "Factory",
        "entity": "http://www.wikidata.org/entity/Q115959128",
        "country_qid": "Q15180"
      }
    },
    {
      "type": "Feature",
      "geometry": {
        "type": "Point",
        "coordinates": [
          24.124302,
          50.25651
        ]
      },
      "properties": {
        "label": "Tepel",
        "type": "Factory",
        "entity": "http://www.wikidata.org/entity/Q132166845",
        "country_qid": "Q15180"
      }
    },
    {
      "type": "Feature",
      "geometry": {
        "type": "Point",
        "coordinates": [
          60.0087833,
          59.7493801
        ]
      },
      "properties": {
        "label": "Bogoslovsky Copper Melting Works",
        "type": "Factory",
        "entity": "http://www.wikidata.org/entity/Q130288377",
        "country_qid": "Q15180"
      }
    },
    {
      "type": "Feature",
      "geometry": {
        "type": "Point",
        "coordinates": [
          39.754161,
          54.614125
        ]
      },
      "properties": {
        "label": "Ryazan computing and analytical machine plant",
        "type": "Factory",
        "entity": "http://www.wikidata.org/entity/Q48955703",
        "country_qid": "Q15180"
      }
    },
    {
      "type": "Feature",
      "geometry": {
        "type": "Point",
        "coordinates": [
          46.553478,
          56.33745
        ]
      },
      "properties": {
        "label": "Kopir",
        "type": "Factory",
        "entity": "http://www.wikidata.org/entity/Q132157053",
        "country_qid": "Q15180"
      }
    },
    {
      "type": "Feature",
      "geometry": {
        "type": "Point",
        "coordinates": [
          32.655855,
          52.854606
        ]
      },
      "properties": {
        "label": "Rezistor",
        "type": "Factory",
        "entity": "http://www.wikidata.org/entity/Q131937692",
        "country_qid": "Q15180"
      }
    },
    {
      "type": "Feature",
      "geometry": {
        "type": "Point",
        "coordinates": [
          37.739083,
          55.668712
        ]
      },
      "properties": {
        "label": "Lyublino Foundry and Mechanical Plant",
        "type": "Factory",
        "entity": "http://www.wikidata.org/entity/Q134739983",
        "country_qid": "Q15180"
      }
    },
    {
      "type": "Feature",
      "geometry": {
        "type": "Point",
        "coordinates": [
          61.40303,
          57.372438888
        ]
      },
      "properties": {
        "label": "Q127502909",
        "type": "Factory",
        "entity": "http://www.wikidata.org/entity/Q127502909",
        "country_qid": "Q15180"
      }
    },
    {
      "type": "Feature",
      "geometry": {
        "type": "Point",
        "coordinates": [
          30.379986,
          53.908718
        ]
      },
      "properties": {
        "label": "Technopribor",
        "type": "Factory",
        "entity": "http://www.wikidata.org/entity/Q132578171",
        "country_qid": "Q15180"
      }
    }
  ]
}