country_name,country_qid,entity,label,type,latitude,longitude
Belgium,Q31,http://www.wikidata.org/entity/Q116694332,Fryns,Factory,50.9389,5.3366
Belgium,Q31,http://www.wikidata.org/entity/Q113661107,La Zibeline,Factory,51.070895611,3.737242947
Belgium,Q31,http://www.wikidata.org/entity/Q116694351,Le Dragon,Factory,51.0387,3.7303
Belgium,Q31,http://www.wikidata.org/entity/Q116694832,Dumont Frères & Cie,Factory,50.827249338,4.327254438
Belgium,Q31,http://www.wikidata.org/entity/Q116694353,Lecocq,Factory,50.934638888,5.328444444
Belgium,Q31,http://www.wikidata.org/entity/Q122730744,Q122730744,Factory,51.238541,4.45217729
Belgium,Q31,http://www.wikidata.org/entity/Q113553480,Waterloo sugar factory,Factory,50.709777777,4.408611111
Belgium,Q31,http://www.wikidata.org/entity/Q116694352,Le Lion D'or,Factory,50.9528,4.0412
Belgium,Q31,http://www.wikidata.org/entity/Q113661284,Pol Madou Usines SA,Factory,51.05959,3.71726
Belgium,Q31,http://www.wikidata.org/entity/Q116694365,Malico,Factory,51.110472222,5.774722222
Belgium,Q31,http://www.wikidata.org/entity/Q116694296,Croonenberghs,Factory,50.928833333,5.337111111
Belgium,Q31,http://www.wikidata.org/entity/Q5110604,Geuzestekerij Hanssens Artisanaal,Factory,50.72884,4.29744
Belgium,Q31,http://www.wikidata.org/entity/Q117196800,Den Bougie,Factory,51.211142145,4.431935918
Belgium,Q31,http://www.wikidata.org/entity/Q113644473,Laroche-Lechat,Factory,51.04016,3.73985
Belgium,Q31,http://www.wikidata.org/entity/Q116694434,"Vanschoonbeek, Arthur",Factory,50.929361111,5.339416666
Belgium,Q31,http://www.wikidata.org/entity/Q5612812,Geuzestekerij De Cam,Factory,50.7959,4.1143
Belgium,Q31,http://www.wikidata.org/entity/Q110243684,Het Boerenerf,Factory,50.75392,4.27561
Belgium,Q31,http://www.wikidata.org/entity/Q2865215,Brouwerij van Baasrode,Factory,51.038055,4.165212
Belgium,Q31,http://www.wikidata.org/entity/Q2780761,Brewery Angerik,Factory,50.850258333,4.245933333
Belgium,Q31,http://www.wikidata.org/entity/Q3095874,Hof ten Dormaal brewery,Factory,50.9503,4.664411111
Belgium,Q31,http://www.wikidata.org/entity/Q2924014,Q2924014,Factory,50.950404,4.71152
Belgium,Q31,http://www.wikidata.org/entity/Q3059290,Q3059290,Factory,50.767490078,3.873297022
Belgium,Q31,http://www.wikidata.org/entity/Q2996856,De Ryck brewery,Factory,50.8877,3.8917
Belgium,Q31,http://www.wikidata.org/entity/Q4777177,Brouwerij Ide,Factory,50.95688,3.64245
Belgium,Q31,http://www.wikidata.org/entity/Q2751525,De Ranke Brewery,Factory,50.8096584,3.1853873
Belgium,Q31,http://www.wikidata.org/entity/Q5923927,brewery Lamot,Factory,51.02583,4.47639
Belgium,Q31,http://www.wikidata.org/entity/Q2940236,Brouwerij Van Bogaert,Factory,51.09784,4.13176596
Belgium,Q31,http://www.wikidata.org/entity/Q3918486,Brouwerij De Fontein,Factory,50.924485,3.79136682
Belgium,Q31,http://www.wikidata.org/entity/Q4508005,Brouwerij De Hoprank,Factory,51.0294,3.85014
Belgium,Q31,http://www.wikidata.org/entity/Q5244695,De Proefbrouwerij,Factory,51.11583333,3.81638889
Belgium,Q31,http://www.wikidata.org/entity/Q2685662,Brouwerij Loterbol,Factory,50.987812,5.054223
Belgium,Q31,http://www.wikidata.org/entity/Q2732852,Brewery Strubbe,Factory,51.092122781,3.008399773
Belgium,Q31,http://www.wikidata.org/entity/Q33100390,Klein Engelandhoeve,Factory,51.356339,4.936472
Belgium,Q31,http://www.wikidata.org/entity/Q2791168,Bosteels brewery,Factory,51.013577777,4.200697222
Belgium,Q31,http://www.wikidata.org/entity/Q4367956,Q4367956,Factory,50.895,2.8583
Belgium,Q31,http://www.wikidata.org/entity/Q3916550,Brouwerij Mena,Factory,50.950493,4.71142888
Belgium,Q31,http://www.wikidata.org/entity/Q4329139,Brouwerij De Goudster,Factory,50.948605,5.11988908
Belgium,Q31,http://www.wikidata.org/entity/Q3545227,Brouwerij Het Damberd,Factory,50.93682,3.46519
Belgium,Q31,http://www.wikidata.org/entity/Q19974046,Cruyplants,Factory,51.039663,3.728013
Belgium,Q31,http://www.wikidata.org/entity/Q4602069,Brouwerij Foulon,Factory,50.790925,3.5094586
Belgium,Q31,http://www.wikidata.org/entity/Q3182007,John Martin,Factory,50.731277777,4.500641666
Belgium,Q31,http://www.wikidata.org/entity/Q4921226,Van Den Bossche brewery,Factory,50.8564,3.884
Belgium,Q31,http://www.wikidata.org/entity/Q3021446,Brouwerij Ceuterick,Factory,50.91229,3.65263224
Belgium,Q31,http://www.wikidata.org/entity/Q4346588,Brouwerij Van Hoorebeke,Factory,51.227003,3.75506312
Belgium,Q31,http://www.wikidata.org/entity/Q2682652,Brewery Brunehaut,Factory,50.51,3.3876
Belgium,Q31,http://www.wikidata.org/entity/Q2684279,De Koninck Brewery,Factory,51.199666666,4.414933333
Belgium,Q31,http://www.wikidata.org/entity/Q3206604,Brewery Vissenaken,Factory,50.838702,4.923646
Belgium,Q31,http://www.wikidata.org/entity/Q4026257,Brouwerij Sint-Jozef,Factory,51.028113,4.06291634
Belgium,Q31,http://www.wikidata.org/entity/Q2918775,Roman brewery,Factory,50.830891666,3.675852777
Belgium,Q31,http://www.wikidata.org/entity/Q2689313,Pico brewery Alvinne,Factory,50.850233333,3.229491666
Belgium,Q31,http://www.wikidata.org/entity/Q2991341,Q2991341,Factory,50.782966,3.8939774
Belgium,Q31,http://www.wikidata.org/entity/Q3289564,Brouwerij Boeykens,Factory,50.913504,3.65100682
Belgium,Q31,http://www.wikidata.org/entity/Q4363897,Brouwerij Baillon,Factory,51.028609,4.09577608
Belgium,Q31,http://www.wikidata.org/entity/Q3233973,Brouwerij De Brabander,Factory,51.112542,4.17482078
Belgium,Q31,http://www.wikidata.org/entity/Q19915295,Union Cotonnière,Factory,51.07236,3.71311
Belgium,Q31,http://www.wikidata.org/entity/Q24932804,Q24932804,Factory,51.23341,4.411068
Belgium,Q31,http://www.wikidata.org/entity/Q2055962,Gelatinefabriek,Factory,50.937577,5.335171
Belgium,Q31,http://www.wikidata.org/entity/Q111699045,Suikersite Moerbeke,Factory,51.173055555,3.933333333
Belgium,Q31,http://www.wikidata.org/entity/Q20987010,Panoven,Factory,50.931727777,5.070588888
Belgium,Q31,http://www.wikidata.org/entity/Q56194989,Q56194989,Factory,51.241896895,4.450046918
Belgium,Q31,http://www.wikidata.org/entity/Q51358352,Q51358352,Factory,50.595792,5.8513
Belgium,Q31,http://www.wikidata.org/entity/Q2217352,Genk Body & Assembly,Factory,50.92167,5.50722
Belgium,Q31,http://www.wikidata.org/entity/Q2288572,Q2288572,Factory,50.8107,5.3444
Belgium,Q31,http://www.wikidata.org/entity/Q19839078,UCO Rooigem,Factory,51.055217,3.696706
Belgium,Q31,http://www.wikidata.org/entity/Q97393582,Textilia,Factory,51.154439,3.618939
Belgium,Q31,http://www.wikidata.org/entity/Q2250305,Tréfil Arbed,Factory,51.04395,3.74789
Belgium,Q31,http://www.wikidata.org/entity/Q124306468,Vetex,Factory,50.830277777,3.278888888
Belgium,Q31,http://www.wikidata.org/entity/Q19838311,Cotonnière de Gand,Factory,51.040655,3.72811
Belgium,Q31,http://www.wikidata.org/entity/Q56234287,Q56234287,Factory,50.737072964,5.126674226
Belgium,Q31,http://www.wikidata.org/entity/Q13445770,Bruggeman,Factory,51.1349,3.7696
Belgium,Q31,http://www.wikidata.org/entity/Q108219788,Cotonnière des Flandres,Factory,51.067934,3.690816
Belgium,Q31,http://www.wikidata.org/entity/Q19913412,Filature Desmet-Guéquier,Factory,51.059405,3.729161
Belgium,Q31,http://www.wikidata.org/entity/Q18435088,Louis Meeus,Factory,51.223,4.4129
Belgium,Q31,http://www.wikidata.org/entity/Q101625569,Lederfabriek Atlan,Factory,50.908614,3.429142
Belgium,Q31,http://www.wikidata.org/entity/Q900314,Brasserie Martens,Factory,51.171390917,5.578935023
Belgium,Q31,http://www.wikidata.org/entity/Q124805688,Manufacture Hauterman,Factory,50.875555555,4.385638888
Belgium,Q31,http://www.wikidata.org/entity/Q2779048,Volvo Europa Truck,Factory,51.087936111,3.781722222
Belgium,Q31,http://www.wikidata.org/entity/Q116694330,Filliers,Factory,50.99051,3.54385
Belgium,Q31,http://www.wikidata.org/entity/Q33100169,La Raffinerie,Factory,50.848245,4.328635
Belgium,Q31,http://www.wikidata.org/entity/Q109310247,CBR Lixhe,Factory,50.764821,5.67445993
Belgium,Q31,http://www.wikidata.org/entity/Q4019125,Q4019125,Factory,51.13145,4.367725
Belgium,Q31,http://www.wikidata.org/entity/Q19839080,Spinnerij-weverij Florida,Factory,51.062918,3.717263
Belgium,Q31,http://www.wikidata.org/entity/Q42431862,Q42431862,Factory,50.856705555,4.321627777
Belgium,Q31,http://www.wikidata.org/entity/Q108219834,Texas,Factory,51.06575,3.72218
Belgium,Q31,http://www.wikidata.org/entity/Q19913415,Q19913415,Factory,51.061246,3.730137
Belgium,Q31,http://www.wikidata.org/entity/Q42414293,Meunerie Moulart,Factory,50.839652777,4.318852777
Belgium,Q31,http://www.wikidata.org/entity/Q33100635,Eskimofabriek,Factory,51.071123,3.725706
Belgium,Q31,http://www.wikidata.org/entity/Q111815148,Teintures et Apprêts de l'Escaut,Factory,51.0515,3.76856
Belgium,Q31,http://www.wikidata.org/entity/Q22912214,Olieslagerij D'Hollander,Factory,51.059,4.152413888
Belgium,Q31,http://www.wikidata.org/entity/Q108219817,La Louisiana,Factory,51.060758,3.706398
Belgium,Q31,http://www.wikidata.org/entity/Q51332969,Solvent,Factory,50.602831,5.890047
Belgium,Q31,http://www.wikidata.org/entity/Q108219806,Filature et Tissage l'Avenir,Factory,51.064755,3.693259
Belgium,Q31,http://www.wikidata.org/entity/Q42417420,Q42417420,Factory,50.870980555,4.348544444
Belgium,Q31,http://www.wikidata.org/entity/Q650340,Westvleteren Abbey,Factory,50.895942,2.721262
Belgium,Q31,http://www.wikidata.org/entity/Q2443453,Fort van Steendorp,Factory,51.127222,4.256111
Belgium,Q31,http://www.wikidata.org/entity/Q758757,Audi Brussels,Factory,50.80944,4.31167
Belgium,Q31,http://www.wikidata.org/entity/Q27897937,Eperon d'Or,Factory,50.921262,3.215356
Belgium,Q31,http://www.wikidata.org/entity/Q42417478,Q42417478,Factory,50.869636111,4.366672222
Belgium,Q31,http://www.wikidata.org/entity/Q125758318,Cement Factory Antoing,Factory,50.575447,3.44237924
Belgium,Q31,http://www.wikidata.org/entity/Q56558271,Nijverheidsgebouwen,Factory,51.150101,4.38805103
Belgium,Q31,http://www.wikidata.org/entity/Q2742271,Royal Boch,Factory,50.4793,4.18311
Belgium,Q31,http://www.wikidata.org/entity/Q18011870,Q18011870,Factory,50.859266666,3.354969444
Belgium,Q31,http://www.wikidata.org/entity/Q42418713,Former porcelain factory Vermeren-Coché (present house Demeuldre-Coché),Factory,50.835491666,4.369338888
Belgium,Q31,http://www.wikidata.org/entity/Q124750406,Heidelberg Materials Antoing,Factory,50.575335,3.44386
Belgium,Q31,http://www.wikidata.org/entity/Q14252608,Rasphuis,Factory,51.053163,3.70765
Belgium,Q31,http://www.wikidata.org/entity/Q899484,Brasserie d'Achouffe,Factory,50.1529139,5.7415244
Belgium,Q31,http://www.wikidata.org/entity/Q108219814,La Liève,Factory,51.075208,3.72331381
Belgium,Q31,http://www.wikidata.org/entity/Q42417441,Q42417441,Factory,50.854091666,4.343169444
Belgium,Q31,http://www.wikidata.org/entity/Q16068933,Chocoladefabriek Nerem,Factory,50.7692,5.51498
Belgium,Q31,http://www.wikidata.org/entity/Q1982576,La Lys,Factory,51.055356,3.703967
Belgium,Q31,http://www.wikidata.org/entity/Q97484162,Textielfabriek S.A.W.,Factory,51.154708,3.615322
Belgium,Q31,http://www.wikidata.org/entity/Q33100152,Filmfabriek,Factory,50.829919,4.752177
Belgium,Q31,http://www.wikidata.org/entity/Q3552687,Usines Émile Henricot,Factory,50.6498,4.56624
Belgium,Q31,http://www.wikidata.org/entity/Q19839070,Q19839070,Factory,51.03042,3.870599
Belgium,Q31,http://www.wikidata.org/entity/Q383097,Volvo Cars gent,Factory,51.102747222,3.7546
Belgium,Q31,http://www.wikidata.org/entity/Q108219789,Cotonnière Nouvelle Orléans,Factory,51.068764,3.710686
Belgium,Q31,http://www.wikidata.org/entity/Q633720,Liefmans Brewery,Factory,50.84569,3.6166
Belgium,Q31,http://www.wikidata.org/entity/Q3063976,Q3063976,Factory,50.41,4.41175
Belgium,Q31,http://www.wikidata.org/entity/Q19838307,Cotonnière Galveston,Factory,51.074901,3.723013
Belgium,Q31,http://www.wikidata.org/entity/Q19839065,Filature Jules de Hemptinne,Factory,51.060981,3.714682
Belgium,Q31,http://www.wikidata.org/entity/Q49580589,N.V. Texas,Factory,51.05996,3.71012
Belgium,Q31,http://www.wikidata.org/entity/Q62070119,Saffre Frères,Factory,50.849975,3.606289
Belgium,Q31,http://www.wikidata.org/entity/Q127698743,Q127698743,Factory,50.9235,4.13825
Belgium,Q31,http://www.wikidata.org/entity/Q134732597,Q134732597,Factory,50.902194,4.004361
Belgium,Q31,http://www.wikidata.org/entity/Q134732546,Q134732546,Factory,50.912194,3.916611
Belgium,Q31,http://www.wikidata.org/entity/Q134732565,Q134732565,Factory,50.959583,3.895667
Belgium,Q31,http://www.wikidata.org/entity/Q134732554,Q134732554,Factory,50.942306,3.992778
Belgium,Q31,http://www.wikidata.org/entity/Q134732553,Q134732553,Factory,50.93525,3.978861
Belgium,Q31,http://www.wikidata.org/entity/Q127698779,Q127698779,Factory,50.948590094,4.098327414
Belgium,Q31,http://www.wikidata.org/entity/Q134732548,Q134732548,Factory,50.945639,3.960694
Belgium,Q31,http://www.wikidata.org/entity/Q1894818,Steenbakkerij Frateur,Factory,51.094491666,4.346883333
Belgium,Q31,http://www.wikidata.org/entity/Q134732626,Q134732626,Factory,50.925694,4.070111
Belgium,Q31,http://www.wikidata.org/entity/Q127698768,Q127698768,Factory,50.947998879,4.098162452
Belgium,Q31,http://www.wikidata.org/entity/Q134732567,Q134732567,Factory,50.966528,3.934139
Belgium,Q31,http://www.wikidata.org/entity/Q2664861,Q2664861,Factory,51.008294444,3.229230555
Belgium,Q31,http://www.wikidata.org/entity/Q127698539,Q127698539,Factory,50.959361111,4.135888888
Belgium,Q31,http://www.wikidata.org/entity/Q134732566,Q134732566,Factory,50.960556,3.908444
Belgium,Q31,http://www.wikidata.org/entity/Q127698639,Q127698639,Factory,50.974222222,4.065666666
Belgium,Q31,http://www.wikidata.org/entity/Q134732623,Q134732623,Factory,50.919472,4.056306
Belgium,Q31,http://www.wikidata.org/entity/Q134732556,Q134732556,Factory,50.942667,3.994
Belgium,Q31,http://www.wikidata.org/entity/Q134732624,Q134732624,Factory,50.9205,4.070222
Belgium,Q31,http://www.wikidata.org/entity/Q135001528,Q135001528,Factory,50.905555,3.942972
Belgium,Q31,http://www.wikidata.org/entity/Q134732560,Q134732560,Factory,50.966472,3.98425
Belgium,Q31,http://www.wikidata.org/entity/Q127698796,Q127698796,Factory,50.959832868,4.107553567
Belgium,Q31,http://www.wikidata.org/entity/Q127698758,Q127698758,Factory,50.931690708,4.13508362
Belgium,Q31,http://www.wikidata.org/entity/Q127698787,Q127698787,Factory,50.947488168,4.098639105
Belgium,Q31,http://www.wikidata.org/entity/Q134732547,Q134732547,Factory,50.915806,3.916972
Belgium,Q31,http://www.wikidata.org/entity/Q134972067,Brewery Betsy,Factory,51.236189339,2.971446453
Belgium,Q31,http://www.wikidata.org/entity/Q134732608,Q134732608,Factory,50.885028,4.07725
Belgium,Q31,http://www.wikidata.org/entity/Q134732627,Q134732627,Factory,50.921056,4.06075
Belgium,Q31,http://www.wikidata.org/entity/Q134732609,Q134732609,Factory,50.874611,4.076778
Belgium,Q31,http://www.wikidata.org/entity/Q134732558,Q134732558,Factory,50.976,3.996
Belgium,Q31,http://www.wikidata.org/entity/Q134732562,Q134732562,Factory,50.970278,3.984278
Belgium,Q31,http://www.wikidata.org/entity/Q134732555,Q134732555,Factory,50.934389,3.974194
Belgium,Q31,http://www.wikidata.org/entity/Q127698657,Q127698657,Factory,50.937361111,4.132111111
Belgium,Q31,http://www.wikidata.org/entity/Q134732563,Q134732563,Factory,50.957861,3.962444
Belgium,Q31,http://www.wikidata.org/entity/Q134732557,Q134732557,Factory,50.966194,3.977361
Belgium,Q31,http://www.wikidata.org/entity/Q134732628,Q134732628,Factory,50.920389,4.060472
Belgium,Q31,http://www.wikidata.org/entity/Q127698612,Q127698612,Factory,50.954888888,4.141416666
Belgium,Q31,http://www.wikidata.org/entity/Q127698805,Q127698805,Factory,50.967999675,4.108694968
Belgium,Q31,http://www.wikidata.org/entity/Q134732559,Q134732559,Factory,50.965,3.976222
Belgium,Q31,http://www.wikidata.org/entity/Q134732605,Q134732605,Factory,50.87175,4.018083
Belgium,Q31,http://www.wikidata.org/entity/Q127698814,Q127698814,Factory,50.967787936,4.113709266
Belgium,Q31,http://www.wikidata.org/entity/Q134732551,Q134732551,Factory,50.936028,3.981028
Belgium,Q31,http://www.wikidata.org/entity/Q127698832,Q127698832,Factory,50.964313723,4.108832934
Belgium,Q31,http://www.wikidata.org/entity/Q13492598,Brouwerij Verschueren,Factory,51.16078,4.1326189
Belgium,Q31,http://www.wikidata.org/entity/Q15873508,Brasserie Jean Tout Seul,Factory,50.6956,3.89911
Belgium,Q31,http://www.wikidata.org/entity/Q13445575,Brouwerij Ressen,Factory,51.027034,4.10000861
Belgium,Q31,http://www.wikidata.org/entity/Q13492603,Brouwerij Verstraeten,Factory,51.057363,3.90148222
Belgium,Q31,http://www.wikidata.org/entity/Q15873555,Brouwerij Van den Bussche,Factory,50.978,3.19695
Belgium,Q31,http://www.wikidata.org/entity/Q13445585,Brouwerij Thienpont,Factory,50.806731,3.63160372
Belgium,Q31,http://www.wikidata.org/entity/Q13569412,Brouwerij Wagon,Factory,50.980536,4.08378124
Belgium,Q31,http://www.wikidata.org/entity/Q17381319,Brouwerij Bourgogne,Factory,51.145698,3.02453399
Belgium,Q31,http://www.wikidata.org/entity/Q13569396,Brouwerij De Vuyst,Factory,50.973152,3.66234183
Belgium,Q31,http://www.wikidata.org/entity/Q13569408,Brouwerij Vertongen,Factory,51.048406,4.10863459
Belgium,Q31,http://www.wikidata.org/entity/Q15873552,Q15873552,Factory,50.802738888,3.675872222
Belgium,Q31,http://www.wikidata.org/entity/Q15156880,Brasserie Ellezelloise,Factory,50.74295,3.687618
Belgium,Q31,http://www.wikidata.org/entity/Q13445074,Caulier brewery,Factory,50.502686111,3.587941666
Belgium,Q31,http://www.wikidata.org/entity/Q13445587,Q13445587,Factory,50.889139,3.937889
Belgium,Q31,http://www.wikidata.org/entity/Q13569400,Brouwerij Den Engel,Factory,51.177819,3.74685019
Belgium,Q31,http://www.wikidata.org/entity/Q16533925,Q16533925,Factory,50.479444444,5.647777777
Belgium,Q31,http://www.wikidata.org/entity/Q13445574,Q13445574,Factory,50.838999,3.95530075
Belgium,Q31,http://www.wikidata.org/entity/Q13445560,Brouwerij De Twee Hoefijzers,Factory,51.098569,4.13324118
Belgium,Q31,http://www.wikidata.org/entity/Q14849587,Brouwerij De Geest,Factory,50.840587,3.1605193
Belgium,Q31,http://www.wikidata.org/entity/Q13445590,Brouwerij Van Overstraeten,Factory,51.09851,4.13205564
Belgium,Q31,http://www.wikidata.org/entity/Q13492587,Brouwerij Moens,Factory,51.076467,4.11192298
Belgium,Q31,http://www.wikidata.org/entity/Q13569393,Brouwerij De Vijf Helmen,Factory,51.055449,3.720202
Belgium,Q31,http://www.wikidata.org/entity/Q13445076,Q13445076,Factory,50.944523,4.01719809
Belgium,Q31,http://www.wikidata.org/entity/Q16010125,Affligem Brewery,Factory,50.970694444,4.190538888
Belgium,Q31,http://www.wikidata.org/entity/Q13445553,Q13445553,Factory,51.101657,3.219923
Belgium,Q31,http://www.wikidata.org/entity/Q16071049,Brasserie des Alliés,Factory,50.41,4.392222222
Belgium,Q31,http://www.wikidata.org/entity/Q13445589,Brouwerij Van Cauwenberghe,Factory,50.80931,3.47919
Belgium,Q31,http://www.wikidata.org/entity/Q13445583,Brouwerij Vermeulen,Factory,51.21281,4.2569
Belgium,Q31,http://www.wikidata.org/entity/Q13445556,Brouwerij De Schelde,Factory,51.005157,3.710686
Belgium,Q31,http://www.wikidata.org/entity/Q13445541,Brouwerij De Glazen Toren,Factory,50.919333,3.967056
Belgium,Q31,http://www.wikidata.org/entity/Q13569411,Brouwerij Vooruit,Factory,51.069982,3.70699
Belgium,Q31,http://www.wikidata.org/entity/Q13569410,Brouwerij Vita,Factory,50.824602,3.53491813
Belgium,Q31,http://www.wikidata.org/entity/Q15873550,Q15873550,Factory,51.223632,3.23465
Belgium,Q31,http://www.wikidata.org/entity/Q13445578,Brouwerij Roegiers,Factory,51.022608,3.670748
Belgium,Q31,http://www.wikidata.org/entity/Q16507245,Brasserie des Géants,Factory,50.6205,3.75806
Belgium,Q31,http://www.wikidata.org/entity/Q14849588,Q14849588,Factory,50.88889,3.55223
Belgium,Q31,http://www.wikidata.org/entity/Q13445545,"Brouwerij De Klok, Zottegem",Factory,50.872072,3.81436676
Belgium,Q31,http://www.wikidata.org/entity/Q13445552,Brouwerij De Leeuw,Factory,50.890397,4.07557368
Belgium,Q31,http://www.wikidata.org/entity/Q13445582,Brouwerij Sint-Arnoldus,Factory,50.841414,3.6100468
Belgium,Q31,http://www.wikidata.org/entity/Q13445573,Brouwerij Neyt,Factory,51.102381,3.67483824
Belgium,Q31,http://www.wikidata.org/entity/Q14622653,Saint-Feuillien beer,Factory,50.502054,4.109782
Belgium,Q31,http://www.wikidata.org/entity/Q15873507,Brasserie Inter-Pol,Factory,50.1521,5.76868
Belgium,Q31,http://www.wikidata.org/entity/Q13569404,Brouwerij Sint-Pieter,Factory,50.797688,4.02318478
Belgium,Q31,http://www.wikidata.org/entity/Q13445566,Brouwerij Het Kasteel,Factory,51.18403,3.68575
Belgium,Q31,http://www.wikidata.org/entity/Q13569361,Q13569361,Factory,50.6959,4.20633
Belgium,Q31,http://www.wikidata.org/entity/Q13445588,Brouwerij Ultra,Factory,51.060445,3.7216562
Belgium,Q31,http://www.wikidata.org/entity/Q15873553,Van Goethem,Factory,51.1292,4.26934
Belgium,Q31,http://www.wikidata.org/entity/Q13445572,Brouwerij Meiresonne,Factory,51.05221,3.73457
Belgium,Q31,http://www.wikidata.org/entity/Q13445537,Brouwerij Cnudde,Factory,50.86891679,3.622307626
Belgium,Q31,http://www.wikidata.org/entity/Q13445576,Brouwerij Desplenter,Factory,50.96628,3.42059
Belgium,Q31,http://www.wikidata.org/entity/Q13445592,Brouwerij Vondel,Factory,50.950282,3.29121798
Belgium,Q31,http://www.wikidata.org/entity/Q13445567,Brouwerij Het Sleutelken,Factory,51.059784,3.723467
Belgium,Q31,http://www.wikidata.org/entity/Q13569403,Brouwerij Sint-Arnoldus,Factory,50.991274,4.11536694
Belgium,Q31,http://www.wikidata.org/entity/Q130739475,La Tricoterie,Factory,50.829862,4.336349
Belgium,Q31,http://www.wikidata.org/entity/Q1875263,Brouwerij Aigle Belgica,Factory,51.213389,3.228578
Belgium,Q31,http://www.wikidata.org/entity/Q2291277,Q2291277,Factory,51.21034,3.23377
Belgium,Q31,http://www.wikidata.org/entity/Q1967378,Lefebvre brewery,Factory,50.674597222,4.15205
Belgium,Q31,http://www.wikidata.org/entity/Q2509884,Van Steenberghe brewery,Factory,51.176588888,3.746169444
Belgium,Q31,http://www.wikidata.org/entity/Q2357114,Q2357114,Factory,50.92353,3.6744
Belgium,Q31,http://www.wikidata.org/entity/Q1881997,Van Eecke brewery,Factory,50.8585,2.6215
Belgium,Q31,http://www.wikidata.org/entity/Q2098621,Brouwerij Walrave,Factory,51.02981,3.85359
Belgium,Q31,http://www.wikidata.org/entity/Q2117061,De Dolle Brouwers,Factory,51.02795,2.903452777
Belgium,Q31,http://www.wikidata.org/entity/Q2435429,house Paveestraße 12,Factory,50.6309798,6.0296682
Belgium,Q31,http://www.wikidata.org/entity/Q2021756,Brouwerij De Geyter,Factory,50.905777,3.71696234
Belgium,Q31,http://www.wikidata.org/entity/Q2473159,Het Anker Brewery,Factory,51.031944,4.473056
Belgium,Q31,http://www.wikidata.org/entity/Q2478931,Q2478931,Factory,51.05491,4.63534
Belgium,Q31,http://www.wikidata.org/entity/Q130740193,Pianofabriek,Factory,50.828871,4.342285
Belgium,Q31,http://www.wikidata.org/entity/Q2320696,Brouwerij De Brabandere,Factory,50.862522,3.2985431
Belgium,Q31,http://www.wikidata.org/entity/Q1179933,De Halve Maan brewery,Factory,51.20249,3.22465
Belgium,Q31,http://www.wikidata.org/entity/Q2174139,Brouwerij Wilderen,Factory,50.819035,5.14395118
Belgium,Q31,http://www.wikidata.org/entity/Q1987425,De Struise brewers,Factory,50.931988888,2.737572222
Belgium,Q31,http://www.wikidata.org/entity/Q2185912,Brasserie des Rocs,Factory,50.3748615,3.7228475
Belgium,Q31,http://www.wikidata.org/entity/Q1179773,Brewery De Block,Factory,50.985094,4.222946
Belgium,Q31,http://www.wikidata.org/entity/Q1882541,Brouwerij Excelsior,Factory,51.05719,3.73029
Belgium,Q31,http://www.wikidata.org/entity/Q2029392,Brouwerij Tielemans,Factory,50.987996,4.83952314
Belgium,Q31,http://www.wikidata.org/entity/Q2497996,St. Bernardus Brewery,Factory,50.8418,2.63838
Belgium,Q31,http://www.wikidata.org/entity/Q2195318,Brouwerij Rubbens,Factory,50.92727,3.91009
Belgium,Q31,http://www.wikidata.org/entity/Q1134872,Hoegaarden Brewery,Factory,50.771575,4.90365
Belgium,Q31,http://www.wikidata.org/entity/Q2334658,brewery of Bellevaux,Factory,50.391916666,6.007586111
Belgium,Q31,http://www.wikidata.org/entity/Q2470761,Brouwerij Slaghmuylder,Factory,50.841324,4.021451
Belgium,Q31,http://www.wikidata.org/entity/Q2268609,Kerkom brewery,Factory,50.776666666,5.166111111
Belgium,Q31,http://www.wikidata.org/entity/Q2164364,Brouwerij Omer Vander Ghinste,Factory,50.77669,3.27932
Belgium,Q31,http://www.wikidata.org/entity/Q2441655,Brouwerij Crombé,Factory,50.869885,3.81192595
Belgium,Q31,http://www.wikidata.org/entity/Q2421215,Dupont brewery,Factory,50.571988888,3.650758333
Belgium,Q31,http://www.wikidata.org/entity/Q1342474,Van Honsebrouck Brewery,Factory,50.920180555,3.257880555
Belgium,Q31,http://www.wikidata.org/entity/Q21281422,Brouwerij Costenoble,Factory,51.028021,2.90336788
Belgium,Q31,http://www.wikidata.org/entity/Q109687937,De Drie Kronen,Factory,50.987361111,5.054694444
Belgium,Q31,http://www.wikidata.org/entity/Q33100210,de Bottelarij,Factory,50.853079,4.330207
Belgium,Q31,http://www.wikidata.org/entity/Q110946684,Brouwerij D'Oude Maalderij,Factory,50.938004,3.20603907
Belgium,Q31,http://www.wikidata.org/entity/Q24936873,Q24936873,Factory,50.4266,3.7949
Belgium,Q31,http://www.wikidata.org/entity/Q109983503,Brouwerij Het Damberd,Factory,50.98029,2.745633
Belgium,Q31,http://www.wikidata.org/entity/Q91786669,Brouwerij De Neve,Factory,50.826987,4.211758
Belgium,Q31,http://www.wikidata.org/entity/Q96064512,Q96064512,Factory,50.83733,4.3761
Belgium,Q31,http://www.wikidata.org/entity/Q112738166,Ruimtegist,Factory,50.830206,3.264169
Belgium,Q31,http://www.wikidata.org/entity/Q22778356,Brouwerij De Kroon,Factory,50.815389,4.62386549
Belgium,Q31,http://www.wikidata.org/entity/Q63350778,Den Grooten en Den Cleynen Cruywaeghen (Leuven),Factory,50.88084,4.69922
Belgium,Q31,http://www.wikidata.org/entity/Q22956038,Brouwerij De Ridder,Factory,51.219583333,4.456841666
Belgium,Q31,http://www.wikidata.org/entity/Q109450837,Brouwerij De Sleutel,Factory,51.132706,4.447267
Belgium,Q31,http://www.wikidata.org/entity/Q48739985,Aarschotse Stadsbrouwerij,Factory,50.988586111,4.839625
Belgium,Q31,http://www.wikidata.org/entity/Q20991781,Brouwerij Carpentier,Factory,50.91689,3.21636021
Belgium,Q31,http://www.wikidata.org/entity/Q22343069,Q22343069,Factory,50.7396,5.7654
Belgium,Q31,http://www.wikidata.org/entity/Q101422066,Bourgogne des Flandres brewery,Factory,51.206769444,3.226161111
Belgium,Q31,http://www.wikidata.org/entity/Q33100215,"L'Impérial, Ilot Bosch",Factory,50.842605,4.332084
Belgium,Q31,http://www.wikidata.org/entity/Q26257838,Brasserie Gengoulf,Factory,49.62093,5.341966
Belgium,Q31,http://www.wikidata.org/entity/Q21281419,Brouwerij Sint-Joris,Factory,50.81646,2.76379
Belgium,Q31,http://www.wikidata.org/entity/Q42417494,former brewery Van Dooren,Factory,50.848477777,4.342994444
Belgium,Q31,http://www.wikidata.org/entity/Q30744047,Q30744047,Factory,50.61577,5.66898
Belgium,Q31,http://www.wikidata.org/entity/Q25387921,Duvel Moortgat Brewery,Factory,51.041996,4.32871
Belgium,Q31,http://www.wikidata.org/entity/Q105635811,Bierkasteel Van Honsebrouck Brewery,Factory,50.922322222,3.235583333
Belgium,Q31,http://www.wikidata.org/entity/Q85539415,Brouwerij Breda,Factory,50.88714,4.702657777
Belgium,Q31,http://www.wikidata.org/entity/Q22343067,Bertinchamps brewery,Factory,50.557163888,4.6417
Belgium,Q31,http://www.wikidata.org/entity/Q33100589,Budatoren,Factory,50.831137,3.265553
Belgium,Q31,http://www.wikidata.org/entity/Q67221043,Q67221043,Factory,49.976185,5.575722
Belgium,Q31,http://www.wikidata.org/entity/Q97175450,Brasserie de l'Union,Factory,50.440555555,4.413611111
Belgium,Q31,http://www.wikidata.org/entity/Q106695139,La Mule Brewery,Factory,50.86587,4.37308
Belgium,Q31,http://www.wikidata.org/entity/Q21281420,Brouwerij De Cop,Factory,51.207924,3.22110772
Belgium,Q31,http://www.wikidata.org/entity/Q42414307,Q42414307,Factory,50.838863888,4.314219444
Belgium,Q31,http://www.wikidata.org/entity/Q22343070,Q22343070,Factory,50.5209,3.64666
Belgium,Q31,http://www.wikidata.org/entity/Q111520794,Rigaux,Factory,50.717198,3.94291162
Belgium,Q31,http://www.wikidata.org/entity/Q22343068,Q22343068,Factory,50.3404,5.8218
Belgium,Q31,http://www.wikidata.org/entity/Q97275006,Brussels Beer Project,Factory,50.852861,4.342028
Belgium,Q31,http://www.wikidata.org/entity/Q67221045,Q67221045,Factory,50.6264,4.7806
Belgium,Q31,http://www.wikidata.org/entity/Q19974041,Q19974041,Factory,51.202375,3.224195
Belgium,Q31,http://www.wikidata.org/entity/Q60849584,Brewery-mill of the Floreffe Abbey,Factory,50.43235,4.75887
Belgium,Q31,http://www.wikidata.org/entity/Q24934932,Q24934932,Factory,50.649,5.629
Belgium,Q31,http://www.wikidata.org/entity/Q124738390,Bincquet Jerome,Factory,50.913358353,3.20748446
Belgium,Q31,http://www.wikidata.org/entity/Q3563085,Q3563085,Factory,50.0575,4.97998
Belgium,Q31,http://www.wikidata.org/entity/Q96574700,Q96574700,Factory,51.148836111,3.164175
Belgium,Q31,http://www.wikidata.org/entity/Q22988155,Leerlooierij Schotte & Fils,Factory,50.92658,4.05245
Belgium,Q31,http://www.wikidata.org/entity/Q123501703,Q123501703,Factory,50.502777777,5.571944444
Belgium,Q31,http://www.wikidata.org/entity/Q124477851,Brouwerij Van den Moortel,Factory,50.885447,4.239675
Belgium,Q31,http://www.wikidata.org/entity/Q2167407,Den Herberg,Factory,50.74201,4.25062
Belgium,Q31,http://www.wikidata.org/entity/Q122811329,Q122811329,Factory,50.57016,5.58817
Belgium,Q31,http://www.wikidata.org/entity/Q2661513,Belle-Vue Brewery,Factory,50.798816666,4.287111111
Belgium,Q31,http://www.wikidata.org/entity/Q122943426,Cassiman,Factory,50.944256534,4.0559424
Belgium,Q31,http://www.wikidata.org/entity/Q18011749,Brouwerij Sint-Arnoldus,Factory,50.84848,3.02415
Belgium,Q31,http://www.wikidata.org/entity/Q18011750,Brouwerij Bekaert,Factory,51.0644,3.1022
Belgium,Q31,http://www.wikidata.org/entity/Q124741820,Driegelinck - Vanbeylen,Factory,50.918133547,3.209754596
Belgium,Q31,http://www.wikidata.org/entity/Q124741920,Lafaut,Factory,50.921097865,3.211918551
Belgium,Q31,http://www.wikidata.org/entity/Q2014135,Q2014135,Factory,51.2358,5.3928
Belgium,Q31,http://www.wikidata.org/entity/Q18011752,Brouwerij Belle Vue,Factory,50.80993,3.07571
Belgium,Q31,http://www.wikidata.org/entity/Q124219547,Schelpe,Factory,50.921528055,3.210898171
Belgium,Q31,http://www.wikidata.org/entity/Q1227102,Oud Beersel,Factory,50.758611111,4.300833333
Belgium,Q31,http://www.wikidata.org/entity/Q124477666,Brasserie de la Tour,Factory,50.459809,5.5749929
Belgium,Q31,http://www.wikidata.org/entity/Q124741651,Debusschere,Factory,50.976717605,3.201325805
Belgium,Q31,http://www.wikidata.org/entity/Q19631054,Brewery Saudan,Factory,51.074480555,3.678861111
Belgium,Q31,http://www.wikidata.org/entity/Q38066486,Citroën Garage,Factory,50.85953,4.34853
Belgium,Q31,http://www.wikidata.org/entity/Q127429793,Brussels,Factory,50.8467,4.3547
Belgium,Q31,http://www.wikidata.org/entity/Q117337525,The Primero Shoe,Factory,50.884839241,4.698082442
Belgium,Q31,http://www.wikidata.org/entity/Q116694437,Verhofstede,Factory,51.2031,4.1988
Belgium,Q31,http://www.wikidata.org/entity/Q127431120,Rekem (Reckheim),Factory,50.916667,5.683333
Belgium,Q31,http://www.wikidata.org/entity/Q123785149,Bral - Donego,Factory,50.921761447,3.207116867
Belgium,Q31,http://www.wikidata.org/entity/Q124738518,Clément - Brabant,Factory,50.918777609,3.21371335
Belgium,Q31,http://www.wikidata.org/entity/Q2754830,Timmermans brewery,Factory,50.839875,4.246833333
Belgium,Q31,http://www.wikidata.org/entity/Q116694367,Anglo-Belge,Factory,50.92169,3.44407
Belgium,Q31,http://www.wikidata.org/entity/Q131597736,Chocolaterie Antoine,Factory,50.835222,4.361894
Belgium,Q31,http://www.wikidata.org/entity/Q2523485,Brouwerij Artois,Factory,50.8871,4.7114
Belgium,Q31,http://www.wikidata.org/entity/Q18011757,Brouwerij Sint-Jozef,Factory,51.026933,3.14490616
Belgium,Q31,http://www.wikidata.org/entity/Q18011754,Brouwerij Christiaen,Factory,51.089038,2.97799498
Belgium,Q31,http://www.wikidata.org/entity/Q2500112,Brewery De Troch,Factory,50.8529,4.16414
Belgium,Q31,http://www.wikidata.org/entity/Q18654935,Marchienne-au-Pont - Cokerie,Factory,50.414083333,4.411
Belgium,Q31,http://www.wikidata.org/entity/Q122943427,Frans Fils,Factory,50.822869768,4.325798883
Belgium,Q31,http://www.wikidata.org/entity/Q130996128,Buda BXL,Factory,50.907694,4.411247
Belgium,Q31,http://www.wikidata.org/entity/Q55576929,Installation of dehydrogenation of propane in Kallo,Factory,51.268055555,4.27
Belgium,Q31,http://www.wikidata.org/entity/Q2546715,Brewery La Frasnoise,Factory,50.6683,3.61959
Belgium,Q31,http://www.wikidata.org/entity/Q116694417,Van den Bergh & Cie,Factory,51.2269,4.40408
Belgium,Q31,http://www.wikidata.org/entity/Q17622303,Q17622303,Factory,50.1431,5.1583
Belgium,Q31,http://www.wikidata.org/entity/Q2349663,Ambiorix,Factory,50.7694,5.48737
Belgium,Q31,http://www.wikidata.org/entity/Q2345368,Cantillon Brewery,Factory,50.8418,4.3353
Belgium,Q31,http://www.wikidata.org/entity/Q118867521,Ameye,Factory,50.917764487,3.208205239
Belgium,Q31,http://www.wikidata.org/entity/Q123133196,Brasserie C,Factory,50.64754,5.57751
Belgium,Q31,http://www.wikidata.org/entity/Q117866159,Defauw,Factory,50.912567974,3.265278901
Belgium,Q31,http://www.wikidata.org/entity/Q603384,Brouwerij Boon,Factory,50.71196,4.21958
Belgium,Q31,http://www.wikidata.org/entity/Q18654928,Carcoke,Factory,51.3153968,3.1965907
Belgium,Q31,http://www.wikidata.org/entity/Q18011856,Q18011856,Factory,51.189319,3.14331293
Belgium,Q31,http://www.wikidata.org/entity/Q124738493,"Bourgeois, Frans",Factory,50.914751964,3.212447579
Belgium,Q31,http://www.wikidata.org/entity/Q18654926,Carcoke,Factory,50.9082,4.4087
Belgium,Q31,http://www.wikidata.org/entity/Q111910467,Kaasmakerij Walschot,Factory,50.7721,4.31501
Belgium,Q31,http://www.wikidata.org/entity/Q3146233,Hôtel des Monnaies,Factory,50.8297,4.34695
Belgium,Q31,http://www.wikidata.org/entity/Q22773280,Steenbakkerij Scheerders van Kerchove's Verenigde Fabrieken,Factory,51.164480555,4.128055555
Belgium,Q31,http://www.wikidata.org/entity/Q124335099,Van Doorselaer,Factory,51.005331519,3.935180728
Belgium,Q31,http://www.wikidata.org/entity/Q122943425,G.T.C.,Factory,50.938964402,4.020006064
Belgium,Q31,http://www.wikidata.org/entity/Q2638319,Brouwerij Callewaert,Factory,51.037785,3.20605248
Belgium,Q31,http://www.wikidata.org/entity/Q124300691,De Coene,Factory,50.920897121,3.2105109
Belgium,Q31,http://www.wikidata.org/entity/Q18011756,Brouwerij het Anker,Factory,50.921895,2.62074888
Belgium,Q31,http://www.wikidata.org/entity/Q124301133,Vandommele,Factory,50.921629514,3.211795894
Belgium,Q31,http://www.wikidata.org/entity/Q18654940,Fours à Coke de Vilvorde,Factory,50.93023,4.4174
Belgium,Q31,http://www.wikidata.org/entity/Q116694278,Bal & Co,Factory,51.285002424,4.537109787
Belgium,Q31,http://www.wikidata.org/entity/Q19839156,Claes,Factory,50.9391,5.27299
Belgium,Q31,http://www.wikidata.org/entity/Q2340248,Wissels,Factory,50.92909739,5.330427641
Belgium,Q31,http://www.wikidata.org/entity/Q116694304,De L'Auvre,Factory,50.7828,3.89403
Belgium,Q31,http://www.wikidata.org/entity/Q56258041,Van der Schueren,Factory,50.94814,4.05401
Belgium,Q31,http://www.wikidata.org/entity/Q116151102,Director's residence and distillery Dumont frères,Factory,50.827249342,4.327254437
Belgium,Q31,http://www.wikidata.org/entity/Q58864594,Distillery De Beukelaer,Factory,51.20092,4.40219
Belgium,Q31,http://www.wikidata.org/entity/Q116694289,Cockney's Distillery,Factory,51.0565,3.696
Belgium,Q31,http://www.wikidata.org/entity/Q109773634,Fovel Distillery,Factory,50.859,4.37621
Belgium,Q31,http://www.wikidata.org/entity/Q116694291,Columbia,Factory,50.883434287,3.892785116
Belgium,Q31,http://www.wikidata.org/entity/Q116694279,Bal & Louis Meeùs,Factory,51.203736,4.420616
Belgium,Q31,http://www.wikidata.org/entity/Q116694306,De Moor,Factory,50.94077,4.00627
Belgium,Q31,http://www.wikidata.org/entity/Q3197953,Braeckman,Factory,50.8869,3.6941
Belgium,Q31,http://www.wikidata.org/entity/Q2218424,Van Damme,Factory,50.92866,3.80584
Belgium,Q31,http://www.wikidata.org/entity/Q108853750,Distillery Bouckaert,Factory,51.05192,3.46
Belgium,Q31,http://www.wikidata.org/entity/Q116694292,Cosemans,Factory,50.979560766,5.490621605
Belgium,Q31,http://www.wikidata.org/entity/Q24936827,Biercée Distillery,Factory,50.3073,4.2885
Belgium,Q31,http://www.wikidata.org/entity/Q20821529,Distillerie Radermacher,Factory,50.67,6.123045
Belgium,Q31,http://www.wikidata.org/entity/Q1867158,Distillery De Stoop,Factory,51.0134,3.7518
Belgium,Q31,http://www.wikidata.org/entity/Q2613770,Jenevermuseum,Factory,50.932816,5.340393
Belgium,Q31,http://www.wikidata.org/entity/Q116694309,Distillery De Drie Sterren,Factory,50.814388888,5.188027777
Belgium,Q31,http://www.wikidata.org/entity/Q13750103,De Korhaan,Factory,51.1258,5.36716
Belgium,Q31,http://www.wikidata.org/entity/Q4317936,Hayen,Factory,50.922333333,5.331638888
Belgium,Q31,http://www.wikidata.org/entity/Q116694398,Simkens,Factory,51.21542,4.431872
Belgium,Q31,http://www.wikidata.org/entity/Q116694369,Massy,Factory,51.029444444,5.390555555
Belgium,Q31,http://www.wikidata.org/entity/Q116694421,Van Hoorebeke (Eeklo),Factory,51.1903,3.569
Belgium,Q31,http://www.wikidata.org/entity/Q116694407,Tack,Factory,50.855,3.63
Belgium,Q31,http://www.wikidata.org/entity/Q116694348,La Grande Distillerie Belge,Factory,50.8354,4.3412
Belgium,Q31,http://www.wikidata.org/entity/Q116694378,Notermans,Factory,50.939882,5.30542
Belgium,Q31,http://www.wikidata.org/entity/Q116694357,Likeurstokerij 'Mijn Druppeltje',Factory,51.1262,4.2142
Belgium,Q31,http://www.wikidata.org/entity/Q116694373,Motmans,Factory,50.953414692,5.338180107
Belgium,Q31,http://www.wikidata.org/entity/Q116694388,"Robben-Delbon, Georges",Factory,50.955527777,5.327166666
Belgium,Q31,http://www.wikidata.org/entity/Q116694359,Likeurstokerij 't Zwaantje,Factory,51.1385,4.2094
Belgium,Q31,http://www.wikidata.org/entity/Q116694375,Nelissen,Factory,50.928444444,5.338944444
Belgium,Q31,http://www.wikidata.org/entity/Q116694354,Leynen,Factory,50.956444444,5.358138888
Belgium,Q31,http://www.wikidata.org/entity/Q116694379,Nys,Factory,50.931408583,5.340251553
Belgium,Q31,http://www.wikidata.org/entity/Q116694383,Pollaris,Factory,50.944944444,5.294111111
Belgium,Q31,http://www.wikidata.org/entity/Q116694399,Smeets,Factory,50.931361,5.339
Belgium,Q31,http://www.wikidata.org/entity/Q116694384,"Ponet, Guillaume",Factory,50.9323,5.3352
Belgium,Q31,http://www.wikidata.org/entity/Q116694392,Rubbens,Factory,51.004,3.9902
Belgium,Q31,http://www.wikidata.org/entity/Q116694397,Severy,Factory,50.932277777,5.343666666
Belgium,Q31,http://www.wikidata.org/entity/Q116694377,Noblesse,Factory,50.930305555,5.339388888
Belgium,Q31,http://www.wikidata.org/entity/Q116694368,"Masquelier, E.",Factory,51.2155,4.4307
Belgium,Q31,http://www.wikidata.org/entity/Q116694396,"Senden-Devel, F.",Factory,50.923638888,5.699027777
Belgium,Q31,http://www.wikidata.org/entity/Q116694405,Den Betsberg,Factory,50.96322,3.80503
Belgium,Q31,http://www.wikidata.org/entity/Q116694419,Van Himbeeck,Factory,51.2,4.429
Belgium,Q31,http://www.wikidata.org/entity/Q116694366,Marres-Coenegrachts,Factory,50.827055555,5.639916666
Belgium,Q31,http://www.wikidata.org/entity/Q116694360,"Looienga, Lambert",Factory,50.932361111,5.334694444
Belgium,Q31,http://www.wikidata.org/entity/Q116694374,Neefs,Factory,51.22167,4.40796
Belgium,Q31,http://www.wikidata.org/entity/Q116694389,Roberti & Vannitsen,Factory,50.928972222,5.332027777
Belgium,Q31,http://www.wikidata.org/entity/Q116694414,Van Bambeke,Factory,51.05581458,3.710520569
Belgium,Q31,http://www.wikidata.org/entity/Q116694385,Distillerie Ponnet,Factory,50.91947,3.8545
Belgium,Q31,http://www.wikidata.org/entity/Q116694409,Stellingwerff/Theunissen,Factory,50.932833333,5.340638888
Belgium,Q31,http://www.wikidata.org/entity/Q116694870,Wathlet-Roger,Factory,49.798,5.52516
Belgium,Q31,http://www.wikidata.org/entity/Q116694835,Grandes Distilleries de Charleroi,Factory,50.43865,4.4499
Belgium,Q31,http://www.wikidata.org/entity/Q124124124,"Philips-Neven, K.",Factory,50.934361111,5.324333333
Belgium,Q31,http://www.wikidata.org/entity/Q124246454,Durca,Factory,50.8833,3.8854
Belgium,Q31,http://www.wikidata.org/entity/Q116694817,Distillerie de l'Espérance,Factory,50.6452,5.52363
Belgium,Q31,http://www.wikidata.org/entity/Q123930021,Het Anker,Factory,51.226711944,4.408755
Belgium,Q31,http://www.wikidata.org/entity/Q123436377,Vanderlinden,Factory,50.910583333,5.354138888
Belgium,Q31,http://www.wikidata.org/entity/Q116694862,"Schaltin, Pierry & Cie",Factory,50.493,5.85742
Belgium,Q31,http://www.wikidata.org/entity/Q116694868,"Van Laer, José",Factory,50.63,5.58
Belgium,Q31,http://www.wikidata.org/entity/Q124334695,Thienpont,Factory,50.921410156,3.796931383
Belgium,Q31,http://www.wikidata.org/entity/Q124346043,Q124346043,Factory,50.9194,3.7179
Belgium,Q31,http://www.wikidata.org/entity/Q124256145,Serruys,Factory,51.1238,2.9726
Belgium,Q31,http://www.wikidata.org/entity/Q18654954,Usine Gustave Boël,Factory,50.482425,4.179665
Belgium,Q31,http://www.wikidata.org/entity/Q116694343,"Kerkhofs, Hubert",Factory,51.211361111,5.426055555
Belgium,Q31,http://www.wikidata.org/entity/Q21516584,Fobrux Haren,Factory,50.90846,4.41394
Belgium,Q31,http://www.wikidata.org/entity/Q116694426,Van Leemput,Factory,50.93375,5.3315
Belgium,Q31,http://www.wikidata.org/entity/Q116694430,Vandelaer,Factory,50.929,5.3494
Belgium,Q31,http://www.wikidata.org/entity/Q106454164,Old forges of Montauban,Factory,49.6317,5.59214
Belgium,Q31,http://www.wikidata.org/entity/Q116694327,"Elens, C.",Factory,50.933192487,5.338632452
Belgium,Q31,http://www.wikidata.org/entity/Q116694440,Vinckenbosch,Factory,50.93146,5.337901
Belgium,Q31,http://www.wikidata.org/entity/Q116694441,"Vinckenbosch, Vve A.",Factory,50.930611111,5.3345
Belgium,Q31,http://www.wikidata.org/entity/Q116694346,Konings,Factory,50.98125,5.354888888
Belgium,Q31,http://www.wikidata.org/entity/Q116694428,De Poldernaar,Factory,51.21496,4.39457
Belgium,Q31,http://www.wikidata.org/entity/Q116449992,Tellin foundry,Factory,50.079769024,5.217014517
Belgium,Q31,http://www.wikidata.org/entity/Q109590365,Fonderie de l'Yser,Factory,50.85575,2.88616
Belgium,Q31,http://www.wikidata.org/entity/Q116694425,"Van Lancker, R.",Factory,50.913,3.7538
Belgium,Q31,http://www.wikidata.org/entity/Q109521964,former Compagnie des Bronzes,Factory,50.856976,4.319369
Belgium,Q31,http://www.wikidata.org/entity/Q116694329,Nys-Feytons,Factory,50.923283689,5.340828963
Belgium,Q31,http://www.wikidata.org/entity/Q1893505,Fondry des Chiens,Factory,50.069195691,4.556458105
Belgium,Q31,http://www.wikidata.org/entity/Q116694442,Vroonen-Aerts,Factory,50.781083333,5.464777777
Belgium,Q31,http://www.wikidata.org/entity/Q116694340,Hougardia,Factory,50.778374,4.888894
Belgium,Q31,http://www.wikidata.org/entity/Q116694335,Guilliams,Factory,50.727583333,5.210388888
Belgium,Q31,http://www.wikidata.org/entity/Q115012336,Kasteel De Boonpot,Factory,51.072655555,4.163283333
Belgium,Q31,http://www.wikidata.org/entity/Q116694344,"Keyenbergh-Baltus, L.",Factory,50.817194444,5.176527777
Belgium,Q31,http://www.wikidata.org/entity/Q116694319,Stokerij De Ster,Factory,50.926972222,5.337
Poland,Q36,http://www.wikidata.org/entity/Q9294064,Hotel Focus in Łódź,Factory,51.7593,19.4432
Poland,Q36,http://www.wikidata.org/entity/Q16544703,Former tannery Temler & Szwede,Factory,52.251833,20.982083
Poland,Q36,http://www.wikidata.org/entity/Q15618090,Q15618090,Factory,49.7304,19.6829
Poland,Q36,http://www.wikidata.org/entity/Q9197088,Q9197088,Factory,52.8488,17.7386
Poland,Q36,http://www.wikidata.org/entity/Q9257597,Wilhelm Lürkens' factory,Factory,51.7664,19.4528
Poland,Q36,http://www.wikidata.org/entity/Q86667454,Q86667454,Factory,53.016111,18.606944
Poland,Q36,http://www.wikidata.org/entity/Q11694255,Diora,Factory,50.7336,16.6436
Poland,Q36,http://www.wikidata.org/entity/Q1497634,Carl Tielsch & Co.,Factory,50.78441667,16.28347222
Poland,Q36,http://www.wikidata.org/entity/Q30091626,ms²,Factory,51.77884,19.446573
Poland,Q36,http://www.wikidata.org/entity/Q97578195,Q97578195,Factory,53.925528,18.70175
Poland,Q36,http://www.wikidata.org/entity/Q16533727,Q16533727,Factory,49.682658333,19.236811111
Poland,Q36,http://www.wikidata.org/entity/Q114877176,Q114877176,Factory,54.033874905,19.041610791
Poland,Q36,http://www.wikidata.org/entity/Q112164485,Warszawskie Zakłady Mechaniczne,Factory,52.204648,21.047028
Poland,Q36,http://www.wikidata.org/entity/Q30091967,35 Targowa Street Łódź Naum Eitingon i Ska,Factory,51.76169,19.472049
Poland,Q36,http://www.wikidata.org/entity/Q11697591,Ernst Wever's Factory,Factory,51.76376,19.4529
Poland,Q36,http://www.wikidata.org/entity/Q122263251,Q122263251,Factory,52.86904,20.60907
Poland,Q36,http://www.wikidata.org/entity/Q103720734,Autopart,Factory,50.301776111,21.469419455
Poland,Q36,http://www.wikidata.org/entity/Q30968867,Franciszek Kindermann's factory,Factory,51.76359,19.437025
Poland,Q36,http://www.wikidata.org/entity/Q122195861,Q122195861,Factory,52.05917,20.42858
Poland,Q36,http://www.wikidata.org/entity/Q121291032,Q121291032,Factory,52.840034441,20.265359861
Poland,Q36,http://www.wikidata.org/entity/Q1325408,Elbrewery,Factory,54.16722222,19.39722222
Poland,Q36,http://www.wikidata.org/entity/Q11780507,Miflex,Factory,52.2299,19.3677
Poland,Q36,http://www.wikidata.org/entity/Q9258018,Farbiarnia W Koppa,Factory,53.1222,17.9936
Poland,Q36,http://www.wikidata.org/entity/Q90021280,Chemische Dünger Fabrik Moritz Milch & Co.,Factory,52.415028,16.900167
Poland,Q36,http://www.wikidata.org/entity/Q122263848,Q122263848,Factory,52.40018,22.0244
Poland,Q36,http://www.wikidata.org/entity/Q122264175,Q122264175,Factory,51.76334,19.47364
Poland,Q36,http://www.wikidata.org/entity/Q99842743,Q99842743,Factory,50.875,19.221666666
Poland,Q36,http://www.wikidata.org/entity/Q121886129,Q121886129,Factory,49.9515,22.81447
Poland,Q36,http://www.wikidata.org/entity/Q11710323,Huta Florian,Factory,50.2897,18.9142
Poland,Q36,http://www.wikidata.org/entity/Q122263797,Q122263797,Factory,51.75166,19.46096
Poland,Q36,http://www.wikidata.org/entity/Q9386241,Q9386241,Factory,50.1056,19.4444
Poland,Q36,http://www.wikidata.org/entity/Q12105028,Zabrzańskie Zakłady Mechaniczne S.A.,Factory,50.2909,18.7894
Poland,Q36,http://www.wikidata.org/entity/Q97571985,Q97571985,Factory,52.398055555,16.907111111
Poland,Q36,http://www.wikidata.org/entity/Q20033684,Q20033684,Factory,49.471194,22.413806
Poland,Q36,http://www.wikidata.org/entity/Q30091625,Manufaktura,Factory,51.779199,19.448633
Poland,Q36,http://www.wikidata.org/entity/Q30181647,Q30181647,Factory,49.511081679,19.719678185
Poland,Q36,http://www.wikidata.org/entity/Q121897514,Q121897514,Factory,52.49028,15.225
Poland,Q36,http://www.wikidata.org/entity/Q3552588,Tychy Stellantis factory,Factory,50.1044,19.0758
Poland,Q36,http://www.wikidata.org/entity/Q30953699,Sugar refinery in Jackowo,Factory,54.767081625,17.832260971
Poland,Q36,http://www.wikidata.org/entity/Q130478215,Q130478215,Factory,51.767133419,19.452786429
Poland,Q36,http://www.wikidata.org/entity/Q106764757,Building at 23 Długosza Street in Szczecin,Factory,53.44471,14.54662
Poland,Q36,http://www.wikidata.org/entity/Q9150850,Andel's Hotel in Łódź,Factory,51.778621,19.448494
Poland,Q36,http://www.wikidata.org/entity/Q86667329,Q86667329,Factory,53.034167,18.628611
Poland,Q36,http://www.wikidata.org/entity/Q9184015,CEMI,Factory,52.1811,20.9994
Poland,Q36,http://www.wikidata.org/entity/Q122263645,Q122263645,Factory,51.53311,20.01108
Poland,Q36,http://www.wikidata.org/entity/Q115970736,Factory of Steam Boilers W. Fitzner and K. Gamper,Factory,50.293378562,19.145378065
Poland,Q36,http://www.wikidata.org/entity/Q66649545,Union Factory Building,Factory,52.225744444,21.013327777
Poland,Q36,http://www.wikidata.org/entity/Q97372407,Q97372407,Factory,53.34225,15.024778
Poland,Q36,http://www.wikidata.org/entity/Q33607688,Former factory in Wilanów,Factory,52.160528,21.090222
Poland,Q36,http://www.wikidata.org/entity/Q9257559,Drucianka factory in Warsaw,Factory,52.2574,21.0616
Poland,Q36,http://www.wikidata.org/entity/Q2549877,Warszawska Fabryka Motocykli,Factory,52.249694,21.061083
Poland,Q36,http://www.wikidata.org/entity/Q11792809,Fabryka Karola Eiserta,Factory,51.7567,19.4497
Poland,Q36,http://www.wikidata.org/entity/Q31068860,Factory of Adolf Daube in Łódź,Factory,51.757767,19.454588
Poland,Q36,http://www.wikidata.org/entity/Q17462828,Q17462828,Factory,50.5792,16.5015
Poland,Q36,http://www.wikidata.org/entity/Q11697600,Dzwon manufacture in Warsaw,Factory,52.2476,21.0523
Poland,Q36,http://www.wikidata.org/entity/Q11697597,Q11697597,Factory,52.3214,21.1069
Poland,Q36,http://www.wikidata.org/entity/Q48844383,Q48844383,Factory,51.1225,17.562375
Poland,Q36,http://www.wikidata.org/entity/Q30091653,Q30091653,Factory,51.781357481,19.464015916
Poland,Q36,http://www.wikidata.org/entity/Q33512160,Former Factory complex in Wąchock,Factory,51.078444,21.015944
Poland,Q36,http://www.wikidata.org/entity/Q9387461,ZATRA,Factory,51.9664,20.1613
Poland,Q36,http://www.wikidata.org/entity/Q125524627,Q125524627,Factory,52.849641,17.737615
Poland,Q36,http://www.wikidata.org/entity/Q111202893,Widzewska Manufaktura,Factory,51.762361111,19.502111111
Poland,Q36,http://www.wikidata.org/entity/Q55078274,Przędzalnia „Frotex”,Factory,50.282166666,17.341
Poland,Q36,http://www.wikidata.org/entity/Q115532825,Q115532825,Factory,52.102919444,20.616736111
Poland,Q36,http://www.wikidata.org/entity/Q30105602,Q30105602,Factory,51.934453137,15.509194741
Poland,Q36,http://www.wikidata.org/entity/Q30083291,"Remains of sugar factory in Konary, Wołów County",Factory,51.412012,16.557275
Poland,Q36,http://www.wikidata.org/entity/Q9257611,Former faience and porcelain factory in Koło,Factory,52.1984,18.6365
Poland,Q36,http://www.wikidata.org/entity/Q122263646,Q122263646,Factory,51.53286,20.0111
Poland,Q36,http://www.wikidata.org/entity/Q110398305,Government Machinery Factory in Solec,Factory,52.231194,21.029
Poland,Q36,http://www.wikidata.org/entity/Q9257550,Q9257550,Factory,51.7366,19.472
Poland,Q36,http://www.wikidata.org/entity/Q106518295,Q106518295,Factory,50.3512921,19.0823883
Poland,Q36,http://www.wikidata.org/entity/Q86665140,Q86665140,Factory,52.999444,18.615833
Poland,Q36,http://www.wikidata.org/entity/Q83545618,Q83545618,Factory,52.223797222,21.007391666
Poland,Q36,http://www.wikidata.org/entity/Q56339716,Q56339716,Factory,51.411972,16.557306
Poland,Q36,http://www.wikidata.org/entity/Q9257569,Manufaktura,Factory,51.779444444,19.4475
Poland,Q36,http://www.wikidata.org/entity/Q11697590,Q11697590,Factory,51.7655,18.094
Poland,Q36,http://www.wikidata.org/entity/Q96631975,Q96631975,Factory,51.536333,20.003722
Poland,Q36,http://www.wikidata.org/entity/Q9386315,Zakłady Wytwórcze Lamp Elektrycznych im. Róży Luksemburg,Factory,52.2318,20.9781
Poland,Q36,http://www.wikidata.org/entity/Q30091867,Q30091867,Factory,51.749985882,19.472213098
Poland,Q36,http://www.wikidata.org/entity/Q9257557,Q9257557,Factory,51.7305,19.5724
Poland,Q36,http://www.wikidata.org/entity/Q112079275,Q112079275,Factory,52.19029524,20.898298701
Poland,Q36,http://www.wikidata.org/entity/Q9257573,Józef Balle's factory,Factory,51.7591,19.4633
Poland,Q36,http://www.wikidata.org/entity/Q121885033,Q121885033,Factory,51.76657,19.45299
Poland,Q36,http://www.wikidata.org/entity/Q9295161,Huta Kościuszko,Factory,50.3014,18.9597
Poland,Q36,http://www.wikidata.org/entity/Q11697592,Fabryka Fortepianów i Pianin Arnold Fibiger,Factory,51.7652,18.0837
Poland,Q36,http://www.wikidata.org/entity/Q1659665,Baildon Steelworks,Factory,50.268002,18.999696
Poland,Q36,http://www.wikidata.org/entity/Q111535665,Q111535665,Factory,50.613944,18.483056
Poland,Q36,http://www.wikidata.org/entity/Q30082382,Q30082382,Factory,50.663894,16.188665
Poland,Q36,http://www.wikidata.org/entity/Q1789195,Q1789195,Factory,50.76728806,16.27964306
Poland,Q36,http://www.wikidata.org/entity/Q99797734,Cementownia Rudniki,Factory,50.875555555,19.255277777
Poland,Q36,http://www.wikidata.org/entity/Q107290656,Q107290656,Factory,52.202551,21.025467
Poland,Q36,http://www.wikidata.org/entity/Q9197085,Q9197085,Factory,52.6776,18.3188
Poland,Q36,http://www.wikidata.org/entity/Q9386830,Zampol,Factory,49.7512,18.6322
Poland,Q36,http://www.wikidata.org/entity/Q30091912,Q30091912,Factory,51.758825397,19.476084694
Poland,Q36,http://www.wikidata.org/entity/Q110057850,E. Wedel factory,Factory,52.24669,21.051
Poland,Q36,http://www.wikidata.org/entity/Q9257549,Adam Osser's factory in Łódź,Factory,51.745277777,19.477777777
Poland,Q36,http://www.wikidata.org/entity/Q30045812,Q30045812,Factory,50.827565597,15.785561678
Poland,Q36,http://www.wikidata.org/entity/Q4574142,Markus Silberstein's factory,Factory,51.7517,19.4609
Poland,Q36,http://www.wikidata.org/entity/Q9386234,Norblin Factory in Warsaw,Factory,52.232222,20.990833
Poland,Q36,http://www.wikidata.org/entity/Q55252422,Schulz Schop,Factory,52.241389,20.988583
Poland,Q36,http://www.wikidata.org/entity/Q30967825,Tobacco factory in Łódź - Kopernika Street,Factory,51.757893,19.437625
Poland,Q36,http://www.wikidata.org/entity/Q66740234,Q66740234,Factory,51.105264,20.755133
Poland,Q36,http://www.wikidata.org/entity/Q86665269,Q86665269,Factory,52.969444,18.558889
Poland,Q36,http://www.wikidata.org/entity/Q9257607,Sobtzick’s Roka factory,Factory,50.0925,18.2236
Poland,Q36,http://www.wikidata.org/entity/Q4574844,White Factory,Factory,51.7455,19.4623
Poland,Q36,http://www.wikidata.org/entity/Q97184759,Q97184759,Factory,52.72875,19.119889
Poland,Q36,http://www.wikidata.org/entity/Q113827708,"Carbide Factory, Bydgoszcz",Factory,53.191944444,17.966666666
Poland,Q36,http://www.wikidata.org/entity/Q110390433,Q110390433,Factory,52.230833,21.032778
Poland,Q36,http://www.wikidata.org/entity/Q30091911,Q30091911,Factory,51.75934909,19.475990719
Poland,Q36,http://www.wikidata.org/entity/Q6511530,Lech Brewery Wielkopolski,Factory,52.3861,17.0004
Poland,Q36,http://www.wikidata.org/entity/Q9180140,Q9180140,Factory,52.081333333,21.148388888
Poland,Q36,http://www.wikidata.org/entity/Q9351171,Q9351171,Factory,49.7835,20.1884
Poland,Q36,http://www.wikidata.org/entity/Q9180203,Browar Witnica,Factory,52.673633333,14.900180555
Poland,Q36,http://www.wikidata.org/entity/Q9180205,Racibórz Brewery,Factory,50.0964,18.2201
Poland,Q36,http://www.wikidata.org/entity/Q9180229,Upper Silesia Brewery,Factory,50.300858333,18.793161111
Poland,Q36,http://www.wikidata.org/entity/Q7190347,Piast Brewery,Factory,51.12886944,17.05289444
Poland,Q36,http://www.wikidata.org/entity/Q11747737,Q11747737,Factory,53.1589,17.623
Poland,Q36,http://www.wikidata.org/entity/Q6538431,Leżajsk Brewery,Factory,50.2825,22.4216
Poland,Q36,http://www.wikidata.org/entity/Q9178108,Bosman Brewery in Szczecin,Factory,53.4047,14.5325
Poland,Q36,http://www.wikidata.org/entity/Q9180125,Q9180125,Factory,51.098833333,23.449972222
Poland,Q36,http://www.wikidata.org/entity/Q9180157,Browar Lwówek Śląski,Factory,51.109583333,15.584138888
Poland,Q36,http://www.wikidata.org/entity/Q9180169,Browar Nr 1,Factory,51.2243,22.5757
Poland,Q36,http://www.wikidata.org/entity/Q9180142,Kormoran,Factory,53.762111111,20.484694444
Poland,Q36,http://www.wikidata.org/entity/Q5288708,Dojlidy Brewery,Factory,53.1062,23.2036
Poland,Q36,http://www.wikidata.org/entity/Q9180227,Q9180227,Factory,53.118702777,18.007427777
Poland,Q36,http://www.wikidata.org/entity/Q11688908,Q11688908,Factory,50.151305555,22.242527777
Poland,Q36,http://www.wikidata.org/entity/Q9171381,Q9171381,Factory,54.394583333,18.6715
Poland,Q36,http://www.wikidata.org/entity/Q11688914,Q11688914,Factory,50.094396,18.543329
Poland,Q36,http://www.wikidata.org/entity/Q9180166,Q9180166,Factory,52.459305555,17.676444444
Poland,Q36,http://www.wikidata.org/entity/Q9169057,Q9169057,Factory,54.4473,18.5563
Poland,Q36,http://www.wikidata.org/entity/Q9180179,Browar Pomorski in Podgórz,Factory,52.9941,18.5931
Poland,Q36,http://www.wikidata.org/entity/Q9179091,Q9179091,Factory,54.344722222,18.649444444
Poland,Q36,http://www.wikidata.org/entity/Q9180225,Q9180225,Factory,53.4934,18.7589
Poland,Q36,http://www.wikidata.org/entity/Q9180184,Sielec Brewery,Factory,50.288888888,19.144722222
Poland,Q36,http://www.wikidata.org/entity/Q9180163,Q9180163,Factory,51.0774,17.7126
Poland,Q36,http://www.wikidata.org/entity/Q9180123,Q9180123,Factory,52.056416666,20.867305555
Poland,Q36,http://www.wikidata.org/entity/Q9180180,Q9180180,Factory,50.734375,19.050947222
Poland,Q36,http://www.wikidata.org/entity/Q9180100,Q9180100,Factory,52.9051,16.5578
Poland,Q36,http://www.wikidata.org/entity/Q11688900,Browar Grybów,Factory,49.623222222,20.911916666
Poland,Q36,http://www.wikidata.org/entity/Q9179092,Brauerei Paul Fischer,Factory,54.348472222,18.648944444
Poland,Q36,http://www.wikidata.org/entity/Q11688915,Danziger Aktien-Bierbrauerei,Factory,54.383611,18.607778
Poland,Q36,http://www.wikidata.org/entity/Q9180145,Browar Koszalin,Factory,54.1916,16.1754
Poland,Q36,http://www.wikidata.org/entity/Q9179090,Q9179090,Factory,54.325777777,18.632361111
Poland,Q36,http://www.wikidata.org/entity/Q11688905,Former brewery on Lubicz street in Kraków,Factory,50.06412,19.94901
Poland,Q36,http://www.wikidata.org/entity/Q9180208,Q9180208,Factory,52.2825,18.8855
Poland,Q36,http://www.wikidata.org/entity/Q9363738,Tyskie Browary Książęce,Factory,50.130677777,18.987863888
Poland,Q36,http://www.wikidata.org/entity/Q9180103,Q9180103,Factory,51.8317,16.2903
Poland,Q36,http://www.wikidata.org/entity/Q9180152,Tychy Brewery,Factory,50.129947222,18.988775
Poland,Q36,http://www.wikidata.org/entity/Q11688911,Q11688911,Factory,51.161522222,17.120066666
Poland,Q36,http://www.wikidata.org/entity/Q9180089,Q9180089,Factory,52.133305555,20.618611111
Poland,Q36,http://www.wikidata.org/entity/Q9180232,Browary Warmińsko-Mazurskie Jurand,Factory,53.7898,20.4815
Poland,Q36,http://www.wikidata.org/entity/Q11688898,Fortuna beer,Factory,52.205833333,17.489111111
Poland,Q36,http://www.wikidata.org/entity/Q9180211,Q9180211,Factory,50.475555555,19.463861111
Poland,Q36,http://www.wikidata.org/entity/Q9180095,Ciechanów Brewery,Factory,52.8826,20.6173
Poland,Q36,http://www.wikidata.org/entity/Q9180137,Q9180137,Factory,52.8455,19.6671
Poland,Q36,http://www.wikidata.org/entity/Q9180183,Q9180183,Factory,54.057638888,21.751722222
Poland,Q36,http://www.wikidata.org/entity/Q9180175,Q9180175,Factory,51.2436,22.5675
Poland,Q36,http://www.wikidata.org/entity/Q9180162,Brewery Peter Mokrski,Factory,50.2636,19.0936
Poland,Q36,http://www.wikidata.org/entity/Q9180161,Browar Mycielskich in Poznań,Factory,52.39359,17.01548
Poland,Q36,http://www.wikidata.org/entity/Q11688913,Brewery in Nidzica,Factory,53.359457312,20.427261396
Poland,Q36,http://www.wikidata.org/entity/Q11688901,Q11688901,Factory,50.134194444,19.1675
Poland,Q36,http://www.wikidata.org/entity/Q9180141,Q9180141,Factory,51.593361111,19.13275
Poland,Q36,http://www.wikidata.org/entity/Q9180172,Brewery No. 1 in Łódź,Factory,51.777902777,19.463802777
Poland,Q36,http://www.wikidata.org/entity/Q9180109,Q9180109,Factory,53.981388888,19.003111111
Poland,Q36,http://www.wikidata.org/entity/Q9180188,Q9180188,Factory,51.5983,18.9354
Poland,Q36,http://www.wikidata.org/entity/Q9180139,Former brewery in Częstochowa,Factory,50.808608,19.126307
Poland,Q36,http://www.wikidata.org/entity/Q9180133,Jerzy Bojańczyk's Brewery in Włocławek,Factory,52.657778,19.07625
Poland,Q36,http://www.wikidata.org/entity/Q11688907,21 Czeska Street in Kłodzko,Factory,50.439309,16.651793
Poland,Q36,http://www.wikidata.org/entity/Q11688910,Browar Warka,Factory,51.8014,21.1633
Poland,Q36,http://www.wikidata.org/entity/Q9180156,Q9180156,Factory,52.276416666,21.311222222
Poland,Q36,http://www.wikidata.org/entity/Q9180218,Browar w Zwierzyńcu,Factory,50.6072,22.9688
Poland,Q36,http://www.wikidata.org/entity/Q131033773,Q131033773,Factory,50.797537,19.118279
Poland,Q36,http://www.wikidata.org/entity/Q30045811,Q30045811,Factory,50.827299514,15.784503978
Poland,Q36,http://www.wikidata.org/entity/Q121885280,Q121885280,Factory,53.13424,23.16733
Poland,Q36,http://www.wikidata.org/entity/Q30088849,Mint in Złoty Stok,Factory,50.442222222,16.873333333
Poland,Q36,http://www.wikidata.org/entity/Q122195406,Q122195406,Factory,52.18671,21.65592
Poland,Q36,http://www.wikidata.org/entity/Q33471915,Old distillery in Policzna,Factory,51.455444,21.633
Poland,Q36,http://www.wikidata.org/entity/Q33473391,Q33473391,Factory,53.095139,19.978444
Poland,Q36,http://www.wikidata.org/entity/Q33092762,Q33092762,Factory,51.699790379,16.781372956
Poland,Q36,http://www.wikidata.org/entity/Q122103548,Q122103548,Factory,53.3609,19.95487
Poland,Q36,http://www.wikidata.org/entity/Q16533739,Browar w Nowej Rudzie,Factory,50.5792,16.5015
Poland,Q36,http://www.wikidata.org/entity/Q65976364,Gdańsk refinery,Factory,54.346477777,18.739591666
Poland,Q36,http://www.wikidata.org/entity/Q33019997,Distillery in Konin Gosławice,Factory,52.291389,18.259722
Poland,Q36,http://www.wikidata.org/entity/Q33092930,Q33092930,Factory,51.697771106,16.973234828
Poland,Q36,http://www.wikidata.org/entity/Q30104862,Sawmill in Wałowice,Factory,51.987778,14.800278
Poland,Q36,http://www.wikidata.org/entity/Q7265108,Płock refinery,Factory,52.5858,19.6839
Poland,Q36,http://www.wikidata.org/entity/Q33135139,Q33135139,Factory,52.32216,17.77483
Poland,Q36,http://www.wikidata.org/entity/Q30227942,Q30227942,Factory,50.873492637,17.975997906
Poland,Q36,http://www.wikidata.org/entity/Q122187673,Q122187673,Factory,50.12953,19.68659
Poland,Q36,http://www.wikidata.org/entity/Q106356232,14 Parkowa Street in Świerklaniec,Factory,50.430315734,18.947178036
Poland,Q36,http://www.wikidata.org/entity/Q86676106,Q86676106,Factory,50.696944,16.636056
Poland,Q36,http://www.wikidata.org/entity/Q69800466,2 Stanisława Soboty Street in Prudnik,Factory,50.316611111,17.593416666
Poland,Q36,http://www.wikidata.org/entity/Q33136985,Śrem Iron Foundry,Factory,52.091006804,17.015305191
Poland,Q36,http://www.wikidata.org/entity/Q122264136,Q122264136,Factory,51.5331,20.0105
Poland,Q36,http://www.wikidata.org/entity/Q122264231,Q122264231,Factory,51.73966,19.46792
Poland,Q36,http://www.wikidata.org/entity/Q33421807,Q33421807,Factory,51.344597,21.249694
Poland,Q36,http://www.wikidata.org/entity/Q11777376,Bydgoszcz Mint,Factory,53.1225,17.9969
Poland,Q36,http://www.wikidata.org/entity/Q122262367,Q122262367,Factory,54.095519,22.933952
Poland,Q36,http://www.wikidata.org/entity/Q122157690,Q122157690,Factory,53.21594,15.49344
Poland,Q36,http://www.wikidata.org/entity/Q33310008,Q33310008,Factory,53.017827786,15.118570533
Poland,Q36,http://www.wikidata.org/entity/Q48851308,Q48851308,Factory,54.35479,18.64775
Poland,Q36,http://www.wikidata.org/entity/Q110909447,100 Bridges Brewery in Wrocław,Factory,51.131944444,17.060055555
Poland,Q36,http://www.wikidata.org/entity/Q33089030,Q33089030,Factory,52.29256,17.1093
Poland,Q36,http://www.wikidata.org/entity/Q3536948,Okocim Brewery,Factory,49.9595,20.602833333
Poland,Q36,http://www.wikidata.org/entity/Q33083635,Q33083635,Factory,52.555140801,16.063589738
Poland,Q36,http://www.wikidata.org/entity/Q33135366,Q33135366,Factory,52.665906626,16.424654685
Poland,Q36,http://www.wikidata.org/entity/Q30091648,Ludwik Anstadt brewery,Factory,51.794337,19.441638
Poland,Q36,http://www.wikidata.org/entity/Q131674984,Scobel Brewery in Gliwice,Factory,50.29809,18.67854
Poland,Q36,http://www.wikidata.org/entity/Q56338789,Ironworks in Wądołek,Factory,53.491444444,21.785555555
Poland,Q36,http://www.wikidata.org/entity/Q33092983,Q33092983,Factory,51.668033102,16.895439313
Poland,Q36,http://www.wikidata.org/entity/Q33088629,Q33088629,Factory,52.312382664,16.794325194
Poland,Q36,http://www.wikidata.org/entity/Q33508019,Q33508019,Factory,50.943278,21.550556
Poland,Q36,http://www.wikidata.org/entity/Q30941845,Q30941845,Factory,54.084489,18.794112
Poland,Q36,http://www.wikidata.org/entity/Q122177529,Q122177529,Factory,51.70893,16.7469
Poland,Q36,http://www.wikidata.org/entity/Q123502388,Q123502388,Factory,50.2857981,19.1390356
Poland,Q36,http://www.wikidata.org/entity/Q121897594,Q121897594,Factory,51.79921,15.23893
Poland,Q36,http://www.wikidata.org/entity/Q122187362,Q122187362,Factory,50.0592,19.95869
Poland,Q36,http://www.wikidata.org/entity/Q30065490,Q30065490,Factory,50.305234547,18.891680047
Poland,Q36,http://www.wikidata.org/entity/Q30063371,Rozbark mine boiler house,Factory,50.342438,18.930657
Poland,Q36,http://www.wikidata.org/entity/Q9252514,Q9252514,Factory,52.2329,20.981
Poland,Q36,http://www.wikidata.org/entity/Q122172526,Q122172526,Factory,50.80387,16.25872
Poland,Q36,http://www.wikidata.org/entity/Q105534041,Tarnowskie Góry Chemical Plants,Factory,50.460916666,18.871861111
Poland,Q36,http://www.wikidata.org/entity/Q122262742,Q122262742,Factory,50.42072,18.84189
Poland,Q36,http://www.wikidata.org/entity/Q131825855,Q131825855,Factory,52.268473,20.98072
Poland,Q36,http://www.wikidata.org/entity/Q30091656,Q30091656,Factory,51.780880376,19.464437689
Poland,Q36,http://www.wikidata.org/entity/Q121885097,Q121885097,Factory,51.74557,19.46226
Poland,Q36,http://www.wikidata.org/entity/Q30620189,Q30620189,Factory,54.372344606,18.617095625
Poland,Q36,http://www.wikidata.org/entity/Q2332572,Old paper mill in Konstancin-Jeziorna,Factory,52.09122787,21.12199903
Poland,Q36,http://www.wikidata.org/entity/Q122154993,Q122154993,Factory,50.85898,17.48154
Poland,Q36,http://www.wikidata.org/entity/Q122172099,Q122172099,Factory,51.08681,17.01999
Poland,Q36,http://www.wikidata.org/entity/Q114552916,Power plant in Pionki,Factory,51.46367,21.43836
Poland,Q36,http://www.wikidata.org/entity/Q33508055,Q33508055,Factory,50.968847,21.223111
Poland,Q36,http://www.wikidata.org/entity/Q30091939,Q30091939,Factory,51.768403029,19.507885765
Poland,Q36,http://www.wikidata.org/entity/Q122175558,Q122175558,Factory,49.99865,18.48961
Poland,Q36,http://www.wikidata.org/entity/Q30101666,Q30101666,Factory,51.235097,22.57175
Poland,Q36,http://www.wikidata.org/entity/Q109652135,Q109652135,Factory,50.780556,19.189444
Poland,Q36,http://www.wikidata.org/entity/Q121897513,Q121897513,Factory,52.49044,15.22539
Poland,Q36,http://www.wikidata.org/entity/Q122176999,Q122176999,Factory,52.39546,16.91617
Poland,Q36,http://www.wikidata.org/entity/Q33612292,Q33612292,Factory,52.226806,20.964139
Poland,Q36,http://www.wikidata.org/entity/Q121885044,Q121885044,Factory,51.76164,19.46113
Poland,Q36,http://www.wikidata.org/entity/Q122155950,Q122155950,Factory,53.02708,18.58457
Poland,Q36,http://www.wikidata.org/entity/Q11690601,Wola power plant,Factory,52.22,20.9206
Poland,Q36,http://www.wikidata.org/entity/Q30091944,Q30091944,Factory,51.77018344,19.507596666
Poland,Q36,http://www.wikidata.org/entity/Q122262527,Q122262527,Factory,50.34533,18.88633
Poland,Q36,http://www.wikidata.org/entity/Q33308773,Q33308773,Factory,53.906329845,14.238158696
Poland,Q36,http://www.wikidata.org/entity/Q30064610,Q30064610,Factory,50.292665578,19.010688786
Poland,Q36,http://www.wikidata.org/entity/Q122234326,Q122234326,Factory,52.25068,21.02977
Poland,Q36,http://www.wikidata.org/entity/Q122260907,Q122260907,Factory,51.11817,17.06593
Poland,Q36,http://www.wikidata.org/entity/Q9295220,Q9295220,Factory,50.4834,19.4217
Poland,Q36,http://www.wikidata.org/entity/Q30967396,Q30967396,Factory,51.7584,19.44099
Poland,Q36,http://www.wikidata.org/entity/Q122265040,Q122265040,Factory,53.14076,16.75205
Poland,Q36,http://www.wikidata.org/entity/Q30091935,Q30091935,Factory,51.763296905,19.48556473
Poland,Q36,http://www.wikidata.org/entity/Q9371250,Paper factory in Konstancin-Jeziorna,Factory,52.0992,21.1375
Poland,Q36,http://www.wikidata.org/entity/Q122177168,Q122177168,Factory,52.5279,17.60118
Poland,Q36,http://www.wikidata.org/entity/Q101541866,Zakłady Tworzyw Sztucznych „Pronit”,Factory,51.464858333,21.432919444
Poland,Q36,http://www.wikidata.org/entity/Q122264876,Q122264876,Factory,52.41662,16.94398
Poland,Q36,http://www.wikidata.org/entity/Q111851465,Q111851465,Factory,52.240662,21.027461
Poland,Q36,http://www.wikidata.org/entity/Q122234264,Q122234264,Factory,52.26521,21.04223
Poland,Q36,http://www.wikidata.org/entity/Q30105067,Q30105067,Factory,52.754669324,15.257538147
Poland,Q36,http://www.wikidata.org/entity/Q122155943,Q122155943,Factory,53.02429,18.61041
Poland,Q36,http://www.wikidata.org/entity/Q122175447,Q122175447,Factory,49.60075,18.89996
Poland,Q36,http://www.wikidata.org/entity/Q122155918,Q122155918,Factory,53.01065,18.61189
Poland,Q36,http://www.wikidata.org/entity/Q130285428,"Crystal Glasswork ""Barbara"" in Polanica-Zdrój",Factory,50.398563865,16.503179055
Poland,Q36,http://www.wikidata.org/entity/Q11740934,Q11740934,Factory,50.4228,18.1303
Poland,Q36,http://www.wikidata.org/entity/Q121886448,Q121886448,Factory,49.57982,21.94397
Poland,Q36,http://www.wikidata.org/entity/Q122234302,Q122234302,Factory,52.2557,21.04585
Poland,Q36,http://www.wikidata.org/entity/Q110428723,Q110428723,Factory,52.348611,21.251944
Poland,Q36,http://www.wikidata.org/entity/Q121884924,Q121884924,Factory,51.86015,19.40519
Poland,Q36,http://www.wikidata.org/entity/Q30135941,Q30135941,Factory,52.215819738,15.782180698
Poland,Q36,http://www.wikidata.org/entity/Q30099236,Q30099236,Factory,51.063889,22.941167
Poland,Q36,http://www.wikidata.org/entity/Q30037453,Q30037453,Factory,52.9675,17.526389
Poland,Q36,http://www.wikidata.org/entity/Q32262540,Q32262540,Factory,52.214462014,16.366335153
Poland,Q36,http://www.wikidata.org/entity/Q30038029,Q30038029,Factory,53.602694,17.489444
Poland,Q36,http://www.wikidata.org/entity/Q32144914,Q32144914,Factory,51.878467366,16.956349682
Poland,Q36,http://www.wikidata.org/entity/Q31125106,Q31125106,Factory,53.886889,22.345861
Poland,Q36,http://www.wikidata.org/entity/Q29975732,Q29975732,Factory,52.861028,18.541583
Poland,Q36,http://www.wikidata.org/entity/Q30097163,Q30097163,Factory,52.079472,23.128583
Poland,Q36,http://www.wikidata.org/entity/Q30955024,Q30955024,Factory,54.637636302,18.015033057
Poland,Q36,http://www.wikidata.org/entity/Q29976664,Q29976664,Factory,52.91,19.090972
Poland,Q36,http://www.wikidata.org/entity/Q30078662,Q30078662,Factory,50.828209,16.919984
Poland,Q36,http://www.wikidata.org/entity/Q30531788,Q30531788,Factory,49.579167,21.873889
Poland,Q36,http://www.wikidata.org/entity/Q29976804,Q29976804,Factory,52.860167,19.32125
Poland,Q36,http://www.wikidata.org/entity/Q30215649,Q30215649,Factory,49.868990388,19.695555299
Poland,Q36,http://www.wikidata.org/entity/Q30136791,Q30136791,Factory,51.815710576,15.383896235
Poland,Q36,http://www.wikidata.org/entity/Q30041616,Q30041616,Factory,51.648909,16.66585
Poland,Q36,http://www.wikidata.org/entity/Q31860352,Q31860352,Factory,53.325694,20.490417
Poland,Q36,http://www.wikidata.org/entity/Q30143668,Q30143668,Factory,51.641793755,15.143248783
Poland,Q36,http://www.wikidata.org/entity/Q31864359,Q31864359,Factory,53.397306,19.644722
Poland,Q36,http://www.wikidata.org/entity/Q30231213,Q30231213,Factory,50.473732923,18.287571722
Poland,Q36,http://www.wikidata.org/entity/Q30097444,Q30097444,Factory,52.103778,23.077111
Poland,Q36,http://www.wikidata.org/entity/Q30102209,Q30102209,Factory,51.704097,22.892667
Poland,Q36,http://www.wikidata.org/entity/Q30045179,Q30045179,Factory,51.09691,16.463002
Poland,Q36,http://www.wikidata.org/entity/Q29965391,Q29965391,Factory,53.343278,17.703264
Poland,Q36,http://www.wikidata.org/entity/Q32998834,Q32998834,Factory,52.28016351,18.992068993
Poland,Q36,http://www.wikidata.org/entity/Q30037492,Q30037492,Factory,53.242139,17.482639
Poland,Q36,http://www.wikidata.org/entity/Q30103476,Q30103476,Factory,51.749667,21.922028
Poland,Q36,http://www.wikidata.org/entity/Q32038288,Q32038288,Factory,53.615278,19.88525
Poland,Q36,http://www.wikidata.org/entity/Q32999423,Q32999423,Factory,52.090652397,18.008437442
Poland,Q36,http://www.wikidata.org/entity/Q29965170,Q29965170,Factory,53.285083,19.416667
Poland,Q36,http://www.wikidata.org/entity/Q31107773,Q31107773,Factory,53.210556,20.148278
Poland,Q36,http://www.wikidata.org/entity/Q30104436,Q30104436,Factory,51.95105,15.17407
Poland,Q36,http://www.wikidata.org/entity/Q30038589,Q30038589,Factory,53.438667,18.156611
Poland,Q36,http://www.wikidata.org/entity/Q29976766,Q29976766,Factory,52.859556,19.253194
Poland,Q36,http://www.wikidata.org/entity/Q30097478,Old distillery in Międzyrzec Podlaski,Factory,51.979417,22.770556
Poland,Q36,http://www.wikidata.org/entity/Q30092193,Q30092193,Factory,51.297170457,20.289849751
Poland,Q36,http://www.wikidata.org/entity/Q30106797,Q30106797,Factory,52.578777865,15.739687635
Poland,Q36,http://www.wikidata.org/entity/Q31132659,Q31132659,Factory,53.966028,22.090833
Poland,Q36,http://www.wikidata.org/entity/Q30078855,Q30078855,Factory,50.763767,17.151522
Poland,Q36,http://www.wikidata.org/entity/Q31108117,Q31108117,Factory,53.378583,20.129306
Poland,Q36,http://www.wikidata.org/entity/Q29976537,Q29976537,Factory,52.682306,19.230278
Poland,Q36,http://www.wikidata.org/entity/Q30583399,Q30583399,Factory,54.273335037,18.297766256
Poland,Q36,http://www.wikidata.org/entity/Q30070171,Q30070171,Factory,51.884361,21.815083
Poland,Q36,http://www.wikidata.org/entity/Q30041504,Q30041504,Factory,51.746162792,16.028246748
Poland,Q36,http://www.wikidata.org/entity/Q30062430,Q30062430,Factory,50.712039644,18.676720754
Poland,Q36,http://www.wikidata.org/entity/Q30073214,Q30073214,Factory,52.248917,22.853944
Poland,Q36,http://www.wikidata.org/entity/Q30038251,Q30038251,Factory,53.365944,17.3275
Poland,Q36,http://www.wikidata.org/entity/Q30103895,Q30103895,Factory,51.612333,23.535389
Poland,Q36,http://www.wikidata.org/entity/Q29975627,Q29975627,Factory,53.470472,19.105833
Poland,Q36,http://www.wikidata.org/entity/Q30232262,Q30232262,Factory,49.952211264,21.322079811
Poland,Q36,http://www.wikidata.org/entity/Q30089642,Q30089642,Factory,51.436323957,19.166170055
Poland,Q36,http://www.wikidata.org/entity/Q30779075,Q30779075,Factory,54.072762591,18.486970933
Poland,Q36,http://www.wikidata.org/entity/Q32999741,Q32999741,Factory,52.474995934,18.528247466
Poland,Q36,http://www.wikidata.org/entity/Q29965516,Distillery in Wojnowo,Factory,53.208722,17.838139
Poland,Q36,http://www.wikidata.org/entity/Q30078287,Q30078287,Factory,51.53075,16.140203
Poland,Q36,http://www.wikidata.org/entity/Q30090694,Q30090694,Factory,51.805076624,19.852534753
Poland,Q36,http://www.wikidata.org/entity/Q30041787,Old distillery in Irządze,Factory,51.592637,16.426902
Poland,Q36,http://www.wikidata.org/entity/Q30582980,Q30582980,Factory,54.136893507,18.542279065
Poland,Q36,http://www.wikidata.org/entity/Q32270698,Q32270698,Factory,51.97571,17.3619
Poland,Q36,http://www.wikidata.org/entity/Q30079398,Q30079398,Factory,51.195464021,16.610785142
Poland,Q36,http://www.wikidata.org/entity/Q31867123,Q31867123,Factory,54.125,22.493833
Poland,Q36,http://www.wikidata.org/entity/Q32267988,Q32267988,Factory,52.115571238,16.356175031
Poland,Q36,http://www.wikidata.org/entity/Q31110007,Q31110007,Factory,53.277694,19.963222
Poland,Q36,http://www.wikidata.org/entity/Q30092473,Q30092473,Factory,51.500485992,19.709130732
Poland,Q36,http://www.wikidata.org/entity/Q32137194,Q32137194,Factory,52.601883829,17.385847548
Poland,Q36,http://www.wikidata.org/entity/Q31107544,Q31107544,Factory,53.378583,20.064583
Poland,Q36,http://www.wikidata.org/entity/Q30536242,Q30536242,Factory,50.142891042,23.330198957
Poland,Q36,http://www.wikidata.org/entity/Q29975141,Q29975141,Factory,53.429889,18.96675
Poland,Q36,http://www.wikidata.org/entity/Q31862871,Q31862871,Factory,53.429278,19.274056
Poland,Q36,http://www.wikidata.org/entity/Q30552250,Q30552250,Factory,49.816412328,22.421287887
Poland,Q36,http://www.wikidata.org/entity/Q33000248,Q33000248,Factory,52.030588915,16.706528917
Poland,Q36,http://www.wikidata.org/entity/Q31108819,Q31108819,Factory,53.253972,19.868167
Poland,Q36,http://www.wikidata.org/entity/Q32265331,Q32265331,Factory,52.20023,16.41391
Poland,Q36,http://www.wikidata.org/entity/Q30244684,Q30244684,Factory,51.149108,17.646057
Poland,Q36,http://www.wikidata.org/entity/Q30038612,Distillery in Bąkowo,Factory,53.571722,18.614806
Poland,Q36,http://www.wikidata.org/entity/Q32022821,Q32022821,Factory,53.486694,20.095944
Poland,Q36,http://www.wikidata.org/entity/Q30100531,Q30100531,Factory,51.794611,22.270833
Poland,Q36,http://www.wikidata.org/entity/Q30041825,Q30041825,Factory,51.615817212,16.359326801
Poland,Q36,http://www.wikidata.org/entity/Q30136735,Q30136735,Factory,52.10054159,15.784132272
Poland,Q36,http://www.wikidata.org/entity/Q30072190,Q30072190,Factory,51.733361,20.693722
Poland,Q36,http://www.wikidata.org/entity/Q30961352,Q30961352,Factory,53.740940196,17.564083289
Poland,Q36,http://www.wikidata.org/entity/Q30037671,Distillery in Zalesie,Factory,52.989861,17.595611
Poland,Q36,http://www.wikidata.org/entity/Q31804804,Q31804804,Factory,54.319444,21.488611
Poland,Q36,http://www.wikidata.org/entity/Q30060543,Former distillery in Simoradz,Factory,49.813361,18.761278
Poland,Q36,http://www.wikidata.org/entity/Q30572483,Q30572483,Factory,53.427640827,22.348174536
Poland,Q36,http://www.wikidata.org/entity/Q30103632,Q30103632,Factory,50.997333,22.848167
Poland,Q36,http://www.wikidata.org/entity/Q30037385,Q30037385,Factory,52.998056,17.33825
Poland,Q36,http://www.wikidata.org/entity/Q30069332,Old distillery in Chruściechów,Factory,51.580208,20.964389
Poland,Q36,http://www.wikidata.org/entity/Q29974776,Q29974776,Factory,53.294861,18.5375
Poland,Q36,http://www.wikidata.org/entity/Q32146060,Q32146060,Factory,51.895740829,16.91159968
Poland,Q36,http://www.wikidata.org/entity/Q32982168,Q32982168,Factory,51.362171454,18.034492768
Poland,Q36,http://www.wikidata.org/entity/Q31874295,Q31874295,Factory,54.096222,22.313278
Poland,Q36,http://www.wikidata.org/entity/Q30104038,Q30104038,Factory,50.701944,23.508806
Poland,Q36,http://www.wikidata.org/entity/Q30954117,Q30954117,Factory,54.714109902,17.907287395
Poland,Q36,http://www.wikidata.org/entity/Q32264841,Q32264841,Factory,52.175159434,16.585509448
Poland,Q36,http://www.wikidata.org/entity/Q30101664,Q30101664,Factory,51.235417,22.572625
Poland,Q36,http://www.wikidata.org/entity/Q126486100,Tannery from Koniaków 19th-20th century,Factory,50.292417881,18.970888114
Poland,Q36,http://www.wikidata.org/entity/Q122172751,Q122172751,Factory,51.15179,16.48239
Poland,Q36,http://www.wikidata.org/entity/Q30065547,Q30065547,Factory,50.131628757,18.985886771
Poland,Q36,http://www.wikidata.org/entity/Q9295172,Q9295172,Factory,50.673889,18.213056
Poland,Q36,http://www.wikidata.org/entity/Q122104222,Q122104222,Factory,53.53509,20.36448
Poland,Q36,http://www.wikidata.org/entity/Q122263160,Q122263160,Factory,52.19727,20.88393
Poland,Q36,http://www.wikidata.org/entity/Q9257598,Hydrierwerke Pölitz,Factory,53.5588,14.5457
Poland,Q36,http://www.wikidata.org/entity/Q123981497,Q123981497,Factory,50.26405,19.0352
Poland,Q36,http://www.wikidata.org/entity/Q122263994,Q122263994,Factory,52.09841,21.13949
Poland,Q36,http://www.wikidata.org/entity/Q125524624,Q125524624,Factory,52.850427,17.737572
Poland,Q36,http://www.wikidata.org/entity/Q9295223,ArcelorMittal Warszawa,Factory,52.292361,20.927444
Poland,Q36,http://www.wikidata.org/entity/Q131033782,Q131033782,Factory,50.797258,19.117301
Poland,Q36,http://www.wikidata.org/entity/Q11710336,Huta Zygmunt steelworks,Factory,50.3247,18.9114
Poland,Q36,http://www.wikidata.org/entity/Q59418398,Zakłady Górniczo-Hutnicze Orzeł Biały,Factory,50.348733685,18.969318968
Poland,Q36,http://www.wikidata.org/entity/Q33001459,Q33001459,Factory,52.013603701,16.530095552
Poland,Q36,http://www.wikidata.org/entity/Q122264741,Q122264741,Factory,53.87803,21.30861
Poland,Q36,http://www.wikidata.org/entity/Q11710322,Huta Jedność,Factory,50.298358,19.030173
Poland,Q36,http://www.wikidata.org/entity/Q122195740,Q122195740,Factory,52.44175,22.5371
Poland,Q36,http://www.wikidata.org/entity/Q951658,ArcelorMittal Poland,Factory,50.3432,19.2819
Poland,Q36,http://www.wikidata.org/entity/Q122263332,Q122263332,Factory,52.25669,19.16593
Poland,Q36,http://www.wikidata.org/entity/Q60855427,Q60855427,Factory,50.255372168,19.0508011
Poland,Q36,http://www.wikidata.org/entity/Q9295150,Huta Gliwice,Factory,50.2986,18.6808
Poland,Q36,http://www.wikidata.org/entity/Q9295116,Q9295116,Factory,50.613944,18.483056
Poland,Q36,http://www.wikidata.org/entity/Q33508047,Q33508047,Factory,50.968507,21.222599
Poland,Q36,http://www.wikidata.org/entity/Q30142056,Q30142056,Factory,52.023544821,15.733775153
Poland,Q36,http://www.wikidata.org/entity/Q55606136,Huta Łabędy,Factory,50.35477,18.61254
Poland,Q36,http://www.wikidata.org/entity/Q122264705,Q122264705,Factory,53.59876,19.56724
Poland,Q36,http://www.wikidata.org/entity/Q32022670,Q32022670,Factory,53.487417,20.094667
Poland,Q36,http://www.wikidata.org/entity/Q9177685,Former Born & Schütze Factory in Toruń,Factory,53.0242,18.6104
Poland,Q36,http://www.wikidata.org/entity/Q30099875,Q30099875,Factory,51.458972,22.488
Poland,Q36,http://www.wikidata.org/entity/Q122261087,Q122261087,Factory,50.51979,16.88121
Poland,Q36,http://www.wikidata.org/entity/Q9295157,Steel mill in Samsonów,Factory,50.99125,20.614917
Poland,Q36,http://www.wikidata.org/entity/Q33090215,Q33090215,Factory,52.341222744,16.894883763
Poland,Q36,http://www.wikidata.org/entity/Q127684853,Q127684853,Factory,51.765638,18.094168
Poland,Q36,http://www.wikidata.org/entity/Q105105537,Ironworks in Węgierska Górka,Factory,49.604770174,19.119847048
Poland,Q36,http://www.wikidata.org/entity/Q31078034,Q31078034,Factory,54.28588,20.486577
Poland,Q36,http://www.wikidata.org/entity/Q121897595,Q121897595,Factory,51.79982,15.23912
Poland,Q36,http://www.wikidata.org/entity/Q116478434,Q116478434,Factory,50.283770666,19.119535499
Poland,Q36,http://www.wikidata.org/entity/Q30039179,Q30039179,Factory,52.505044988,19.042973771
Poland,Q36,http://www.wikidata.org/entity/Q9295237,Huta Katarzyna,Factory,50.2928,19.146
Poland,Q36,http://www.wikidata.org/entity/Q9187680,Saint John the Evangelist church in Iława,Factory,53.5989,19.5672
Poland,Q36,http://www.wikidata.org/entity/Q28673561,Fryderyk Smelting Works,Factory,50.477527777,18.798833333
Poland,Q36,http://www.wikidata.org/entity/Q11699497,Gas-works on Grobla Street in Poznań,Factory,52.4039,16.9428
Poland,Q36,http://www.wikidata.org/entity/Q33137079,Q33137079,Factory,51.917172,18.61008
Poland,Q36,http://www.wikidata.org/entity/Q122158003,Q122158003,Factory,53.68882,16.29123
Poland,Q36,http://www.wikidata.org/entity/Q122112504,Q122112504,Factory,50.52808,21.20476
Poland,Q36,http://www.wikidata.org/entity/Q122177527,Q122177527,Factory,51.70932,16.74697
Poland,Q36,http://www.wikidata.org/entity/Q20033677,Brewery in Sobótka,Factory,50.88993,16.70897
Poland,Q36,http://www.wikidata.org/entity/Q123502387,Q123502387,Factory,50.2857981,19.1390356
Poland,Q36,http://www.wikidata.org/entity/Q33092906,Q33092906,Factory,51.692469774,17.074608146
Poland,Q36,http://www.wikidata.org/entity/Q33014583,Q33014583,Factory,51.870812742,16.382599854
Poland,Q36,http://www.wikidata.org/entity/Q121897265,Q121897265,Factory,51.93955,15.51127
Poland,Q36,http://www.wikidata.org/entity/Q122265235,Q122265235,Factory,53.50222,14.61284
Poland,Q36,http://www.wikidata.org/entity/Q120478024,Q120478024,Factory,50.973988263,18.214221963
Poland,Q36,http://www.wikidata.org/entity/Q28672874,Q28672874,Factory,52.429528,16.953194
Poland,Q36,http://www.wikidata.org/entity/Q110402150,Q110402150,Factory,51.7585,19.4685
Poland,Q36,http://www.wikidata.org/entity/Q33083747,Q33083747,Factory,52.541361769,15.983091239
Poland,Q36,http://www.wikidata.org/entity/Q122187930,Q122187930,Factory,49.98479,20.06497
Poland,Q36,http://www.wikidata.org/entity/Q83520228,Former brewery in Prudnik,Factory,50.322722222,17.580277777
Poland,Q36,http://www.wikidata.org/entity/Q106461592,Schön's spinning mill,Factory,50.29838,19.14357
Poland,Q36,http://www.wikidata.org/entity/Q16474362,Q16474362,Factory,52.401389,16.927222
Poland,Q36,http://www.wikidata.org/entity/Q126917911,Q126917911,Factory,50.439257,16.658239
Poland,Q36,http://www.wikidata.org/entity/Q86666453,Q86666453,Factory,54.122417,17.976028
Poland,Q36,http://www.wikidata.org/entity/Q33001062,Q33001062,Factory,52.033502051,16.547397742
Poland,Q36,http://www.wikidata.org/entity/Q122177578,Q122177578,Factory,52.68893,16.26336
Poland,Q36,http://www.wikidata.org/entity/Q30091838,Scheibler's factory,Factory,51.75297,19.48276
Poland,Q36,http://www.wikidata.org/entity/Q124822790,Q124822790,Factory,52.19461,20.97244
Poland,Q36,http://www.wikidata.org/entity/Q65169402,Q65169402,Factory,52.406139,16.921583
Poland,Q36,http://www.wikidata.org/entity/Q33402221,Q33402221,Factory,51.943111,20.950417
Poland,Q36,http://www.wikidata.org/entity/Q30066677,Gichta tower in Palowice,Factory,50.071597222,18.711
Poland,Q36,http://www.wikidata.org/entity/Q33083592,Q33083592,Factory,52.528725729,16.190041314
Poland,Q36,http://www.wikidata.org/entity/Q122264874,Q122264874,Factory,52.39346,17.0158
Poland,Q36,http://www.wikidata.org/entity/Q122177186,Q122177186,Factory,52.46141,17.78363
Poland,Q36,http://www.wikidata.org/entity/Q33008661,Q33008661,Factory,51.887994946,16.797355321
Poland,Q36,http://www.wikidata.org/entity/Q30627541,Brewery in Słupsk,Factory,54.472138721,17.038131461
Poland,Q36,http://www.wikidata.org/entity/Q33503730,Q33503730,Factory,50.991319,20.614681
Poland,Q36,http://www.wikidata.org/entity/Q122263861,Q122263861,Factory,52.315,22.88681
Poland,Q36,http://www.wikidata.org/entity/Q122263933,Q122263933,Factory,50.02034,19.79424
Poland,Q36,http://www.wikidata.org/entity/Q33305193,Q33305193,Factory,53.413457325,14.546192941
Poland,Q36,http://www.wikidata.org/entity/Q112577302,Brewery Wisła,Factory,49.6583536,18.8553211
Poland,Q36,http://www.wikidata.org/entity/Q33089340,Q33089340,Factory,52.400220125,17.271633818
Poland,Q36,http://www.wikidata.org/entity/Q31915681,Q31915681,Factory,54.003194,20.656542
Poland,Q36,http://www.wikidata.org/entity/Q33086728,Q33086728,Factory,53.003374941,16.685812612
Poland,Q36,http://www.wikidata.org/entity/Q33013938,Q33013938,Factory,51.842718,16.442669
Poland,Q36,http://www.wikidata.org/entity/Q33135246,Q33135246,Factory,52.490475859,16.508803978
Poland,Q36,http://www.wikidata.org/entity/Q33136608,Q33136608,Factory,52.094727972,17.301670072
Poland,Q36,http://www.wikidata.org/entity/Q132522950,brewery in Siemianowice Śląskie,Factory,50.298911,19.026196
Poland,Q36,http://www.wikidata.org/entity/Q33486021,Q33486021,Factory,50.642861,20.289389
Poland,Q36,http://www.wikidata.org/entity/Q30091938,2/6 Niciarniana Street in Łódź,Factory,51.768174115,19.507262259
Poland,Q36,http://www.wikidata.org/entity/Q63007982,Q63007982,Factory,52.400667,16.902639
Poland,Q36,http://www.wikidata.org/entity/Q33419515,Q33419515,Factory,52.611028,21.182528
Poland,Q36,http://www.wikidata.org/entity/Q122172428,Q122172428,Factory,51.26992,15.78076
Poland,Q36,http://www.wikidata.org/entity/Q122157721,Q122157721,Factory,53.67448,15.12245
Poland,Q36,http://www.wikidata.org/entity/Q122159647,Q122159647,Factory,50.60703,22.96779
Poland,Q36,http://www.wikidata.org/entity/Q86671636,Q86671636,Factory,52.447722,16.735472
Poland,Q36,http://www.wikidata.org/entity/Q33000985,Q33000985,Factory,52.038936284,16.812343424
Poland,Q36,http://www.wikidata.org/entity/Q86679665,Q86679665,Factory,54.540833,17.745944
Poland,Q36,http://www.wikidata.org/entity/Q122263849,Q122263849,Factory,52.40019,22.02418
Poland,Q36,http://www.wikidata.org/entity/Q33137198,Q33137198,Factory,52.045721033,18.361354667
Poland,Q36,http://www.wikidata.org/entity/Q17479551,Brewery in Bojanowo,Factory,51.708611111,16.746666666
Poland,Q36,http://www.wikidata.org/entity/Q113669509,Q113669509,Factory,52.33156,20.970424
Poland,Q36,http://www.wikidata.org/entity/Q5529384,Gdańsk refinery,Factory,54.347,18.736
Poland,Q36,http://www.wikidata.org/entity/Q131033780,Q131033780,Factory,50.797587,19.119529
Poland,Q36,http://www.wikidata.org/entity/Q122195353,Q122195353,Factory,51.81328,20.79395
Poland,Q36,http://www.wikidata.org/entity/Q121327173,Q121327173,Factory,50.266,21.8603
Poland,Q36,http://www.wikidata.org/entity/Q33083885,Q33083885,Factory,52.436038918,16.291746334
Poland,Q36,http://www.wikidata.org/entity/Q121885095,Q121885095,Factory,51.74559,19.46295
Poland,Q36,http://www.wikidata.org/entity/Q31114896,Q31114896,Factory,53.971056,19.636417
Poland,Q36,http://www.wikidata.org/entity/Q33083572,Q33083572,Factory,52.558805154,16.087182753
Poland,Q36,http://www.wikidata.org/entity/Q68021305,Q68021305,Factory,50.230452777,18.959588888
Poland,Q36,http://www.wikidata.org/entity/Q30091910,Q30091910,Factory,51.759640983,19.476033246
Poland,Q36,http://www.wikidata.org/entity/Q97373726,Q97373726,Factory,52.765278,14.86025
Poland,Q36,http://www.wikidata.org/entity/Q122177474,Q122177474,Factory,52.233,16.93117
Poland,Q36,http://www.wikidata.org/entity/Q33422866,Q33422866,Factory,52.331778,22.543861
Poland,Q36,http://www.wikidata.org/entity/Q33484243,Q33484243,Factory,50.387583,20.896778
Poland,Q36,http://www.wikidata.org/entity/Q33236218,Q33236218,Factory,54.013812484,15.819441036
Poland,Q36,http://www.wikidata.org/entity/Q33255473,Q33255473,Factory,52.978847,14.327583
Poland,Q36,http://www.wikidata.org/entity/Q33143318,Q33143318,Factory,52.089412864,16.203047016
Poland,Q36,http://www.wikidata.org/entity/Q33092749,Q33092749,Factory,51.704007864,16.74107635
Poland,Q36,http://www.wikidata.org/entity/Q33090710,Q33090710,Factory,52.617747,17.055654
Poland,Q36,http://www.wikidata.org/entity/Q33007178,Q33007178,Factory,51.681008923,17.296728091
Poland,Q36,http://www.wikidata.org/entity/Q121886131,Q121886131,Factory,49.95523,22.81164
Poland,Q36,http://www.wikidata.org/entity/Q126917922,Q126917922,Factory,50.436556,16.653763
Poland,Q36,http://www.wikidata.org/entity/Q121885029,Q121885029,Factory,51.76638,19.45277
Poland,Q36,http://www.wikidata.org/entity/Q122265236,Q122265236,Factory,53.50189,14.61296
Poland,Q36,http://www.wikidata.org/entity/Q33009275,Q33009275,Factory,51.931510365,16.661070984
Poland,Q36,http://www.wikidata.org/entity/Q30091891,U Scheiblera lofts in Łódź,Factory,51.753722,19.482794
Poland,Q36,http://www.wikidata.org/entity/Q121885529,Q121885529,Factory,54.12141,23.48064
Poland,Q36,http://www.wikidata.org/entity/Q123502400,a complex of buildings of the former Dietl worsted spinning mill,Factory,50.2857981,19.1390356
Poland,Q36,http://www.wikidata.org/entity/Q48845766,Q48845766,Factory,54.538472,17.750306
Poland,Q36,http://www.wikidata.org/entity/Q33507201,Q33507201,Factory,50.962889,21.672694
Poland,Q36,http://www.wikidata.org/entity/Q5119742,Cieszyn Brewery,Factory,49.75194444,18.62611111
Poland,Q36,http://www.wikidata.org/entity/Q122195228,Q122195228,Factory,51.40209,21.13934
Poland,Q36,http://www.wikidata.org/entity/Q30107587,Q30107587,Factory,51.810789906,15.712825722
Netherlands,Q55,http://www.wikidata.org/entity/Q18286432,Olland,Factory,52.1045,5.18498
Netherlands,Q55,http://www.wikidata.org/entity/Q17594785,Q17594785,Factory,52.44693,4.81879
Netherlands,Q55,http://www.wikidata.org/entity/Q17464701,Losser Textielfabriek,Factory,52.24863,7.01079
Netherlands,Q55,http://www.wikidata.org/entity/Q17594355,Q17594355,Factory,52.00988,4.70513
Netherlands,Q55,http://www.wikidata.org/entity/Q17600531,Zuid Nederlandse Kantfabriek,Factory,51.4511335,6.0489714
Netherlands,Q55,http://www.wikidata.org/entity/Q17603722,Q17603722,Factory,51.91407,4.39832
Netherlands,Q55,http://www.wikidata.org/entity/Q18770624,AaBe-fabriek,Factory,51.55134,5.10419
Netherlands,Q55,http://www.wikidata.org/entity/Q17607058,Railway Workshop Amersfoort,Factory,52.1556,5.36492
Netherlands,Q55,http://www.wikidata.org/entity/Q17599636,"Groest 104, Hilversum",Factory,52.22353,5.17719
Netherlands,Q55,http://www.wikidata.org/entity/Q17603897,factory building Havenweg Echt,Factory,51.10733,5.8521
Netherlands,Q55,http://www.wikidata.org/entity/Q17610625,factory building De Ploeg,Factory,51.326701,5.363048
Netherlands,Q55,http://www.wikidata.org/entity/Q17591609,Q17591609,Factory,53.26774,6.3067
Netherlands,Q55,http://www.wikidata.org/entity/Q17593529,Q17593529,Factory,51.49449,4.27829
Netherlands,Q55,http://www.wikidata.org/entity/Q17597827,"Langestraat 80, Tilburg",Factory,51.55719,5.0838
Netherlands,Q55,http://www.wikidata.org/entity/Q18286520,Prodentfabriek,Factory,52.161405555,5.379063888
Netherlands,Q55,http://www.wikidata.org/entity/Q17461438,Q17461438,Factory,52.2051,6.80339
Netherlands,Q55,http://www.wikidata.org/entity/Q17600552,"Deurneseweg 2, Griendtsveen",Factory,51.44419,5.89015
Netherlands,Q55,http://www.wikidata.org/entity/Q17598661,Q17598661,Factory,51.68943,4.94763
Netherlands,Q55,http://www.wikidata.org/entity/Q17594356,Q17594356,Factory,52.01005,4.70493
Netherlands,Q55,http://www.wikidata.org/entity/Q17595451,Q17595451,Factory,51.48581,5.13381
Netherlands,Q55,http://www.wikidata.org/entity/Q17599297,Meelfabriek 's-Hertogenbosch,Factory,51.69633,5.29967
Netherlands,Q55,http://www.wikidata.org/entity/Q17602814,Haka-gebouw,Factory,51.90804,4.43715
Netherlands,Q55,http://www.wikidata.org/entity/Q17593528,"Zuidzijde Haven 37/39, Bergen op Zoom",Factory,51.4945,4.27865
Netherlands,Q55,http://www.wikidata.org/entity/Q17598693,"Kerkstraat 6, Waalwijk",Factory,51.68905,5.05818
Netherlands,Q55,http://www.wikidata.org/entity/Q17595146,Briquette factory cooling tower Simpelveld,Factory,50.83199,5.98684
Netherlands,Q55,http://www.wikidata.org/entity/Q17604086,De Smalle Stroom,Factory,51.59235,5.31957
Netherlands,Q55,http://www.wikidata.org/entity/Q18775049,Zuidergasfabriek,Factory,52.338888888,4.915277777
Netherlands,Q55,http://www.wikidata.org/entity/Q17602862,Moutfabriek J. Hendricks-Crijns BV,Factory,51.23647,6.03638
Netherlands,Q55,http://www.wikidata.org/entity/Q17598665,Q17598665,Factory,51.69472,5.09756
Netherlands,Q55,http://www.wikidata.org/entity/Q18775848,Q18775848,Factory,51.901944444,4.490277777
Netherlands,Q55,http://www.wikidata.org/entity/Q17596633,Q17596633,Factory,52.39672,6.04778
Netherlands,Q55,http://www.wikidata.org/entity/Q17598729,Q17598729,Factory,51.92367,4.43176
Netherlands,Q55,http://www.wikidata.org/entity/Q17596969,Q17596969,Factory,51.56761,5.46471
Netherlands,Q55,http://www.wikidata.org/entity/Q17594583,Q17594583,Factory,51.39542,5.91713
Netherlands,Q55,http://www.wikidata.org/entity/Q17593671,"Sint Josephstraat 39, Dongen",Factory,51.62261,4.95112
Netherlands,Q55,http://www.wikidata.org/entity/Q17600610,Q17600610,Factory,52.16616,6.0756
Netherlands,Q55,http://www.wikidata.org/entity/Q18813868,Q18813868,Factory,51.77729,5.93586
Netherlands,Q55,http://www.wikidata.org/entity/Q17603480,"Flevolaan 43, Naarden",Factory,52.28563,5.19433
Netherlands,Q55,http://www.wikidata.org/entity/Q17593724,"Smits En Cie, Dongen",Factory,51.62391,4.93607
Netherlands,Q55,http://www.wikidata.org/entity/Q17606041,flour mill Weert,Factory,51.2530843,5.6906388
Netherlands,Q55,http://www.wikidata.org/entity/Q17599101,Mercurius,Factory,52.49095,4.80099
Netherlands,Q55,http://www.wikidata.org/entity/Q17595943,"Gazelle Rijwielfabriek, Dieren",Factory,52.04754,6.10469
Netherlands,Q55,http://www.wikidata.org/entity/Q17593713,"Kerkstraat 2B, Dongen",Factory,51.624,4.93044
Netherlands,Q55,http://www.wikidata.org/entity/Q17456590,Langestraat 66,Factory,53.2237,6.56899
Netherlands,Q55,http://www.wikidata.org/entity/Q17447511,"Kromme Elleboogsteeg 2, Weesp",Factory,52.307222222,5.039722222
Netherlands,Q55,http://www.wikidata.org/entity/Q4899539,Tonnemafabriek,Factory,53.026944,5.673889
Netherlands,Q55,http://www.wikidata.org/entity/Q17291946,"Van Hallstraat 290, Amsterdam",Factory,52.37883,4.8723
Netherlands,Q55,http://www.wikidata.org/entity/Q17461663,Q17461663,Factory,52.25155,6.16666
Netherlands,Q55,http://www.wikidata.org/entity/Q17463445,Q17463445,Factory,52.294392431,4.889739363
Netherlands,Q55,http://www.wikidata.org/entity/Q17464022,"Prins Hendrikkade 1-2, Franeker",Factory,53.18402,5.54805
Netherlands,Q55,http://www.wikidata.org/entity/Q17465086,Q17465086,Factory,51.38631,5.44495
Netherlands,Q55,http://www.wikidata.org/entity/Q17341532,"Keizershof 14, Dordrecht",Factory,51.81303,4.65789
Netherlands,Q55,http://www.wikidata.org/entity/Q15882926,Timmerfabriek,Factory,50.8568,5.69096
Netherlands,Q55,http://www.wikidata.org/entity/Q13745166,Koninklijke Van Kempen & Begeer,Factory,52.13424,4.46093
Netherlands,Q55,http://www.wikidata.org/entity/Q17341583,Dogcakes Fabriek,Factory,51.81204,4.65747
Netherlands,Q55,http://www.wikidata.org/entity/Q17457422,Bordenhal,Factory,50.845872222,5.699752777
Netherlands,Q55,http://www.wikidata.org/entity/Q17366674,"Bergstraat 26, Eindhoven",Factory,51.43659,5.4764
Netherlands,Q55,http://www.wikidata.org/entity/Q17455391,Q17455391,Factory,51.92285,4.4347
Netherlands,Q55,http://www.wikidata.org/entity/Q17465388,Van Waning office building,Factory,51.91185,4.50902
Netherlands,Q55,http://www.wikidata.org/entity/Q16070090,Coca-Colafabriek Sloterdijk,Factory,52.385258,4.844811
Netherlands,Q55,http://www.wikidata.org/entity/Q17454422,Q17454422,Factory,52.07153,4.32869
Netherlands,Q55,http://www.wikidata.org/entity/Q17255182,"Bakenessergracht 71, Haarlem",Factory,52.3817,4.64082
Netherlands,Q55,http://www.wikidata.org/entity/Q17463757,"Dutch heritage site 'Bata shoefactory', 512318",Factory,51.49093,5.40059
Netherlands,Q55,http://www.wikidata.org/entity/Q17465049,"Markt 8, Waalre",Factory,51.38578,5.44387
Netherlands,Q55,http://www.wikidata.org/entity/Q17292278,Q17292278,Factory,52.35785556,4.89193333
Netherlands,Q55,http://www.wikidata.org/entity/Q17447430,"Achteromstraat 2-8, Weesp",Factory,52.30872,5.04197
Netherlands,Q55,http://www.wikidata.org/entity/Q17457890,Q17457890,Factory,52.84119,6.17597
Netherlands,Q55,http://www.wikidata.org/entity/Q17457031,Q17457031,Factory,52.679205783,6.944856504
Netherlands,Q55,http://www.wikidata.org/entity/Q13856538,Mignot & De Block,Factory,51.4375,5.483889
Netherlands,Q55,http://www.wikidata.org/entity/Q17301438,Boas Diamantfabriek,Factory,52.36961,4.90318
Netherlands,Q55,http://www.wikidata.org/entity/Q17458763,Noordhollandsche Conservenfabriek,Factory,52.70318,4.808
Netherlands,Q55,http://www.wikidata.org/entity/Q17466092,Cereol factory,Factory,52.089231,5.088783
Netherlands,Q55,http://www.wikidata.org/entity/Q17402261,Goulmy & Baar,Factory,51.69538,5.29689
Netherlands,Q55,http://www.wikidata.org/entity/Q17329867,Q17329867,Factory,53.20018,5.8067
Netherlands,Q55,http://www.wikidata.org/entity/Q17445032,House D'r Bau,Factory,50.76803,6.01705
Netherlands,Q55,http://www.wikidata.org/entity/Q17461720,"Bergsingel 15, Deventer",Factory,52.25061,6.16622
Netherlands,Q55,http://www.wikidata.org/entity/Q17454073,"Regenkledingfabriek, Winschoten",Factory,53.14118,7.03934
Netherlands,Q55,http://www.wikidata.org/entity/Q14942659,Verkadefabriek,Factory,51.69556,5.2975
Netherlands,Q55,http://www.wikidata.org/entity/Q17469419,"Bata Industrials, Best",Factory,51.49093,5.40059
Netherlands,Q55,http://www.wikidata.org/entity/Q17291825,"Bilderdijkstraat 163, Amsterdam",Factory,52.36792,4.87236
Netherlands,Q55,http://www.wikidata.org/entity/Q17291837,"Bilderdijkstraat 159, Amsterdam",Factory,52.36792,4.87236
Netherlands,Q55,http://www.wikidata.org/entity/Q17291831,"Da Costakade 160, Amsterdam",Factory,52.36792,4.87236
Netherlands,Q55,http://www.wikidata.org/entity/Q17291841,"Da Costakade 148, Amsterdam",Factory,52.36792,4.87236
Netherlands,Q55,http://www.wikidata.org/entity/Q17461664,"Bergpoortstraat 23, Deventer",Factory,52.25084,6.16724
Netherlands,Q55,http://www.wikidata.org/entity/Q17464377,Q17464377,Factory,51.47523,5.65623
Netherlands,Q55,http://www.wikidata.org/entity/Q17457645,Q17457645,Factory,52.7034,5.29293
Netherlands,Q55,http://www.wikidata.org/entity/Q14626972,ECI Cultuurfabriek,Factory,51.18932,5.98065
Netherlands,Q55,http://www.wikidata.org/entity/Q17291562,Verf- en Vernisfabriek,Factory,52.37652,4.90147
Netherlands,Q55,http://www.wikidata.org/entity/Q17402082,"Kanaaldijk Noord West 49, Helmond",Factory,51.47984,5.65115
Netherlands,Q55,http://www.wikidata.org/entity/Q7476372,Schriek's Koekfabriek,Factory,51.64256,4.8638
Netherlands,Q55,http://www.wikidata.org/entity/Q17463685,"Fabriekscomplex Ten Cate, Nijverdal",Factory,52.36365,6.47088
Netherlands,Q55,http://www.wikidata.org/entity/Q98398495,Q98398495,Factory,51.8159705,4.659727
